ts_iso,batt_v,airspeed_ms,groundspeed_ms,roll_deg,pitch_deg,yaw_deg,lat,lon,alt_m
2025-10-13T15:42:00.083618+00:00,,,,,,,,,
2025-10-13T15:42:00.328072+00:00,,,,,,,,,
2025-10-13T15:42:00.931269+00:00,,,,,,,,,
2025-10-13T15:42:01.533905+00:00,,,,,,,,,
2025-10-14T07:00:11.975276+00:00,,,,,,,,,
2025-10-14T07:00:13.826694+00:00,,,,,,,,,
2025-10-14T07:00:14.505534+00:00,,,,,,,,,
2025-10-14T07:00:14.726728+00:00,11.113,11.173,,4.248,1.541,,,,
2025-10-14T07:00:15.332092+00:00,11.125,11.886,,7.595,2.889,,,,
2025-10-14T07:00:15.976130+00:00,11.137,11.907,,9.670,4.032,,,,
2025-10-14T07:00:16.635246+00:00,11.150,11.140,,9.793,4.772,,,,
2025-10-14T07:00:17.417587+00:00,11.165,9.650,,7.306,4.981,,,,
2025-10-14T07:00:18.023115+00:00,11.176,8.591,,3.851,4.623,,,,
2025-10-14T07:00:18.626395+00:00,11.187,8.034,,-0.270,3.848,,,,
2025-10-14T07:00:19.233335+00:00,11.198,8.175,,-4.366,2.719,,,,
2025-10-14T07:00:19.848557+00:00,11.209,8.981,,-7.723,1.320,,,,
2025-10-14T07:00:20.453513+00:00,11.219,10.141,,-9.651,-0.176,,,,
2025-10-14T07:00:21.056040+00:00,11.228,11.247,,-9.877,-1.651,,,,
2025-10-14T07:00:21.663307+00:00,11.237,11.916,,-8.354,-2.986,,,,
2025-10-14T07:00:22.271706+00:00,11.246,11.900,,-5.337,-4.050,,,,
2025-10-14T07:00:22.884327+00:00,11.254,11.195,,-1.337,-4.746,,,,
2025-10-14T07:00:23.492766+00:00,11.261,10.064,,2.877,-4.999,,,,
2025-10-14T07:00:24.097822+00:00,11.268,8.915,,6.559,-4.796,,,,
2025-10-14T07:00:24.703153+00:00,11.275,8.152,,9.083,-4.157,,,,
2025-10-14T07:00:24.703153+00:00,11.275,8.152,,9.083,-4.157,,,,
2025-10-14T07:00:26.332226+00:00,11.288,9.344,,7.592,-0.831,,,,
2025-10-14T07:00:26.940025+00:00,11.292,10.541,,4.229,0.682,,,,
2025-10-14T07:00:27.545293+00:00,11.295,11.540,,0.130,2.128,,,,
2025-10-14T07:00:27.545293+00:00,11.295,11.540,,0.130,2.128,,,,
2025-10-14T07:00:29.396304+00:00,11.300,10.800,,-9.588,4.895,,,,
2025-10-14T07:00:30.006587+00:00,11.300,9.605,,-9.903,4.975,,,,
2025-10-14T07:00:30.612860+00:00,11.299,8.558,,-8.454,4.600,,,,
2025-10-14T07:00:31.215617+00:00,11.298,8.027,,-5.525,3.812,,,,
2025-10-14T07:00:31.820747+00:00,11.296,8.192,,-1.611,2.674,,,,
2025-10-14T07:00:32.430559+00:00,11.293,9.008,,2.620,1.283,,,,
2025-10-14T07:00:32.430559+00:00,11.293,9.008,,2.620,1.283,,,,
2025-10-14T07:00:34.680879+00:00,11.277,11.974,,9.639,-3.808,,,,
2025-10-14T07:00:35.292763+00:00,11.271,11.432,,7.662,-4.607,,,,
2025-10-14T07:00:35.905583+00:00,11.264,10.369,,4.295,-4.979,,,,
2025-10-14T07:00:36.510792+00:00,11.257,9.185,,0.204,-4.890,,,,
2025-10-14T07:00:37.113310+00:00,11.249,8.293,,-3.907,-4.361,,,,
2025-10-14T07:00:37.719219+00:00,11.241,8.003,,-7.349,-3.433,,,,
2025-10-14T07:00:37.719219+00:00,11.241,8.003,,-7.349,-3.433,,,,
2025-10-14T07:00:38.655092+00:00,11.227,8.908,,-9.959,-1.424,,,,
2025-10-14T07:00:39.259165+00:00,11.217,10.053,,-9.452,0.066,,,,
2025-10-14T07:00:39.864779+00:00,11.207,11.182,,-7.271,1.554,,,,
2025-10-14T07:00:40.469006+00:00,11.197,11.889,,-3.813,2.898,,,,
2025-10-14T07:00:41.074294+00:00,11.186,11.927,,0.325,3.981,,,,
2025-10-14T07:00:41.683709+00:00,11.175,11.274,,4.432,4.705,,,,
2025-10-14T07:00:42.293521+00:00,11.163,10.161,,7.745,4.996,,,,
2025-10-14T07:00:42.900060+00:00,11.152,8.996,,9.663,4.828,,,,
2025-10-14T07:00:43.506655+00:00,11.140,8.189,,9.865,4.220,,,,
2025-10-14T07:00:44.119604+00:00,11.128,8.030,,8.290,3.214,,,,
2025-10-14T07:00:44.727782+00:00,11.116,8.582,,5.241,1.920,,,,
2025-10-14T07:00:45.331040+00:00,11.104,9.633,,1.290,0.461,,,,
2025-10-14T07:00:45.933978+00:00,11.092,10.812,,-2.885,-1.038,,,,
2025-10-14T07:00:46.550726+00:00,11.079,11.720,,-6.627,-2.473,,,,
2025-10-14T07:00:47.158961+00:00,11.067,11.995,,-9.128,-3.661,,,,
2025-10-14T07:00:47.762355+00:00,11.055,11.560,,-10.000,-4.508,,,,
2025-10-14T07:00:48.365240+00:00,11.044,10.576,,-9.115,-4.947,,,,
2025-10-14T07:00:48.976537+00:00,11.032,9.373,,-6.587,-4.936,,,,
2025-10-14T07:00:49.588366+00:00,11.021,8.396,,-2.867,-4.468,,,,
2025-10-14T07:00:50.193749+00:00,11.010,8.001,,1.326,-3.596,,,,
2025-10-14T07:00:50.801814+00:00,10.999,8.320,,5.300,-2.391,,,,
2025-10-14T07:00:51.411790+00:00,10.989,9.245,,8.336,-0.962,,,,
2025-10-14T07:00:52.020310+00:00,10.979,10.439,,9.873,0.552,,,,
2025-10-14T07:00:52.625892+00:00,10.969,11.472,,9.652,2.009,,,,
2025-10-14T07:00:53.233383+00:00,10.961,11.981,,7.713,3.286,,,,
2025-10-14T07:00:53.839169+00:00,10.952,11.784,,4.411,4.261,,,,
2025-10-14T07:00:54.451456+00:00,10.944,10.940,,0.282,4.851,,,,
2025-10-14T07:00:55.056679+00:00,10.937,9.768,,-3.852,4.992,,,,
2025-10-14T07:00:55.664197+00:00,10.930,8.676,,-7.316,4.676,,,,
2025-10-14T07:00:56.270387+00:00,10.924,8.058,,-9.474,3.935,,,,
2025-10-14T07:00:56.876670+00:00,10.919,8.132,,-9.951,2.835,,,,
2025-10-14T07:00:57.490546+00:00,10.914,8.885,,-8.637,1.458,,,,
2025-10-14T07:00:58.096956+00:00,10.910,10.030,,-5.794,-0.037,,,,
2025-10-14T07:00:58.699813+00:00,10.906,11.158,,-1.947,-1.520,,,,
2025-10-14T07:00:59.305297+00:00,10.904,11.880,,2.259,-2.871,,,,
2025-10-14T07:00:59.916445+00:00,10.902,11.931,,6.097,-3.969,,,,
2025-10-14T07:01:00.522854+00:00,10.900,11.290,,8.820,-4.696,,,,
2025-10-14T07:01:01.126084+00:00,10.900,10.195,,9.977,-4.994,,,,
2025-10-14T07:01:01.728905+00:00,10.900,9.032,,9.381,-4.841,,,,
2025-10-14T07:01:02.343262+00:00,10.901,8.200,,7.083,-4.237,,,,
2025-10-14T07:01:02.949788+00:00,10.903,8.024,,3.547,-3.251,,,,
2025-10-14T07:01:03.552715+00:00,10.905,8.548,,-0.594,-1.976,,,,
2025-10-14T07:01:04.159672+00:00,10.909,9.591,,-4.656,-0.513,,,,
2025-10-14T07:01:04.768274+00:00,10.912,10.784,,-7.897,1.000,,,,
2025-10-14T07:01:05.377385+00:00,10.917,11.696,,-9.727,2.423,,,,
2025-10-14T07:01:05.981990+00:00,10.922,11.998,,-9.822,3.616,,,,
2025-10-14T07:01:05.981990+00:00,10.922,11.998,,-9.822,3.616,,,,
2025-10-14T07:01:09.264401+00:00,10.961,8.035,,7.932,3.191,,,,
2025-10-14T07:01:09.878948+00:00,10.970,8.608,,9.749,1.877,,,,
2025-10-14T07:01:10.486055+00:00,10.980,9.676,,9.800,0.406,,,,
2025-10-14T07:01:11.094233+00:00,10.990,10.862,,8.103,-1.105,,,,
2025-10-14T07:01:11.699620+00:00,11.000,11.736,,4.977,-2.508,,,,
2025-10-14T07:01:12.306623+00:00,11.011,11.992,,0.958,-3.686,,,,
2025-10-14T07:01:12.913528+00:00,11.022,11.537,,-3.229,-4.527,,,,
2025-10-14T07:01:13.524489+00:00,11.033,10.525,,-6.864,-4.956,,,,
2025-10-14T07:01:14.129090+00:00,11.045,9.335,,-9.245,-4.928,,,,
2025-10-14T07:01:14.732558+00:00,11.056,8.382,,-9.995,-4.455,,,,
2025-10-14T07:01:15.344945+00:00,11.068,8.000,,-8.960,-3.564,,,,
2025-10-14T07:01:15.953926+00:00,11.080,8.341,,-6.323,-2.348,,,,
2025-10-14T07:01:16.558846+00:00,11.093,9.271,,-2.581,-0.927,,,,
2025-10-14T07:01:17.161791+00:00,11.105,10.456,,1.603,0.574,,,,
2025-10-14T07:01:17.770800+00:00,11.117,11.488,,5.541,2.037,,,,
2025-10-14T07:01:18.380461+00:00,11.129,11.985,,8.490,3.313,,,,
2025-10-14T07:01:18.986608+00:00,11.141,11.770,,9.912,4.280,,,,
2025-10-14T07:01:19.590935+00:00,11.153,10.928,,9.581,4.855,,,,
2025-10-14T07:01:20.200444+00:00,11.164,9.746,,7.536,4.990,,,,
2025-10-14T07:01:20.813937+00:00,11.176,8.651,,4.115,4.661,,,,
2025-10-14T07:01:21.419151+00:00,11.187,8.050,,0.004,3.910,,,,
2025-10-14T07:01:22.022258+00:00,11.197,8.141,,-4.094,2.808,,,,
2025-10-14T07:01:22.629370+00:00,11.208,8.895,,-7.491,1.443,,,,
2025-10-14T07:01:23.241212+00:00,11.218,10.053,,-9.566,-0.066,,,,
2025-10-14T07:01:23.845327+00:00,11.228,11.179,,-9.919,-1.550,,,,
2025-10-14T07:01:24.452019+00:00,11.237,11.890,,-8.516,-2.899,,,,
2025-10-14T07:01:25.057328+00:00,11.245,11.927,,-5.607,-3.982,,,,
2025-10-14T07:01:25.662829+00:00,11.253,11.279,,-1.706,-4.702,,,,
2025-10-14T07:01:26.270140+00:00,11.261,10.173,,2.510,-4.995,,,,
2025-10-14T07:01:26.878127+00:00,11.268,9.003,,6.282,-4.831,,,,
2025-10-14T07:01:27.482937+00:00,11.274,8.194,,8.924,-4.228,,,,
2025-10-14T07:01:28.088470+00:00,11.280,8.026,,9.990,-3.239,,,,
2025-10-14T07:01:28.695017+00:00,11.285,8.561,,9.285,-1.954,,,,
2025-10-14T07:01:29.303988+00:00,11.289,9.614,,6.920,-0.485,,,,
2025-10-14T07:01:29.909341+00:00,11.293,10.799,,3.339,1.021,,,,
2025-10-14T07:01:30.512164+00:00,11.295,11.698,,-0.814,2.428,,,,
2025-10-14T07:01:31.124612+00:00,11.298,11.997,,-4.884,3.633,,,,
2025-10-14T07:01:31.730382+00:00,11.299,11.578,,-8.042,4.492,,,,
2025-10-14T07:01:32.336704+00:00,11.300,10.597,,-9.776,4.943,,,,
2025-10-14T07:01:32.940662+00:00,11.300,9.407,,-9.779,4.943,,,,
2025-10-14T07:01:33.548796+00:00,11.299,8.422,,-8.043,4.492,,,,
2025-10-14T07:01:34.159163+00:00,11.298,8.003,,-4.857,3.625,,,,
2025-10-14T07:01:34.781607+00:00,11.295,8.317,,-0.714,2.396,,,,
2025-10-14T07:01:34.781607+00:00,11.295,8.317,,-0.714,2.396,,,,
2025-10-14T07:01:36.309675+00:00,11.287,11.008,,8.405,-1.306,,,,
2025-10-14T07:01:36.977319+00:00,11.281,11.861,,9.945,-2.815,,,,
2025-10-14T07:01:36.977319+00:00,11.281,11.861,,9.945,-2.815,,,,
2025-10-14T07:01:39.462125+00:00,11.255,8.973,,-0.633,-4.819,,,,
2025-10-14T07:01:40.072572+00:00,11.247,8.175,,-4.712,-4.196,,,,
2025-10-14T07:01:40.679247+00:00,11.239,8.034,,-7.927,-3.193,,,,
2025-10-14T07:01:41.286012+00:00,11.230,8.596,,-9.735,-1.897,,,,
2025-10-14T07:01:41.895069+00:00,11.220,9.663,,-9.809,-0.423,,,,
2025-10-14T07:01:43.808898+00:00,11.188,11.970,,-0.355,3.829,,,,
2025-10-14T07:01:44.411420+00:00,11.177,11.427,,3.767,4.610,,,,
2025-10-14T07:01:44.411420+00:00,11.177,11.427,,3.767,4.610,,,,
2025-10-14T07:01:46.027760+00:00,11.146,8.535,,9.986,4.584,,,,
2025-10-14T07:01:46.640440+00:00,11.134,8.019,,9.302,3.768,,,,
2025-10-14T07:01:47.246829+00:00,11.122,8.217,,6.966,2.615,,,,
2025-10-14T07:01:47.849373+00:00,11.110,9.044,,3.418,1.233,,,,
2025-10-14T07:01:48.491509+00:00,11.097,10.287,,-1.005,-0.359,,,,
2025-10-14T07:01:49.111737+00:00,11.085,11.384,,-5.097,-1.864,,,,
2025-10-14T07:01:49.717283+00:00,11.073,11.960,,-8.185,-3.163,,,,
2025-10-14T07:01:50.320302+00:00,11.061,11.841,,-9.820,-4.170,,,,
2025-10-14T07:01:50.929853+00:00,11.049,11.061,,-9.721,-4.806,,,,
2025-10-14T07:01:51.540135+00:00,11.037,9.898,,-7.876,-4.998,,,,
2025-10-14T07:01:52.148765+00:00,11.026,8.775,,-4.625,-4.731,,,,
2025-10-14T07:01:52.753658+00:00,11.015,8.093,,-0.574,-4.034,,,,
2025-10-14T07:01:53.361548+00:00,11.004,8.090,,3.599,-2.964,,,,
2025-10-14T07:01:53.971048+00:00,10.993,8.774,,7.137,-1.620,,,,
2025-10-14T07:01:54.579566+00:00,10.983,9.897,,9.393,-0.128,,,,
2025-10-14T07:01:55.193133+00:00,10.974,11.066,,9.969,1.387,,,,
2025-10-14T07:01:55.799266+00:00,10.964,11.840,,8.758,2.758,,,,
2025-10-14T07:01:56.402939+00:00,10.956,11.960,,6.008,3.873,,,,
2025-10-14T07:01:57.019624+00:00,10.947,11.367,,2.112,4.650,,,,
2025-10-14T07:01:57.629651+00:00,10.940,10.285,,-2.126,4.987,,,,
2025-10-14T07:01:58.235802+00:00,10.933,9.106,,-5.960,4.866,,,,
2025-10-14T07:01:58.838729+00:00,10.927,8.249,,-8.726,4.306,,,,
2025-10-14T07:01:59.447318+00:00,10.921,8.011,,-9.965,3.347,,,,
2025-10-14T07:02:00.064157+00:00,10.916,8.498,,-9.402,2.061,,,,
2025-10-14T07:02:00.671940+00:00,10.911,9.521,,-7.158,0.604,,,,
2025-10-14T07:02:01.275806+00:00,10.908,10.708,,-3.664,-0.899,,,,
2025-10-14T07:02:01.887589+00:00,10.905,11.654,,0.531,-2.339,,,,
2025-10-14T07:02:02.502187+00:00,10.902,12.000,,4.648,-3.566,,,,
2025-10-14T07:02:03.107505+00:00,10.901,11.625,,7.877,-4.449,,,,
2025-10-14T07:02:03.710221+00:00,10.900,10.677,,9.709,-4.926,,,,
2025-10-14T07:02:04.317797+00:00,10.900,9.482,,9.832,-4.957,,,,
2025-10-14T07:02:04.932680+00:00,10.901,8.462,,8.174,-4.527,,,,
2025-10-14T07:02:05.537963+00:00,10.902,8.008,,5.083,-3.688,,,,
2025-10-14T07:02:06.141513+00:00,10.904,8.259,,1.105,-2.518,,,,
2025-10-14T07:02:06.756446+00:00,10.907,9.147,,-3.143,-1.093,,,,
2025-10-14T07:02:07.367866+00:00,10.911,10.340,,-6.800,0.426,,,,
2025-10-14T07:02:07.976848+00:00,10.915,11.406,,-9.223,1.900,,,,
2025-10-14T07:02:08.586063+00:00,10.920,11.967,,-9.996,3.200,,,,
2025-10-14T07:02:09.191596+00:00,10.926,11.823,,-8.989,4.200,,,,
2025-10-14T07:02:09.806747+00:00,10.932,11.015,,-6.339,4.824,,,,
2025-10-14T07:02:10.415066+00:00,10.939,9.848,,-2.578,4.996,,,,
2025-10-14T07:02:11.027745+00:00,10.947,8.729,,1.673,4.706,,,,
2025-10-14T07:02:11.633937+00:00,10.955,8.076,,5.584,3.988,,,,
2025-10-14T07:02:12.237281+00:00,10.963,8.106,,8.494,2.912,,,,
2025-10-14T07:02:12.853492+00:00,10.973,8.827,,9.922,1.542,,,,
2025-10-14T07:02:13.464450+00:00,10.982,9.968,,9.544,0.040,,,,
2025-10-14T07:02:14.070276+00:00,10.992,11.112,,7.471,-1.453,,,,
2025-10-14T07:02:14.674224+00:00,11.003,11.860,,4.087,-2.810,,,,
2025-10-14T07:02:15.285246+00:00,11.013,11.945,,-0.067,-3.924,,,,
2025-10-14T07:02:15.896952+00:00,11.025,11.326,,-4.214,-4.675,,,,
2025-10-14T07:02:16.502125+00:00,11.036,10.239,,-7.569,-4.991,,,,
2025-10-14T07:02:17.106434+00:00,11.047,9.069,,-9.585,-4.854,,,,
2025-10-14T07:02:17.724819+00:00,11.060,8.215,,-9.897,-4.259,,,,
2025-10-14T07:02:18.335930+00:00,11.072,8.020,,-8.411,-3.274,,,,
2025-10-14T07:02:19.005395+00:00,11.085,8.625,,-5.062,-1.850,,,,
2025-10-14T07:02:19.609244+00:00,11.097,9.693,,-1.078,-0.386,,,,
2025-10-14T07:02:20.437376+00:00,11.113,11.248,,4.543,1.653,,,,
2025-10-14T07:02:22.091962+00:00,11.146,11.453,,9.983,4.592,,,,
2025-10-14T07:02:22.698067+00:00,11.158,10.411,,8.855,4.973,,,,
2025-10-14T07:02:23.306669+00:00,11.169,9.218,,6.143,4.900,,,,
2025-10-14T07:02:23.914491+00:00,11.181,8.307,,2.338,4.377,,,,
2025-10-14T07:02:24.523022+00:00,11.192,8.002,,-1.889,3.451,,,,
2025-10-14T07:02:25.127692+00:00,11.202,8.410,,-5.755,2.218,,,,
2025-10-14T07:02:25.737761+00:00,11.213,9.392,,-8.626,0.769,,,,
2025-10-14T07:02:26.342748+00:00,11.222,10.583,,-9.943,-0.737,,,,
2025-10-14T07:02:26.952062+00:00,11.232,11.573,,-9.494,-2.187,,,,
2025-10-14T07:02:27.581212+00:00,11.241,11.999,,-7.249,-3.471,,,,
2025-10-14T07:02:28.186377+00:00,11.249,11.685,,-3.776,-4.386,,,,
2025-10-14T07:02:28.789438+00:00,11.257,10.777,,0.349,-4.901,,,,
2025-10-14T07:02:29.396446+00:00,11.264,9.587,,4.438,-4.973,,,,
2025-10-14T07:02:30.013221+00:00,11.271,8.531,,7.780,-4.581,,,,
2025-10-14T07:02:30.622088+00:00,11.277,8.019,,9.682,-3.769,,,,
2025-10-14T07:02:31.225144+00:00,11.282,8.213,,9.857,-2.624,,,,
2025-10-14T07:02:31.831532+00:00,11.287,9.044,,8.289,-1.233,,,,
2025-10-14T07:02:32.444770+00:00,11.291,10.229,,5.209,0.287,,,,
2025-10-14T07:02:33.051110+00:00,11.294,11.320,,1.232,1.764,,,,
2025-10-14T07:02:33.653354+00:00,11.297,11.939,,-2.937,3.072,,,,
2025-10-14T07:02:34.258842+00:00,11.299,11.873,,-6.608,4.109,,,,
2025-10-14T07:02:34.869133+00:00,11.300,11.133,,-9.124,4.775,,,,
2025-10-14T07:02:35.473461+00:00,11.300,9.996,,-10.000,5.000,,,,
2025-10-14T07:02:36.076654+00:00,11.300,8.862,,-9.116,4.773,,,,
2025-10-14T07:02:36.684921+00:00,11.299,8.126,,-6.605,4.108,,,,
2025-10-14T07:02:37.382627+00:00,11.296,8.115,,-2.309,2.886,,,,
