ts_iso,batt_v,airspeed_ms,groundspeed_ms,roll_deg,pitch_deg,yaw_deg,lat,lon,alt_m
2025-10-13T11:11:46.609914+00:00,,,,,,,,,
2025-10-13T11:11:46.778538+00:00,11.167,9.458,9.486,6.819,4.953,68.321,56.162871,10.203925,59.38
2025-10-13T11:11:46.980912+00:00,11.171,9.082,9.458,5.718,4.859,72.369,56.162938,10.203879,61.82
2025-10-13T11:11:47.183376+00:00,11.175,8.743,9.414,4.502,4.714,76.418,56.162892,10.203876,59.47
2025-10-13T11:11:47.385685+00:00,11.178,8.456,9.357,3.196,4.522,80.464,56.162863,10.203941,61.44
2025-10-13T11:11:47.588045+00:00,11.182,8.232,9.285,1.827,4.283,84.512,56.162928,10.203915,60.09
2025-10-13T11:11:47.790630+00:00,11.186,8.080,9.200,0.419,4.001,88.563,56.162859,10.203859,62.23
2025-10-13T11:11:47.992726+00:00,11.189,8.007,9.103,-0.994,3.678,92.605,56.162900,10.203869,58.25
2025-10-13T11:11:48.199292+00:00,11.193,8.015,8.993,-2.418,3.309,96.737,56.162874,10.203927,60.40
2025-10-13T11:11:48.401935+00:00,11.197,8.106,8.874,-3.765,2.913,100.789,56.162864,10.203852,61.74
2025-10-13T11:11:48.605218+00:00,11.200,8.275,8.746,-5.041,2.485,104.855,56.162913,10.203908,62.36
2025-10-13T11:11:48.809609+00:00,11.204,8.516,8.609,-6.221,2.030,108.943,56.162865,10.203896,60.73
2025-10-13T11:11:49.010585+00:00,11.207,8.814,8.468,-7.257,1.561,112.963,56.162890,10.203882,58.70
2025-10-13T11:11:49.213143+00:00,11.210,9.162,8.322,-8.157,1.073,117.014,56.162940,10.203912,58.49
2025-10-13T11:11:49.415441+00:00,11.214,9.544,8.172,-8.892,0.574,121.060,56.162941,10.203924,59.86
2025-10-13T11:11:49.616676+00:00,11.217,9.942,8.022,-9.446,0.072,125.084,56.162926,10.203864,62.34
2025-10-13T11:11:49.819127+00:00,11.220,10.345,7.870,-9.815,-0.433,129.133,56.162861,10.203883,60.56
2025-10-13T11:11:50.021461+00:00,11.224,10.734,7.720,-9.987,-0.934,133.180,56.162913,10.203911,60.27
2025-10-13T11:11:50.224267+00:00,11.227,11.094,7.572,-9.959,-1.426,137.236,56.162871,10.203900,62.02
2025-10-13T11:11:50.426736+00:00,11.230,11.408,7.429,-9.731,-1.903,141.286,56.162873,10.203889,61.45
2025-10-13T11:11:50.578352+00:00,11.232,11.606,7.326,-9.432,-2.248,144.318,56.162876,10.203866,57.91
2025-10-13T11:11:50.781172+00:00,11.235,11.814,7.193,-8.867,-2.689,148.374,56.162938,10.203873,59.14
2025-10-13T11:11:50.984524+00:00,11.238,11.946,7.069,-8.121,-3.103,152.441,56.162915,10.203895,60.47
2025-10-13T11:11:51.187496+00:00,11.241,11.999,6.955,-7.213,-3.484,156.501,56.162927,10.203927,60.15
2025-10-13T11:11:51.389146+00:00,11.244,11.970,6.852,-6.167,-3.827,160.534,56.162944,10.203888,57.65
2025-10-13T11:11:51.592210+00:00,11.247,11.860,6.760,-4.989,-4.134,164.595,56.162938,10.203950,61.02
2025-10-13T11:11:51.794308+00:00,11.249,11.675,6.681,-3.717,-4.396,168.637,56.162892,10.203867,60.47
2025-10-13T11:11:51.997416+00:00,11.252,11.420,6.615,-2.365,-4.615,172.699,56.162855,10.203867,57.64
2025-10-13T11:11:52.201593+00:00,11.255,11.105,6.564,-0.956,-4.787,176.783,56.162904,10.203874,61.69
2025-10-13T11:11:52.405146+00:00,11.257,10.746,6.527,0.467,-4.909,180.854,56.162934,10.203912,61.32
2025-10-13T11:11:52.607237+00:00,11.260,10.358,6.506,1.870,-4.980,184.896,56.162877,10.203945,60.43
2025-10-13T11:11:52.809249+00:00,11.262,9.956,6.500,3.236,-5.000,188.936,56.162881,10.203886,62.09
2025-10-13T11:11:53.011374+00:00,11.264,9.555,6.509,4.538,-4.969,192.978,56.162934,10.203900,58.88
2025-10-13T11:11:53.213151+00:00,11.267,9.174,6.534,5.748,-4.887,197.014,56.162859,10.203940,58.20
2025-10-13T11:11:53.415018+00:00,11.269,8.825,6.573,6.843,-4.756,201.051,56.162899,10.203943,58.74
2025-10-13T11:11:53.617010+00:00,11.271,8.524,6.627,7.802,-4.576,205.091,56.162866,10.203885,58.78
2025-10-13T11:11:53.818912+00:00,11.273,8.284,6.695,8.605,-4.349,209.129,56.162948,10.203946,58.56
2025-10-13T11:11:54.021157+00:00,11.275,8.112,6.777,9.238,-4.078,213.174,56.162856,10.203850,59.05
2025-10-13T11:11:54.223839+00:00,11.277,8.018,6.871,9.687,-3.765,217.228,56.162877,10.203927,60.11
2025-10-13T11:11:54.426006+00:00,11.279,8.005,6.976,9.940,-3.413,221.271,56.162913,10.203902,60.52
2025-10-13T11:11:54.628952+00:00,11.281,8.073,7.092,9.995,-3.026,225.330,56.162904,10.203942,61.76
2025-10-13T11:11:54.830911+00:00,11.282,8.219,7.217,9.849,-2.609,229.369,56.162881,10.203894,57.58
2025-10-13T11:11:55.032803+00:00,11.284,8.438,7.350,9.507,-2.166,233.407,56.162907,10.203897,61.71
2025-10-13T11:11:55.235569+00:00,11.285,8.722,7.490,8.973,-1.699,237.462,56.162886,10.203903,59.41
2025-10-13T11:11:55.437769+00:00,11.287,9.057,7.635,8.260,-1.215,241.506,56.162920,10.203876,59.78
2025-10-13T11:11:55.639828+00:00,11.288,9.430,7.784,7.384,-0.720,245.547,56.162869,10.203875,62.25
2025-10-13T11:11:55.841118+00:00,11.290,9.825,7.934,6.363,-0.219,249.573,56.162873,10.203924,61.67
2025-10-13T11:11:56.043047+00:00,11.291,10.228,8.086,5.213,0.285,253.612,56.162914,10.203895,62.16
2025-10-13T11:11:56.245726+00:00,11.292,10.623,8.237,3.954,0.789,257.665,56.162852,10.203939,57.70
2025-10-13T11:11:56.447700+00:00,11.293,10.992,8.385,2.620,1.283,261.705,56.162942,10.203883,61.64
2025-10-13T11:11:56.650496+00:00,11.294,11.321,8.530,1.228,1.765,265.761,56.162895,10.203935,59.65
2025-10-13T11:11:56.853436+00:00,11.295,11.597,8.669,-0.189,2.230,269.820,56.162947,10.203876,57.79
2025-10-13T11:11:57.055344+00:00,11.296,11.806,8.801,-1.596,2.670,273.858,56.162901,10.203912,62.09
2025-10-13T11:11:57.207805+00:00,11.297,11.915,8.895,-2.638,2.984,276.907,56.162894,10.203905,58.93
2025-10-13T11:11:57.409612+00:00,11.297,11.992,9.012,-3.970,3.373,280.943,56.162852,10.203870,58.82
2025-10-13T11:11:57.611579+00:00,11.298,11.987,9.118,-5.224,3.728,284.982,56.162880,10.203884,60.79
2025-10-13T11:11:57.814395+00:00,11.298,11.902,9.214,-6.378,4.046,289.039,56.162914,10.203942,57.62
2025-10-13T11:11:58.017023+00:00,11.299,11.738,9.297,-7.402,4.322,293.091,56.162902,10.203878,60.27
2025-10-13T11:11:58.220768+00:00,11.299,11.502,9.367,-8.283,4.556,297.166,56.162916,10.203864,59.25
2025-10-13T11:11:58.423365+00:00,11.300,11.206,9.422,-8.992,4.741,301.218,56.162935,10.203865,59.53
2025-10-13T11:11:58.625667+00:00,11.300,10.860,9.463,-9.519,4.877,305.264,56.162881,10.203880,58.79
2025-10-13T11:11:58.828773+00:00,11.300,10.479,9.489,-9.857,4.964,309.326,56.162869,10.203887,61.92
2025-10-13T11:11:59.030833+00:00,11.300,10.079,9.500,-9.996,4.999,313.367,56.162948,10.203897,57.88
2025-10-13T11:11:59.233527+00:00,11.300,9.675,9.495,-9.935,4.983,317.421,56.162895,10.203938,59.30
2025-10-13T11:11:59.435372+00:00,11.300,9.286,9.475,-9.675,4.917,321.458,56.162939,10.203940,59.02
2025-10-13T11:11:59.637235+00:00,11.300,8.926,9.440,-9.223,4.801,325.496,56.162883,10.203949,58.84
2025-10-13T11:12:14.303647+00:00,11.109,9.086,8.353,3.262,1.176,258.824,56.162947,10.203861,58.17
2025-10-13T11:12:14.504852+00:00,11.105,9.460,8.205,1.903,0.682,262.848,56.162860,10.203863,61.58
2025-10-13T11:12:14.707666+00:00,11.101,9.859,8.053,0.495,0.177,266.904,56.162859,10.203876,57.53
2025-10-13T11:12:14.908992+00:00,11.097,10.260,7.902,-0.913,-0.326,270.931,56.162850,10.203918,60.73
2025-10-13T11:12:15.110835+00:00,11.093,10.653,7.752,-2.306,-0.827,274.967,56.162906,10.203945,57.95
2025-10-13T11:12:15.312516+00:00,11.089,11.018,7.604,-3.652,-1.320,279.001,56.162944,10.203895,61.18
2025-10-13T11:12:15.514638+00:00,11.085,11.343,7.460,-4.929,-1.799,283.044,56.162934,10.203926,61.82
2025-10-13T11:12:15.717390+00:00,11.081,11.614,7.321,-6.110,-2.262,287.099,56.162863,10.203862,61.80
2025-10-13T11:12:15.919458+00:00,11.077,11.818,7.190,-7.165,-2.700,291.140,56.162947,10.203928,58.06
2025-10-13T11:12:16.123230+00:00,11.073,11.949,7.066,-8.084,-3.114,295.215,56.162871,10.203877,59.32
2025-10-13T11:12:16.325215+00:00,11.069,11.999,6.952,-8.833,-3.493,299.255,56.162904,10.203903,59.23
2025-10-13T11:12:16.528238+00:00,11.065,11.968,6.849,-9.408,-3.837,303.316,56.162920,10.203902,60.81
2025-10-13T11:12:16.730913+00:00,11.061,11.856,6.757,-9.793,-4.142,307.369,56.162922,10.203851,61.48
2025-10-13T11:12:16.932832+00:00,11.057,11.669,6.679,-9.980,-4.403,311.407,56.162909,10.203892,62.37
2025-10-13T11:12:17.135679+00:00,11.053,11.413,6.614,-9.969,-4.620,315.464,56.162900,10.203938,57.86
2025-10-13T11:12:17.337678+00:00,11.049,11.100,6.563,-9.757,-4.790,319.504,56.162902,10.203940,57.81
2025-10-13T11:12:17.539600+00:00,11.045,10.743,6.527,-9.352,-4.910,323.543,56.162914,10.203882,57.58
2025-10-13T11:12:17.742381+00:00,11.042,10.353,6.506,-8.757,-4.980,327.598,56.162869,10.203928,58.59
2025-10-13T11:12:17.944345+00:00,11.038,9.951,6.500,-7.989,-5.000,331.638,56.162942,10.203929,58.11
2025-10-13T11:12:18.146269+00:00,11.034,9.551,6.510,-7.062,-4.968,335.676,56.162908,10.203945,59.31
2025-10-13T11:12:18.348847+00:00,11.030,9.168,6.534,-5.990,-4.885,339.728,56.162928,10.203860,59.50
2025-10-13T11:12:18.550878+00:00,11.026,8.820,6.574,-4.802,-4.753,343.768,56.162905,10.203887,60.80
2025-10-13T11:12:18.753806+00:00,11.023,8.519,6.628,-3.512,-4.572,347.827,56.162936,10.203902,58.93
2025-10-13T11:12:18.905422+00:00,11.020,8.333,6.678,-2.500,-4.405,350.859,56.162860,10.203853,60.88
2025-10-13T11:12:19.107160+00:00,11.016,8.145,6.757,-1.112,-4.145,354.894,56.162880,10.203942,61.57
2025-10-13T11:12:19.309500+00:00,11.012,8.033,6.848,0.302,-3.841,358.941,56.162928,10.203927,61.57
2025-10-13T11:12:19.511482+00:00,11.009,8.000,6.950,1.707,-3.499,2.980,56.162910,10.203873,59.61
2025-10-13T11:12:19.714273+00:00,11.005,8.050,7.064,3.084,-3.119,7.036,56.162867,10.203949,58.20
2025-10-13T11:12:19.916202+00:00,11.002,8.178,7.187,4.394,-2.709,11.075,56.162931,10.203893,57.63
2025-10-13T11:12:20.119631+00:00,10.998,8.383,7.319,5.624,-2.269,15.143,56.162884,10.203913,61.29
2025-10-13T11:12:20.322812+00:00,10.995,8.653,7.458,6.739,-1.805,19.207,56.162899,10.203893,61.32
2025-10-13T11:12:20.525065+00:00,10.991,8.978,7.602,7.714,-1.325,23.252,56.162889,10.203873,61.82
2025-10-13T11:12:20.727939+00:00,10.988,9.345,7.751,8.537,-0.830,27.309,56.162873,10.203933,58.51
2025-10-13T11:12:20.929920+00:00,10.985,9.737,7.901,9.186,-0.329,31.349,56.162878,10.203920,61.35
2025-10-13T11:12:21.132547+00:00,10.981,10.142,8.053,9.652,0.177,35.402,56.162931,10.203897,61.44
2025-10-13T11:12:21.335676+00:00,10.978,10.541,8.205,9.925,0.683,39.464,56.162904,10.203868,60.72
2025-10-13T11:12:21.537881+00:00,10.975,10.917,8.354,9.998,1.180,43.508,56.162914,10.203910,58.23
2025-10-13T11:12:21.740080+00:00,10.972,11.255,8.499,9.871,1.664,47.552,56.162876,10.203927,60.13
2025-10-13T11:12:21.942288+00:00,10.969,11.542,8.639,9.546,2.131,51.597,56.162883,10.203875,61.34
2025-10-13T11:12:22.145353+00:00,10.966,11.767,8.774,9.028,2.579,55.658,56.162861,10.203938,58.51
2025-10-13T11:12:22.346551+00:00,10.963,11.919,8.899,8.335,2.996,59.682,56.162881,10.203932,58.86
2025-10-13T11:12:22.548499+00:00,10.960,11.993,9.015,7.474,3.384,63.721,56.162869,10.203925,59.24
2025-10-13T11:12:22.751123+00:00,10.957,11.986,9.122,6.460,3.739,67.773,56.162878,10.203949,58.72
2025-10-13T11:12:22.953136+00:00,10.954,11.898,9.216,5.319,4.055,71.814,56.162928,10.203925,62.24
2025-10-13T11:12:23.156152+00:00,10.951,11.732,9.299,4.066,4.330,75.874,56.162871,10.203936,59.05
2025-10-13T11:12:23.357311+00:00,10.949,11.497,9.368,2.744,4.559,79.897,56.162914,10.203851,59.64
2025-10-13T11:12:23.560254+00:00,10.946,11.199,9.423,1.355,4.744,83.956,56.162887,10.203937,58.42
2025-10-13T11:12:23.762888+00:00,10.944,10.852,9.464,-0.060,4.879,88.009,56.162919,10.203883,60.09
2025-10-13T11:12:23.965768+00:00,10.941,10.470,9.489,-1.474,4.965,92.066,56.162936,10.203939,61.47
2025-10-13T11:12:24.167674+00:00,10.939,10.071,9.500,-2.853,4.999,96.104,56.162917,10.203901,60.34
2025-10-13T11:12:24.369793+00:00,10.936,9.668,9.495,-4.176,4.983,100.147,56.162885,10.203897,59.61
2025-10-13T11:12:24.571938+00:00,10.934,9.279,9.475,-5.416,4.915,104.190,56.162940,10.203890,58.28
2025-10-13T11:12:24.773805+00:00,10.932,8.920,9.439,-6.546,4.798,108.227,56.162902,10.203876,62.16
2025-10-13T11:12:24.975759+00:00,10.930,8.604,9.389,-7.546,4.632,112.266,56.162936,10.203936,62.12
2025-10-13T11:12:25.178059+00:00,10.928,8.345,9.325,-8.396,4.418,116.312,56.162870,10.203851,60.37
2025-10-13T11:12:25.380127+00:00,10.926,8.153,9.248,-9.078,4.159,120.353,56.162859,10.203931,60.21
2025-10-13T11:12:25.582007+00:00,10.924,8.037,9.157,-9.578,3.858,124.391,56.162878,10.203859,59.00
2025-10-13T11:12:25.783837+00:00,10.922,8.000,9.055,-9.887,3.518,128.428,56.162904,10.203926,60.84
2025-10-13T11:12:25.985877+00:00,10.920,8.045,8.943,-10.000,3.142,132.468,56.162902,10.203863,61.15
2025-10-13T11:12:26.188627+00:00,10.918,8.169,8.820,-9.911,2.732,136.523,56.162924,10.203937,57.75
2025-10-13T11:12:26.390564+00:00,10.917,8.368,8.689,-9.625,2.296,140.562,56.162909,10.203919,60.07
2025-10-13T11:12:26.592837+00:00,10.915,8.634,8.551,-9.147,1.836,144.608,56.162868,10.203932,60.24
2025-10-13T11:12:26.794701+00:00,10.913,8.955,8.407,-8.486,1.358,148.645,56.162915,10.203862,59.48
2025-10-13T11:12:26.996780+00:00,10.912,9.318,8.260,-7.656,0.866,152.686,56.162876,10.203881,61.53
2025-10-13T11:12:27.199085+00:00,10.911,9.710,8.109,-6.671,0.364,156.732,56.162947,10.203884,59.77
2025-10-13T11:12:27.350805+00:00,10.910,10.012,7.995,-5.844,-0.015,159.767,56.162898,10.203940,57.92
2025-10-13T11:12:27.552859+00:00,10.909,10.413,7.844,-4.641,-0.519,163.808,56.162919,10.203853,60.04
2025-10-13T11:12:27.754843+00:00,10.907,10.797,7.695,-3.347,-1.018,167.848,56.162892,10.203879,61.10
2025-10-13T11:12:27.956831+00:00,10.906,11.149,7.548,-1.985,-1.506,171.887,56.162943,10.203912,60.95
2025-10-13T11:12:28.158849+00:00,10.905,11.454,7.406,-0.584,-1.979,175.928,56.162923,10.203899,58.41
2025-10-13T11:12:28.361033+00:00,10.904,11.700,7.270,0.830,-2.433,179.971,56.162893,10.203853,59.58
2025-10-13T11:12:28.563066+00:00,10.904,11.877,7.142,2.226,-2.861,184.012,56.162912,10.203901,61.68
2025-10-13T11:12:28.765009+00:00,10.903,11.977,7.022,3.578,-3.260,188.051,56.162855,10.203891,58.91
2025-10-13T11:12:28.967160+00:00,10.902,11.997,6.912,4.859,-3.626,192.094,56.162876,10.203946,59.36
2025-10-13T11:12:29.169155+00:00,10.902,11.936,6.814,6.042,-3.954,196.134,56.162889,10.203853,58.34
2025-10-13T11:12:29.372090+00:00,10.901,11.795,6.727,7.109,-4.244,200.193,56.162942,10.203890,59.72
2025-10-13T11:12:29.574591+00:00,10.901,11.581,6.653,8.032,-4.489,204.243,56.162877,10.203912,61.57
2025-10-13T11:12:29.777563+00:00,10.901,11.302,6.593,8.794,-4.689,208.302,56.162856,10.203928,60.91
2025-10-13T11:12:29.979430+00:00,10.900,10.971,6.548,9.377,-4.840,212.339,56.162943,10.203904,60.40
2025-10-13T11:12:30.181661+00:00,10.900,10.600,6.517,9.773,-4.942,216.384,56.162883,10.203875,61.31
2025-10-13T11:12:30.385527+00:00,10.900,10.201,6.502,9.975,-4.994,220.461,56.162861,10.203913,60.30
2025-10-13T11:12:30.588889+00:00,10.900,9.795,6.502,9.974,-4.993,224.529,56.162934,10.203904,58.58
2025-10-13T11:12:30.791809+00:00,10.900,9.399,6.517,9.772,-4.942,228.587,56.162896,10.203898,62.11
2025-10-13T11:12:30.994894+00:00,10.900,9.026,6.548,9.373,-4.839,232.649,56.162944,10.203943,61.78
2025-10-13T11:12:31.197639+00:00,10.901,8.694,6.594,8.786,-4.687,236.704,56.162868,10.203888,61.04
2025-10-13T11:12:31.399764+00:00,10.901,8.417,6.654,8.025,-4.488,240.746,56.162943,10.203856,61.78
2025-10-13T11:12:31.602036+00:00,10.901,8.204,6.727,7.102,-4.242,244.791,56.162947,10.203906,60.36
2025-10-13T11:12:31.804522+00:00,10.902,8.063,6.814,6.037,-3.953,248.841,56.162911,10.203871,57.58
2025-10-13T11:12:32.006243+00:00,10.902,8.003,6.913,4.854,-3.624,252.876,56.162871,10.203871,59.38
2025-10-13T11:12:32.208358+00:00,10.903,8.023,7.022,3.573,-3.258,256.918,56.162901,10.203870,62.46
2025-10-13T11:12:32.410279+00:00,10.904,8.123,7.142,2.222,-2.860,260.956,56.162938,10.203882,57.64
2025-10-13T11:12:32.612327+00:00,10.905,8.300,7.271,0.825,-2.431,264.997,56.162912,10.203855,60.71
2025-10-13T11:12:32.814046+00:00,10.905,8.546,7.406,-0.586,-1.979,269.032,56.162950,10.203936,58.83
2025-10-13T11:12:33.016164+00:00,10.906,8.851,7.548,-1.987,-1.506,273.074,56.162857,10.203907,59.49
2025-10-13T11:12:33.219319+00:00,10.907,9.205,7.696,-3.356,-1.014,277.137,56.162921,10.203931,59.85
2025-10-13T11:12:33.422316+00:00,10.909,9.592,7.846,-4.657,-0.513,281.197,56.162915,10.203905,60.16
2025-10-13T11:12:33.625143+00:00,10.910,9.994,7.998,-5.862,-0.007,285.254,56.162909,10.203866,60.42
2025-10-13T11:12:33.827329+00:00,10.911,10.396,8.149,-6.946,0.498,289.297,56.162905,10.203926,58.11
2025-10-13T11:12:34.030296+00:00,10.912,10.783,8.300,-7.895,0.999,293.357,56.162874,10.203950,60.07
2025-10-13T11:12:34.233277+00:00,10.914,11.138,8.447,-8.684,1.490,297.416,56.162873,10.203934,58.79
2025-10-13T11:12:34.436079+00:00,10.915,11.446,8.590,-9.299,1.966,301.472,56.162863,10.203900,61.48
2025-10-13T11:12:34.588372+00:00,10.917,11.639,8.693,-9.637,2.310,304.518,56.162861,10.203932,57.96
2025-10-13T11:12:34.790421+00:00,10.918,11.836,8.824,-9.917,2.745,308.559,56.162950,10.203936,60.31
2025-10-13T11:12:34.993100+00:00,10.920,11.958,8.946,-9.999,3.154,312.613,56.162921,10.203917,60.98
2025-10-13T11:12:35.196965+00:00,10.922,12.000,9.060,-9.879,3.532,316.690,56.162867,10.203855,60.00
2025-10-13T11:12:35.399962+00:00,10.924,11.960,9.162,-9.559,3.873,320.750,56.162900,10.203893,58.00
2025-10-13T11:12:35.602873+00:00,10.926,11.839,9.252,-9.048,4.173,324.808,56.162931,10.203869,59.75
2025-10-13T11:12:35.805758+00:00,10.928,11.643,9.329,-8.354,4.431,328.866,56.162865,10.203920,62.19
2025-10-13T11:12:36.008659+00:00,10.930,11.379,9.393,-7.491,4.643,332.924,56.162921,10.203924,62.08
2025-10-13T11:12:36.211727+00:00,10.932,11.059,9.442,-6.477,4.807,336.985,56.162915,10.203876,61.93
2025-10-13T11:12:36.415724+00:00,10.934,10.693,9.477,-5.327,4.922,341.065,56.162924,10.203947,61.53
2025-10-13T11:12:36.618958+00:00,10.936,10.300,9.496,-4.074,4.986,345.130,56.162945,10.203923,62.15
2025-10-13T11:12:36.822079+00:00,10.939,9.895,9.499,-2.738,4.998,349.192,56.162921,10.203948,60.68
2025-10-13T11:12:37.025113+00:00,10.941,9.494,9.488,-1.348,4.959,353.253,56.162884,10.203865,60.79
2025-10-13T11:12:37.228110+00:00,10.944,9.115,9.461,0.068,4.869,357.313,56.162916,10.203875,58.62
2025-10-13T11:12:37.432009+00:00,10.946,8.770,9.418,1.490,4.728,1.391,56.162886,10.203863,60.15
2025-10-13T11:12:37.634768+00:00,10.949,8.478,9.362,2.874,4.539,5.446,56.162911,10.203858,60.92
2025-10-13T11:12:37.837322+00:00,10.952,8.248,9.291,4.199,4.304,9.497,56.162905,10.203925,61.87
2025-10-13T11:12:38.040040+00:00,10.954,8.090,9.207,5.440,4.025,13.552,56.162897,10.203887,60.09
2025-10-13T11:12:38.243830+00:00,10.957,8.009,9.111,6.578,3.702,17.627,56.162883,10.203899,60.59
2025-10-13T11:12:38.446001+00:00,10.960,8.011,9.003,7.574,3.344,21.671,56.162950,10.203920,60.26
2025-10-13T11:12:38.647728+00:00,10.963,8.094,8.886,8.418,2.953,25.705,56.162950,10.203927,59.90
2025-10-13T11:12:38.849437+00:00,10.966,8.254,8.759,9.094,2.531,29.740,56.162914,10.203851,60.30
2025-10-13T11:12:39.052723+00:00,10.969,8.486,8.624,9.592,2.081,33.805,56.162943,10.203917,59.22
2025-10-13T11:12:39.256513+00:00,10.972,8.782,8.482,9.896,1.607,37.881,56.162866,10.203902,58.63
2025-10-13T11:12:39.458342+00:00,10.975,9.125,8.337,10.000,1.122,41.918,56.162872,10.203900,60.45
2025-10-13T11:12:39.610453+00:00,10.978,9.408,8.225,9.946,0.749,44.960,56.162898,10.203895,59.72
2025-10-13T11:12:39.814315+00:00,10.981,9.807,8.073,9.698,0.242,49.037,56.162930,10.203948,57.74
2025-10-13T11:12:40.017623+00:00,10.984,10.213,7.920,9.254,-0.266,53.103,56.162945,10.203898,59.00
2025-10-13T11:12:40.220306+00:00,10.988,10.609,7.769,8.625,-0.770,57.157,56.162893,10.203944,62.34
2025-10-13T11:12:40.422385+00:00,10.991,10.979,7.621,7.826,-1.264,61.199,56.162873,10.203948,60.58
2025-10-13T11:12:40.625458+00:00,10.994,11.310,7.476,6.865,-1.748,65.260,56.162881,10.203930,61.75
2025-10-13T11:12:40.828022+00:00,10.998,11.587,7.336,5.768,-2.213,69.311,56.162875,10.203897,58.54
2025-10-13T11:12:41.029814+00:00,11.001,11.799,7.204,4.561,-2.653,73.347,56.162905,10.203901,57.55
2025-10-13T11:12:41.234332+00:00,11.005,11.939,7.078,3.244,-3.072,77.437,56.162926,10.203913,60.25
2025-10-13T11:12:41.436250+00:00,11.008,11.998,6.964,1.879,-3.454,81.476,56.162877,10.203892,60.61
2025-10-13T11:12:41.638072+00:00,11.012,11.976,6.860,0.478,-3.801,85.512,56.162881,10.203921,57.86
2025-10-13T11:12:41.841658+00:00,11.016,11.872,6.767,-0.946,-4.111,89.584,56.162946,10.203942,61.00
2025-10-13T11:12:42.043476+00:00,11.019,11.693,6.687,-2.338,-4.377,93.620,56.162918,10.203909,59.74
2025-10-13T11:12:42.246490+00:00,11.023,11.443,6.620,-3.692,-4.599,97.681,56.162931,10.203864,58.73
2025-10-13T11:12:42.448568+00:00,11.027,11.136,6.568,-4.965,-4.774,101.722,56.162875,10.203859,61.13
2025-10-13T11:12:42.650584+00:00,11.031,10.783,6.530,-6.139,-4.899,105.762,56.162888,10.203879,60.69
2025-10-13T11:12:42.852118+00:00,11.034,10.399,6.508,-7.188,-4.975,109.793,56.162917,10.203916,57.66
2025-10-13T11:12:43.053874+00:00,11.038,9.998,6.500,-8.095,-5.000,113.828,56.162906,10.203930,59.68
2025-10-13T11:12:43.257792+00:00,11.042,9.593,6.508,-8.848,-4.974,117.907,56.162934,10.203917,60.52
2025-10-13T11:12:43.460649+00:00,11.046,9.207,6.531,-9.418,-4.896,121.964,56.162942,10.203948,61.84
2025-10-13T11:12:43.664125+00:00,11.050,8.852,6.570,-9.800,-4.768,126.033,56.162930,10.203878,61.03
2025-10-13T11:12:43.867466+00:00,11.054,8.545,6.623,-9.983,-4.591,130.100,56.162874,10.203910,60.92
2025-10-13T11:12:44.069487+00:00,11.058,8.299,6.690,-9.965,-4.368,134.141,56.162861,10.203876,61.90
2025-10-13T11:12:44.272036+00:00,11.062,8.122,6.770,-9.747,-4.099,138.192,56.162929,10.203942,59.67
2025-10-13T11:12:44.474252+00:00,11.066,8.022,6.863,-9.335,-3.789,142.236,56.162939,10.203932,61.95
2025-10-13T11:12:44.676393+00:00,11.070,8.003,6.968,-8.736,-3.441,146.279,56.162932,10.203897,60.48
2025-10-13T11:12:44.878265+00:00,11.074,8.065,7.083,-7.963,-3.058,150.316,56.162914,10.203851,58.29
2025-10-13T11:12:45.080128+00:00,11.078,8.205,7.207,-7.032,-2.644,154.353,56.162904,10.203864,61.14
2025-10-13T11:12:45.283968+00:00,11.082,8.421,7.341,-5.950,-2.198,158.430,56.162925,10.203910,59.35
2025-10-13T11:12:45.486611+00:00,11.086,8.700,7.480,-4.754,-1.733,162.483,56.162914,10.203949,58.75
2025-10-13T11:12:45.688778+00:00,11.090,9.031,7.625,-3.465,-1.250,166.526,56.162919,10.203904,57.52
2025-10-13T11:12:45.891802+00:00,11.094,9.404,7.774,-2.102,-0.753,170.587,56.162860,10.203902,62.07
2025-10-13T11:12:46.093776+00:00,11.098,9.799,7.925,-0.703,-0.251,174.626,56.162892,10.203859,59.57
2025-10-13T11:12:46.246480+00:00,11.101,10.104,8.039,0.365,0.130,177.680,56.162928,10.203879,61.47
2025-10-13T11:12:46.449724+00:00,11.105,10.505,8.191,1.778,0.637,181.745,56.162905,10.203929,61.89
2025-10-13T11:12:46.652498+00:00,11.109,10.885,8.341,3.153,1.135,185.801,56.162934,10.203872,58.42
2025-10-13T11:12:46.854660+00:00,11.113,11.227,8.486,4.460,1.621,189.844,56.162885,10.203895,60.94
2025-10-13T11:12:47.057401+00:00,11.117,11.520,8.627,5.681,2.091,193.899,56.162865,10.203903,57.74
2025-10-13T11:12:47.261308+00:00,11.121,11.752,8.763,6.794,2.543,197.977,56.162905,10.203903,57.79
2025-10-13T11:12:47.464254+00:00,11.125,11.910,8.890,7.764,2.966,202.036,56.162930,10.203893,61.18
2025-10-13T11:12:47.668559+00:00,11.129,11.991,9.008,8.583,3.361,206.122,56.162942,10.203934,61.68
2025-10-13T11:12:47.871214+00:00,11.133,11.989,9.115,9.222,3.718,210.175,56.162946,10.203858,58.27
2025-10-13T11:12:48.075054+00:00,11.137,11.905,9.212,9.678,4.039,214.252,56.162871,10.203860,58.45
2025-10-13T11:12:48.277704+00:00,11.141,11.743,9.295,9.937,4.316,218.305,56.162874,10.203925,59.16
2025-10-13T11:12:48.480819+00:00,11.145,11.509,9.365,9.996,4.550,222.367,56.162858,10.203897,61.01
2025-10-13T11:12:48.683789+00:00,11.149,11.214,9.421,9.853,4.737,226.427,56.162909,10.203865,62.34
2025-10-13T11:12:48.886642+00:00,11.153,10.869,9.462,9.512,4.874,230.484,56.162892,10.203866,60.63
2025-10-13T11:12:49.089375+00:00,11.157,10.488,9.489,8.979,4.962,234.538,56.162943,10.203888,58.39
2025-10-13T11:12:49.292728+00:00,11.161,10.086,9.500,8.264,4.999,238.605,56.162909,10.203926,58.23
2025-10-13T11:12:49.494660+00:00,11.165,9.684,9.495,7.388,4.984,242.644,56.162855,10.203888,62.24
2025-10-13T11:12:49.696664+00:00,11.169,9.294,9.476,6.365,4.919,246.684,56.162937,10.203911,60.80
2025-10-13T11:12:49.898505+00:00,11.172,8.933,9.441,5.215,4.803,250.721,56.162856,10.203909,57.56
2025-10-13T11:12:50.100279+00:00,11.176,8.616,9.392,3.962,4.639,254.756,56.162900,10.203918,61.00
2025-10-13T11:12:50.303408+00:00,11.180,8.353,9.328,2.621,4.426,258.819,56.162859,10.203894,59.05
2025-10-13T11:12:50.505635+00:00,11.184,8.159,9.251,1.234,4.169,262.863,56.162920,10.203873,59.90
2025-10-13T11:12:50.707749+00:00,11.187,8.039,9.161,-0.178,3.869,266.906,56.162947,10.203867,58.86
2025-10-13T11:12:50.910556+00:00,11.191,8.000,9.059,-1.591,3.529,270.962,56.162878,10.203853,60.75
2025-10-13T11:12:51.113414+00:00,11.194,8.043,8.946,-2.972,3.152,275.019,56.162916,10.203900,60.93
2025-10-13T11:12:51.317272+00:00,11.198,8.166,8.822,-4.300,2.741,279.096,56.162949,10.203882,59.37
2025-10-13T11:12:51.519150+00:00,11.202,8.364,8.692,-5.529,2.305,283.134,56.162939,10.203872,60.67
2025-10-13T11:12:51.720949+00:00,11.205,8.627,8.554,-6.647,1.847,287.170,56.162874,10.203925,59.64
2025-10-13T11:12:51.873385+00:00,11.208,8.864,8.446,-7.405,1.487,290.219,56.162938,10.203901,60.81
2025-10-13T11:12:52.076188+00:00,11.211,9.219,8.299,-8.281,0.997,294.275,56.162933,10.203906,62.20
2025-10-13T11:12:52.278733+00:00,11.214,9.605,8.149,-8.990,0.496,298.325,56.162928,10.203871,60.57
2025-10-13T11:12:52.481679+00:00,11.218,10.008,7.997,-9.520,-0.010,302.384,56.162857,10.203856,60.48
2025-10-13T11:12:52.684743+00:00,11.221,10.412,7.845,-9.857,-0.517,306.446,56.162872,10.203942,60.27
2025-10-13T11:12:52.888751+00:00,11.224,10.800,7.694,-9.997,-1.021,310.526,56.162859,10.203932,58.73
2025-10-13T11:12:53.091554+00:00,11.227,11.152,7.547,-9.933,-1.511,314.582,56.162851,10.203904,61.19
2025-10-13T11:12:53.295483+00:00,11.230,11.460,7.403,-9.668,-1.988,318.660,56.162912,10.203858,57.52
2025-10-13T11:12:53.499522+00:00,11.233,11.706,7.266,-9.206,-2.445,322.741,56.162937,10.203943,61.92
2025-10-13T11:12:53.702618+00:00,11.236,11.882,7.138,-8.559,-2.875,326.803,56.162907,10.203897,58.64
2025-10-13T11:12:53.905411+00:00,11.239,11.980,7.018,-7.742,-3.274,330.859,56.162877,10.203927,58.61
2025-10-13T11:12:54.108215+00:00,11.242,11.996,6.908,-6.768,-3.640,334.915,56.162886,10.203908,57.92
2025-10-13T11:12:54.311163+00:00,11.245,11.931,6.809,-5.658,-3.968,338.974,56.162853,10.203861,58.23
2025-10-13T11:12:54.513980+00:00,11.248,11.787,6.723,-4.434,-4.256,343.030,56.162898,10.203905,59.47
2025-10-13T11:12:54.717030+00:00,11.251,11.569,6.650,-3.120,-4.500,347.091,56.162865,10.203933,60.40
2025-10-13T11:12:54.919649+00:00,11.253,11.288,6.591,-1.746,-4.697,351.144,56.162850,10.203941,58.36
2025-10-13T11:12:55.121433+00:00,11.256,10.955,6.546,-0.342,-4.846,355.179,56.162931,10.203863,58.18
2025-10-13T11:12:55.323957+00:00,11.258,10.582,6.516,1.074,-4.946,359.230,56.162894,10.203855,62.36
2025-10-13T11:12:55.525839+00:00,11.261,10.186,6.502,2.463,-4.995,3.268,56.162890,10.203861,62.26
2025-10-13T11:12:55.727900+00:00,11.263,9.783,6.502,3.805,-4.993,7.309,56.162937,10.203901,60.06
2025-10-13T11:12:55.929678+00:00,11.265,9.389,6.518,5.069,-4.940,11.344,56.162914,10.203897,61.88
2025-10-13T11:12:56.132457+00:00,11.268,9.018,6.549,6.237,-4.836,15.400,56.162909,10.203893,61.00
2025-10-13T11:12:56.335958+00:00,11.270,8.686,6.595,7.284,-4.682,19.470,56.162861,10.203927,61.08
2025-10-13T11:12:56.538368+00:00,11.272,8.410,6.656,8.178,-4.481,23.518,56.162872,10.203915,59.64
2025-10-13T11:12:56.741527+00:00,11.274,8.198,6.730,8.911,-4.233,27.581,56.162917,10.203868,57.89
2025-10-13T11:12:56.943375+00:00,11.276,8.060,6.817,9.462,-3.943,31.618,56.162851,10.203857,58.54
2025-10-13T11:12:57.145233+00:00,11.278,8.002,6.916,9.823,-3.614,35.655,56.162911,10.203918,59.58
2025-10-13T11:12:57.348199+00:00,11.280,8.025,7.027,9.989,-3.245,39.715,56.162936,10.203931,58.00
2025-10-13T11:12:57.550083+00:00,11.281,8.128,7.146,9.955,-2.845,43.752,56.162855,10.203851,60.02
2025-10-13T11:12:57.701854+00:00,11.283,8.256,7.242,9.798,-2.525,46.788,56.162937,10.203861,61.02
2025-10-13T11:12:57.904578+00:00,11.284,8.489,7.377,9.417,-2.076,50.842,56.162910,10.203926,57.81
2025-10-13T11:12:58.107442+00:00,11.286,8.784,7.519,8.846,-1.604,54.900,56.162915,10.203860,61.25
2025-10-13T11:12:58.309928+00:00,11.287,9.129,7.665,8.098,-1.117,58.949,56.162904,10.203908,59.06
2025-10-13T11:12:58.512839+00:00,11.289,9.509,7.815,7.186,-0.618,63.008,56.162889,10.203919,58.28
2025-10-13T11:12:58.716684+00:00,11.290,9.912,7.967,6.124,-0.110,67.084,56.162917,10.203877,57.81
2025-10-13T11:12:58.919551+00:00,11.291,10.316,8.119,4.944,0.397,71.142,56.162868,10.203871,58.26
2025-10-13T11:12:59.123299+00:00,11.292,10.709,8.270,3.658,0.902,75.217,56.162925,10.203869,58.94
2025-10-13T11:12:59.325741+00:00,11.293,11.071,8.418,2.307,1.394,79.266,56.162851,10.203859,60.30
2025-10-13T11:12:59.530215+00:00,11.294,11.392,8.563,0.895,1.877,83.355,56.162876,10.203857,62.15
2025-10-13T11:12:59.733579+00:00,11.295,11.653,8.701,-0.527,2.337,87.422,56.162888,10.203851,60.15
2025-10-13T11:12:59.936472+00:00,11.296,11.846,8.832,-1.935,2.773,91.480,56.162859,10.203867,60.10
2025-10-13T11:13:00.139362+00:00,11.297,11.963,8.954,-3.304,3.180,95.538,56.162907,10.203866,58.87
2025-10-13T11:13:00.341356+00:00,11.298,12.000,9.066,-4.601,3.553,99.578,56.162883,10.203895,61.85
2025-10-13T11:13:00.544388+00:00,11.298,11.955,9.167,-5.813,3.891,103.639,56.162875,10.203869,61.90
2025-10-13T11:13:00.747695+00:00,11.299,11.829,9.257,-6.908,4.190,107.705,56.162949,10.203894,60.01
2025-10-13T11:13:00.949382+00:00,11.299,11.630,9.333,-7.857,4.443,111.738,56.162929,10.203919,57.71
2025-10-13T11:13:01.152128+00:00,11.299,11.363,9.396,-8.653,4.652,115.793,56.162931,10.203917,62.27
2025-10-13T11:13:01.354035+00:00,11.300,11.042,9.444,-9.273,4.813,119.831,56.162905,10.203867,57.51
2025-10-13T11:13:01.556477+00:00,11.300,10.678,9.478,-9.708,4.925,123.880,56.162908,10.203932,61.03
2025-10-13T11:13:01.759459+00:00,11.300,10.285,9.496,-9.950,4.987,127.940,56.162877,10.203940,57.83
2025-10-13T11:13:01.961304+00:00,11.300,9.882,9.499,-9.991,4.998,131.977,56.162933,10.203944,58.59
2025-10-13T11:13:02.163061+00:00,11.300,9.484,9.487,-9.834,4.958,136.012,56.162920,10.203871,58.68
2025-10-13T11:13:02.365933+00:00,11.300,9.106,9.460,-9.478,4.866,140.069,56.162923,10.203940,61.29
2025-10-13T11:13:02.568061+00:00,11.300,8.765,9.418,-8.934,4.726,144.112,56.162936,10.203886,58.82
2025-10-13T11:13:02.770286+00:00,11.299,8.474,9.361,-8.210,4.536,148.156,56.162905,10.203895,58.92
2025-10-13T11:13:02.973193+00:00,11.299,8.245,9.290,-7.319,4.300,152.215,56.162929,10.203935,61.15
2025-10-13T11:13:03.175013+00:00,11.298,8.088,9.206,-6.287,4.021,156.251,56.162866,10.203924,59.01
2025-10-13T11:13:03.376911+00:00,11.298,8.009,9.110,-5.129,3.701,160.289,56.162900,10.203878,58.53
2025-10-13T11:13:03.578803+00:00,11.297,8.011,9.003,-3.869,3.344,164.327,56.162903,10.203895,61.40
2025-10-13T11:13:03.731435+00:00,11.297,8.066,8.915,-2.863,3.051,167.379,56.162905,10.203901,58.05
2025-10-13T11:13:03.934282+00:00,11.296,8.209,8.790,-1.478,2.634,171.436,56.162897,10.203865,61.06
2025-10-13T11:13:04.137064+00:00,11.295,8.425,8.657,-0.064,2.190,175.492,56.162872,10.203912,58.63
2025-10-13T11:13:04.339842+00:00,11.294,8.705,8.517,1.351,1.724,179.548,56.162905,10.203938,58.96
2025-10-13T11:13:04.542777+00:00,11.293,9.039,8.372,2.740,1.240,183.606,56.162942,10.203917,61.02
2025-10-13T11:13:04.746845+00:00,11.292,9.415,8.222,4.081,0.740,187.688,56.162890,10.203934,59.33
2025-10-13T11:13:04.949706+00:00,11.291,9.812,8.071,5.332,0.235,191.745,56.162882,10.203860,61.42
2025-10-13T11:13:05.153496+00:00,11.290,10.219,7.918,6.481,-0.274,195.821,56.162903,10.203899,60.24
2025-10-13T11:13:05.357263+00:00,11.288,10.617,7.766,7.498,-0.780,199.896,56.162852,10.203914,59.02
2025-10-13T11:13:05.560049+00:00,11.287,10.987,7.617,8.358,-1.276,203.952,56.162916,10.203896,60.09
2025-10-13T11:13:05.763235+00:00,11.285,11.318,7.472,9.052,-1.760,208.015,56.162936,10.203879,59.78
2025-10-13T11:13:05.966000+00:00,11.284,11.594,7.333,9.562,-2.225,212.071,56.162919,10.203871,59.10
2025-10-13T11:13:06.169926+00:00,11.282,11.805,7.199,9.881,-2.669,216.149,56.162872,10.203911,60.88
2025-10-13T11:13:06.372671+00:00,11.280,11.942,7.075,9.999,-3.083,220.204,56.162938,10.203927,57.66
2025-10-13T11:13:06.575534+00:00,11.279,11.998,6.960,9.916,-3.466,224.261,56.162910,10.203891,59.90
2025-10-13T11:13:06.777449+00:00,11.277,11.974,6.857,9.635,-3.811,228.300,56.162901,10.203911,59.12
2025-10-13T11:13:06.979184+00:00,11.275,11.869,6.765,9.162,-4.118,232.334,56.162895,10.203902,60.54
2025-10-13T11:13:07.180814+00:00,11.273,11.688,6.685,8.508,-4.382,236.367,56.162853,10.203944,62.22
2025-10-13T11:13:07.382535+00:00,11.271,11.439,6.619,7.683,-4.602,240.401,56.162885,10.203902,58.52
2025-10-13T11:13:07.584464+00:00,11.269,11.131,6.567,6.705,-4.776,244.440,56.162858,10.203850,60.41
2025-10-13T11:13:07.786507+00:00,11.266,10.777,6.530,5.592,-4.901,248.481,56.162925,10.203892,58.29
2025-10-13T11:13:07.988425+00:00,11.264,10.392,6.507,4.368,-4.976,252.519,56.162922,10.203924,58.43
2025-10-13T11:13:08.190228+00:00,11.262,9.990,6.500,3.058,-5.000,256.555,56.162895,10.203875,59.36
2025-10-13T11:13:08.392559+00:00,11.259,9.589,6.508,1.684,-4.973,260.602,56.162892,10.203881,58.62
2025-10-13T11:13:08.594765+00:00,11.257,9.204,6.531,0.276,-4.896,264.646,56.162854,10.203904,60.79
2025-10-13T11:13:08.796962+00:00,11.254,8.852,6.570,-1.136,-4.768,268.690,56.162879,10.203947,60.57
2025-10-13T11:13:08.998815+00:00,11.252,8.547,6.622,-2.524,-4.592,272.727,56.162859,10.203871,59.80
2025-10-13T11:13:09.200613+00:00,11.249,8.301,6.689,-3.861,-4.370,276.763,56.162882,10.203885,60.88
2025-10-13T11:13:09.403188+00:00,11.246,8.123,6.770,-5.126,-4.101,280.815,56.162862,10.203941,57.53
2025-10-13T11:13:09.604903+00:00,11.244,8.023,6.862,-6.284,-3.793,284.849,56.162865,10.203915,59.59
2025-10-13T11:13:09.807323+00:00,11.241,8.003,6.967,-7.319,-3.444,288.897,56.162895,10.203919,58.84
2025-10-13T11:13:10.009187+00:00,11.238,8.064,7.082,-8.206,-3.061,292.935,56.162854,10.203926,58.44
2025-10-13T11:13:10.211770+00:00,11.235,8.204,7.206,-8.931,-2.646,296.986,56.162865,10.203910,61.06
2025-10-13T11:13:10.413891+00:00,11.232,8.417,7.339,-9.476,-2.204,301.029,56.162886,10.203896,62.37
2025-10-13T11:13:10.616737+00:00,11.229,8.696,7.478,-9.833,-1.739,305.086,56.162933,10.203887,58.02
2025-10-13T11:13:10.818635+00:00,11.226,9.026,7.623,-9.991,-1.257,309.123,56.162902,10.203907,61.34
2025-10-13T11:13:10.970003+00:00,11.223,9.301,7.734,-9.979,-0.888,312.151,56.162903,10.203861,61.30
2025-10-13T11:13:11.174768+00:00,11.220,9.697,7.886,-9.785,-0.380,316.246,56.162908,10.203866,60.35
2025-10-13T11:13:11.377442+00:00,11.217,10.101,8.038,-9.396,0.126,320.300,56.162902,10.203873,61.82
2025-10-13T11:13:11.580359+00:00,11.213,10.501,8.189,-8.816,0.632,324.358,56.162873,10.203920,58.71
2025-10-13T11:13:11.783191+00:00,11.210,10.881,8.339,-8.060,1.130,328.415,56.162946,10.203935,59.10
2025-10-13T11:13:11.986015+00:00,11.207,11.225,8.485,-7.141,1.618,332.471,56.162886,10.203904,59.66
2025-10-13T11:13:12.188818+00:00,11.203,11.518,8.627,-6.079,2.088,336.527,56.162881,10.203891,60.11
2025-10-13T11:13:12.392648+00:00,11.200,11.750,8.762,-4.888,2.540,340.604,56.162863,10.203905,61.79
2025-10-13T11:13:12.595442+00:00,11.196,11.909,8.889,-3.605,2.963,344.660,56.162945,10.203863,60.75
2025-10-13T11:13:12.798382+00:00,11.193,11.990,9.007,-2.248,3.355,348.718,56.162944,10.203935,62.16
2025-10-13T11:13:13.001294+00:00,11.189,11.989,9.114,-0.846,3.714,352.777,56.162896,10.203939,61.66
2025-10-13T11:13:13.204107+00:00,11.185,11.907,9.210,0.573,4.033,356.833,56.162923,10.203912,58.75
2025-10-13T11:13:13.407073+00:00,11.182,11.746,9.294,1.981,4.312,0.892,56.162913,10.203899,57.61
2025-10-13T11:13:13.609848+00:00,11.178,11.514,9.364,3.347,4.546,4.948,56.162874,10.203895,60.68
2025-10-13T11:13:13.812639+00:00,11.174,11.220,9.420,4.647,4.733,9.004,56.162862,10.203926,61.27
2025-10-13T11:13:14.014482+00:00,11.170,10.877,9.461,5.847,4.872,13.040,56.162856,10.203879,57.90
2025-10-13T11:13:14.216903+00:00,11.167,10.498,9.488,6.934,4.960,17.089,56.162899,10.203880,59.46
2025-10-13T11:13:14.419682+00:00,11.163,10.098,9.500,7.884,4.999,21.144,56.162918,10.203874,57.97
2025-10-13T11:13:14.622027+00:00,11.159,9.694,9.496,8.673,4.985,25.191,56.162932,10.203854,61.08
2025-10-13T11:13:14.824048+00:00,11.155,9.304,9.476,9.288,4.921,29.232,56.162884,10.203908,61.81
2025-10-13T11:13:15.025963+00:00,11.151,8.942,9.442,9.718,4.807,33.270,56.162851,10.203891,62.27
2025-10-13T11:13:15.227915+00:00,11.147,8.623,9.393,9.953,4.644,37.309,56.162854,10.203862,58.83
2025-10-13T11:13:15.430619+00:00,11.143,8.359,9.330,9.990,4.433,41.363,56.162946,10.203884,61.03
2025-10-13T11:13:15.632571+00:00,11.139,8.163,9.253,9.827,4.177,45.402,56.162900,10.203920,59.60
2025-10-13T11:13:15.834953+00:00,11.135,8.042,9.163,9.467,3.878,49.450,56.162920,10.203883,61.63
2025-10-13T11:13:16.036740+00:00,11.131,8.000,9.062,8.919,3.540,53.486,56.162856,10.203859,62.19
2025-10-13T11:13:16.239572+00:00,11.127,8.040,8.949,8.189,3.165,57.542,56.162907,10.203877,58.85
2025-10-13T11:13:16.441481+00:00,11.123,8.159,8.828,7.299,2.758,61.580,56.162892,10.203895,61.83
2025-10-13T11:13:16.643325+00:00,11.119,8.354,8.697,6.263,2.324,65.617,56.162940,10.203903,58.81
2025-10-13T11:13:16.845365+00:00,11.115,8.615,8.560,5.102,1.866,69.658,56.162910,10.203948,61.94
2025-10-13T11:13:17.047163+00:00,11.111,8.932,8.417,3.840,1.389,73.694,56.162932,10.203903,60.91
2025-10-13T11:13:17.249871+00:00,11.107,9.295,8.269,2.496,0.896,77.748,56.162939,10.203862,61.08
2025-10-13T11:13:17.451838+00:00,11.103,9.685,8.119,1.107,0.396,81.788,56.162853,10.203888,59.80
2025-10-13T11:13:17.603278+00:00,11.100,9.986,8.005,0.049,0.017,84.816,56.162916,10.203864,60.72
2025-10-13T11:13:17.806056+00:00,11.096,10.389,7.853,-1.366,-0.489,88.872,56.162889,10.203881,61.12
2025-10-13T11:13:18.008876+00:00,11.092,10.776,7.703,-2.754,-0.990,92.928,56.162895,10.203855,61.35
2025-10-13T11:13:18.211558+00:00,11.088,11.131,7.556,-4.086,-1.481,96.982,56.162858,10.203850,59.82
2025-10-13T11:13:18.414452+00:00,11.084,11.441,7.413,-5.337,-1.957,101.040,56.162892,10.203878,60.40
2025-10-13T11:13:18.617273+00:00,11.080,11.690,7.276,-6.480,-2.413,105.096,56.162939,10.203879,58.59
2025-10-13T11:13:18.820228+00:00,11.076,11.871,7.147,-7.493,-2.844,109.155,56.162874,10.203911,59.47
2025-10-13T11:13:19.023085+00:00,11.072,11.975,7.026,-8.355,-3.246,113.212,56.162945,10.203916,60.67
2025-10-13T11:13:19.227588+00:00,11.068,11.998,6.915,-9.053,-3.617,117.303,56.162916,10.203906,62.38
2025-10-13T11:13:19.430441+00:00,11.064,11.938,6.816,-9.563,-3.948,121.360,56.162861,10.203883,59.59
2025-10-13T11:13:19.633343+00:00,11.060,11.799,6.729,-9.881,-4.238,125.418,56.162852,10.203876,57.57
2025-10-13T11:13:19.836559+00:00,11.056,11.585,6.654,-9.999,-4.485,129.482,56.162906,10.203874,57.69
2025-10-13T11:13:20.039405+00:00,11.052,11.307,6.594,-9.916,-4.686,133.539,56.162865,10.203864,62.02
2025-10-13T11:13:20.243642+00:00,11.048,10.973,6.548,-9.631,-4.839,137.624,56.162894,10.203926,62.18
2025-10-13T11:13:20.445684+00:00,11.044,10.603,6.518,-9.155,-4.942,141.664,56.162945,10.203869,58.85
2025-10-13T11:13:20.647757+00:00,11.040,10.208,6.502,-8.497,-4.993,145.706,56.162895,10.203891,62.37
2025-10-13T11:13:20.849856+00:00,11.036,9.804,6.502,-7.668,-4.994,149.748,56.162860,10.203885,59.40
2025-10-13T11:13:21.051568+00:00,11.033,9.409,6.517,-6.689,-4.944,153.782,56.162852,10.203855,61.50
2025-10-13T11:13:21.255369+00:00,11.029,9.035,6.547,-5.564,-4.842,157.858,56.162879,10.203921,60.47
2025-10-13T11:13:21.457408+00:00,11.025,8.703,6.592,-4.337,-4.692,161.899,56.162867,10.203936,58.71
2025-10-13T11:13:21.659242+00:00,11.021,8.424,6.652,-3.025,-4.494,165.936,56.162891,10.203862,59.82
2025-10-13T11:13:21.861078+00:00,11.018,8.209,6.725,-1.652,-4.250,169.972,56.162912,10.203888,61.84
2025-10-13T11:13:22.062858+00:00,11.014,8.067,6.811,-0.248,-3.964,174.008,56.162857,10.203914,61.53
2025-10-13T11:13:22.265499+00:00,11.010,8.003,6.909,1.168,-3.635,178.061,56.162874,10.203939,60.24
2025-10-13T11:13:22.467444+00:00,11.007,8.021,7.019,2.556,-3.270,182.100,56.162915,10.203928,58.82
2025-10-13T11:13:22.669341+00:00,11.003,8.119,7.138,3.892,-2.873,186.138,56.162939,10.203918,58.80
2025-10-13T11:13:22.871424+00:00,11.000,8.294,7.266,5.152,-2.445,190.179,56.162910,10.203908,60.80
2025-10-13T11:13:23.073304+00:00,10.996,8.538,7.402,6.308,-1.993,194.217,56.162918,10.203918,57.94
2025-10-13T11:13:23.276117+00:00,10.993,8.842,7.544,7.342,-1.519,198.273,56.162907,10.203887,60.17
2025-10-13T11:13:23.478028+00:00,10.989,9.193,7.691,8.225,-1.031,202.311,56.162852,10.203884,60.14
2025-10-13T11:13:23.680144+00:00,10.986,9.577,7.840,8.945,-0.532,206.354,56.162928,10.203872,60.29
2025-10-13T11:13:23.882334+00:00,10.983,9.978,7.992,9.486,-0.028,210.397,56.162871,10.203930,58.93
2025-10-13T11:13:24.084108+00:00,10.979,10.379,8.143,9.837,0.476,214.433,56.162918,10.203921,58.35
2025-10-13T11:13:24.287626+00:00,10.976,10.768,8.294,9.993,0.979,218.503,56.162888,10.203898,61.97
2025-10-13T11:13:24.439095+00:00,10.974,11.038,8.404,9.977,1.347,221.533,56.162928,10.203863,59.48
2025-10-13T11:13:24.641762+00:00,10.971,11.361,8.548,9.781,1.827,225.586,56.162863,10.203871,58.26
2025-10-13T11:13:24.844905+00:00,10.968,11.629,8.687,9.387,2.290,229.649,56.162880,10.203898,61.11
2025-10-13T11:13:25.047726+00:00,10.965,11.829,8.818,8.805,2.728,233.705,56.162895,10.203895,61.41
2025-10-13T11:13:25.250822+00:00,10.962,11.955,8.942,8.045,3.139,237.767,56.162942,10.203863,58.13
2025-10-13T11:13:25.453868+00:00,10.959,12.000,9.055,7.122,3.517,241.828,56.162903,10.203947,57.73
2025-10-13T11:13:25.656707+00:00,10.956,11.963,9.158,6.057,3.859,245.885,56.162886,10.203939,60.57
2025-10-13T11:13:25.859666+00:00,10.953,11.846,9.248,4.869,4.161,249.944,56.162889,10.203891,60.92
2025-10-13T11:13:26.063416+00:00,10.950,11.652,9.326,3.578,4.422,254.019,56.162863,10.203854,58.42
2025-10-13T11:13:26.266823+00:00,10.948,11.390,9.391,2.217,4.636,258.087,56.162934,10.203936,60.75
2025-10-13T11:13:26.470038+00:00,10.945,11.071,9.441,0.812,4.802,262.152,56.162855,10.203864,59.35
2025-10-13T11:13:26.673135+00:00,10.943,10.708,9.476,-0.608,4.918,266.213,56.162864,10.203916,61.96
2025-10-13T11:13:26.876220+00:00,10.940,10.316,9.495,-2.016,4.984,270.275,56.162918,10.203948,58.86
2025-10-13T11:13:27.079101+00:00,10.938,9.912,9.500,-3.382,4.999,274.333,56.162949,10.203863,57.51
2025-10-13T11:13:27.281870+00:00,10.935,9.511,9.489,-4.679,4.962,278.388,56.162929,10.203940,61.88
2025-10-13T11:13:27.483706+00:00,10.933,9.132,9.462,-5.877,4.875,282.425,56.162934,10.203895,60.55
2025-10-13T11:13:27.685572+00:00,10.931,8.789,9.421,-6.958,4.738,286.462,56.162937,10.203880,60.36
2025-10-13T11:13:27.887611+00:00,10.929,8.494,9.366,-7.901,4.553,290.503,56.162922,10.203942,60.99
2025-10-13T11:13:28.089501+00:00,10.927,8.261,9.296,-8.686,4.321,294.541,56.162928,10.203947,58.08
2025-10-13T11:13:28.292359+00:00,10.925,8.097,9.213,-9.300,4.044,298.598,56.162886,10.203937,58.76
2025-10-13T11:13:28.494374+00:00,10.923,8.012,9.118,-9.725,3.727,302.638,56.162937,10.203907,61.90
2025-10-13T11:13:28.696389+00:00,10.921,8.008,9.012,-9.956,3.372,306.679,56.162889,10.203936,59.34
2025-10-13T11:13:28.898722+00:00,10.919,8.085,8.895,-9.989,2.982,310.725,56.162912,10.203906,59.65
2025-10-13T11:13:29.100601+00:00,10.918,8.240,8.769,-9.821,2.562,314.763,56.162939,10.203877,60.17
2025-10-13T11:13:29.302574+00:00,10.916,8.466,8.635,-9.458,2.116,318.802,56.162858,10.203870,61.57
2025-10-13T11:13:29.505029+00:00,10.914,8.756,8.494,-8.905,1.648,322.851,56.162867,10.203877,57.62
2025-10-13T11:13:29.707472+00:00,10.913,9.096,8.349,-8.173,1.162,326.900,56.162891,10.203865,60.85
2025-10-13T11:13:29.910378+00:00,10.912,9.474,8.199,-7.275,0.664,330.958,56.162871,10.203924,61.03
2025-10-13T11:13:30.112235+00:00,10.910,9.871,8.048,-6.236,0.161,334.995,56.162854,10.203920,60.80
2025-10-13T11:13:30.314695+00:00,10.909,10.275,7.897,-5.070,-0.345,339.045,56.162936,10.203920,59.17
2025-10-13T11:13:30.517433+00:00,10.908,10.669,7.746,-3.800,-0.848,343.099,56.162915,10.203914,59.27
2025-10-13T11:13:30.719398+00:00,10.907,11.033,7.598,-2.458,-1.340,347.139,56.162936,10.203854,61.67
2025-10-13T11:13:30.921567+00:00,10.906,11.356,7.454,-1.066,-1.820,351.182,56.162875,10.203869,58.13
2025-10-13T11:13:31.125506+00:00,10.905,11.626,7.315,0.359,-2.284,355.261,56.162912,10.203884,61.68
2025-10-13T11:13:31.277098+00:00,10.904,11.783,7.216,1.415,-2.614,358.293,56.162885,10.203926,60.49
2025-10-13T11:13:31.479878+00:00,10.903,11.929,7.090,2.802,-3.032,2.348,56.162928,10.203907,58.74
2025-10-13T11:13:31.682656+00:00,10.903,11.996,6.974,4.132,-3.419,6.404,56.162903,10.203931,62.00
2025-10-13T11:13:31.885712+00:00,10.902,11.981,6.869,5.380,-3.771,10.465,56.162877,10.203907,62.06
2025-10-13T11:13:32.088621+00:00,10.902,11.885,6.775,6.519,-4.084,14.523,56.162904,10.203876,61.10
2025-10-13T11:13:32.291492+00:00,10.901,11.711,6.693,7.527,-4.356,18.581,56.162890,10.203908,57.61
2025-10-13T11:13:32.494696+00:00,10.901,11.467,6.625,8.384,-4.582,22.645,56.162884,10.203907,59.82
2025-10-13T11:13:32.697762+00:00,10.900,11.163,6.572,9.072,-4.761,26.706,56.162857,10.203889,60.33
2025-10-13T11:13:32.901819+00:00,10.900,10.809,6.532,9.578,-4.892,30.787,56.162919,10.203873,60.08
2025-10-13T11:13:33.104682+00:00,10.900,10.424,6.509,9.889,-4.972,34.844,56.162915,10.203911,60.02
2025-10-13T11:13:33.309295+00:00,10.900,10.018,6.500,10.000,-5.000,38.937,56.162856,10.203913,62.49
2025-10-13T11:13:33.512234+00:00,10.900,9.614,6.507,9.908,-4.976,42.995,56.162881,10.203853,58.50
2025-10-13T11:13:33.715178+00:00,10.900,9.227,6.529,9.616,-4.902,47.054,56.162867,10.203923,61.42
2025-10-13T11:13:33.917336+00:00,10.900,8.872,6.567,9.133,-4.777,51.098,56.162910,10.203881,60.76
2025-10-13T11:13:34.119071+00:00,10.901,8.564,6.619,8.469,-4.604,55.132,56.162873,10.203852,57.71
2025-10-13T11:13:34.320976+00:00,10.901,8.314,6.685,7.636,-4.385,59.170,56.162941,10.203925,59.95
2025-10-13T11:13:34.522909+00:00,10.901,8.133,6.764,6.650,-4.120,63.209,56.162940,10.203901,62.50
2025-10-13T11:13:34.724783+00:00,10.902,8.027,6.856,5.532,-3.814,67.246,56.162944,10.203857,62.29
2025-10-13T11:13:34.926715+00:00,10.903,8.001,6.960,4.303,-3.468,71.285,56.162862,10.203906,59.59
2025-10-13T11:13:35.128658+00:00,10.903,8.057,7.074,2.988,-3.088,75.324,56.162903,10.203891,58.24
2025-10-13T11:13:35.330563+00:00,10.904,8.192,7.197,1.614,-2.675,79.362,56.162931,10.203881,61.26
2025-10-13T11:13:35.532622+00:00,10.905,8.400,7.329,0.207,-2.236,83.403,56.162919,10.203931,61.65
2025-10-13T11:13:35.734538+00:00,10.906,8.673,7.468,-1.203,-1.774,87.442,56.162897,10.203925,62.34
2025-10-13T11:13:35.936567+00:00,10.907,9.001,7.612,-2.591,-1.293,91.482,56.162900,10.203877,61.32
2025-10-13T11:13:36.140409+00:00,10.908,9.372,7.761,-3.938,-0.795,95.559,56.162923,10.203880,62.40
2025-10-13T11:13:36.342444+00:00,10.909,9.766,7.912,-5.194,-0.293,99.600,56.162903,10.203899,60.22
2025-10-13T11:13:36.545623+00:00,10.910,10.171,8.064,-6.353,0.214,103.663,56.162932,10.203860,61.02
2025-10-13T11:13:36.747461+00:00,10.912,10.567,8.215,-7.377,0.717,107.700,56.162900,10.203887,58.32
2025-10-13T11:13:36.949651+00:00,10.913,10.941,8.364,-8.256,1.212,111.744,56.162881,10.203944,60.01
2025-10-13T11:13:37.151576+00:00,10.915,11.276,8.509,-8.968,1.695,115.782,56.162897,10.203883,60.20
2025-10-13T11:13:37.356126+00:00,10.916,11.562,8.650,-9.508,2.167,119.873,56.162922,10.203945,61.87
2025-10-13T11:13:37.557985+00:00,10.918,11.781,8.783,-9.849,2.610,123.910,56.162944,10.203871,60.24
2025-10-13T11:13:37.759863+00:00,10.919,11.927,8.908,-9.995,3.026,127.948,56.162949,10.203933,59.24
2025-10-13T11:13:37.961700+00:00,10.921,11.995,9.024,-9.941,3.412,131.985,56.162922,10.203933,58.06
2025-10-13T11:13:38.163525+00:00,10.923,11.982,9.129,-9.689,3.763,136.021,56.162886,10.203921,62.26
2025-10-13T11:13:38.367147+00:00,10.925,11.888,9.223,-9.239,4.078,140.094,56.162914,10.203944,60.70
2025-10-13T11:13:38.518651+00:00,10.926,11.766,9.286,-8.782,4.285,143.124,56.162909,10.203861,59.75
2025-10-13T11:13:38.721690+00:00,10.928,11.541,9.357,-8.016,4.524,147.185,56.162924,10.203923,59.04
2025-10-13T11:13:38.923844+00:00,10.931,11.254,9.415,-7.093,4.716,151.228,56.162921,10.203881,59.38
2025-10-13T11:13:39.126961+00:00,10.933,10.914,9.458,-6.022,4.860,155.290,56.162949,10.203872,59.23
2025-10-13T11:13:39.330683+00:00,10.935,10.535,9.486,-4.826,4.954,159.364,56.162947,10.203910,61.01
2025-10-13T11:13:39.534527+00:00,10.937,10.134,9.499,-3.532,4.997,163.441,56.162912,10.203895,61.10
2025-10-13T11:13:39.737457+00:00,10.940,9.729,9.497,-2.172,4.988,167.500,56.162865,10.203932,58.31
2025-10-13T11:13:39.940839+00:00,10.942,9.334,9.478,-0.765,4.928,171.568,56.162946,10.203929,60.54
2025-10-13T11:13:40.143730+00:00,10.945,8.968,9.445,0.654,4.817,175.625,56.162879,10.203912,57.77
2025-10-13T11:13:40.347110+00:00,10.947,8.643,9.397,2.064,4.656,179.693,56.162896,10.203877,58.23
2025-10-13T11:13:40.550052+00:00,10.950,8.375,9.334,3.428,4.448,183.752,56.162865,10.203927,58.06
2025-10-13T11:13:40.751914+00:00,10.953,8.174,9.259,4.717,4.195,187.789,56.162902,10.203885,58.86
2025-10-13T11:13:40.953903+00:00,10.956,8.047,9.170,5.912,3.900,191.829,56.162941,10.203904,61.12
2025-10-13T11:13:41.156810+00:00,10.958,8.000,9.069,6.995,3.563,195.887,56.162871,10.203937,57.96
2025-10-13T11:13:41.359090+00:00,10.961,8.035,8.957,7.933,3.190,199.933,56.162882,10.203869,59.03
2025-10-13T11:13:41.561042+00:00,10.964,8.149,8.836,8.712,2.786,203.972,56.162945,10.203909,59.61
2025-10-13T11:13:41.763032+00:00,10.967,8.339,8.706,9.317,2.353,208.011,56.162860,10.203936,59.06
2025-10-13T11:13:41.965198+00:00,10.970,8.597,8.569,9.736,1.896,212.055,56.162899,10.203868,61.61
2025-10-13T11:13:42.167106+00:00,10.973,8.911,8.426,9.960,1.420,216.093,56.162880,10.203906,62.32
2025-10-13T11:13:42.370900+00:00,10.977,9.273,8.277,9.986,0.925,220.169,56.162919,10.203882,59.76
2025-10-13T11:13:42.572765+00:00,10.980,9.661,8.128,9.810,0.425,224.206,56.162886,10.203929,60.39
2025-10-13T11:13:42.775952+00:00,10.983,10.066,7.975,9.437,-0.082,228.269,56.162892,10.203928,58.57
2025-10-13T11:13:42.977765+00:00,10.986,10.465,7.824,8.877,-0.586,232.306,56.162869,10.203940,57.97
2025-10-13T11:13:43.179480+00:00,10.990,10.846,7.675,8.140,-1.083,236.340,56.162901,10.203853,59.94
2025-10-13T11:13:43.382364+00:00,10.993,11.193,7.529,7.236,-1.571,240.398,56.162915,10.203921,62.02
2025-10-13T11:13:43.585275+00:00,10.996,11.492,7.387,6.187,-2.044,244.456,56.162938,10.203868,60.49
2025-10-13T11:13:43.787201+00:00,11.000,11.729,7.252,5.018,-2.494,248.495,56.162948,10.203859,61.18
2025-10-13T11:13:43.988964+00:00,11.003,11.895,7.125,3.750,-2.917,252.530,56.162918,10.203911,59.40
2025-10-13T11:13:44.190794+00:00,11.007,11.985,7.007,2.408,-3.312,256.567,56.162892,10.203904,61.30
2025-10-13T11:13:44.393489+00:00,11.011,11.994,6.898,1.011,-3.674,260.621,56.162922,10.203935,62.30
2025-10-13T11:13:44.595914+00:00,11.014,11.921,6.801,-0.404,-3.998,264.669,56.162857,10.203904,60.57
2025-10-13T11:13:44.797883+00:00,11.018,11.770,6.716,-1.808,-4.280,268.708,56.162854,10.203862,59.17
2025-10-13T11:13:44.999749+00:00,11.022,11.548,6.644,-3.175,-4.519,272.746,56.162950,10.203888,60.45
2025-10-13T11:13:45.201595+00:00,11.025,11.262,6.587,-4.479,-4.711,276.783,56.162854,10.203907,58.41
2025-10-13T11:13:45.404908+00:00,11.029,10.923,6.543,-5.702,-4.857,280.849,56.162873,10.203889,61.22
2025-10-13T11:13:45.557218+00:00,11.032,10.643,6.520,-6.544,-4.933,283.895,56.162869,10.203911,60.44
2025-10-13T11:13:45.760221+00:00,11.036,10.248,6.503,-7.549,-4.990,287.955,56.162935,10.203896,61.52
2025-10-13T11:13:45.962368+00:00,11.040,9.845,6.501,-8.398,-4.996,291.998,56.162901,10.203923,61.12
2025-10-13T11:13:46.166197+00:00,11.044,9.444,6.515,-9.085,-4.951,296.075,56.162858,10.203870,62.16
2025-10-13T11:13:46.371093+00:00,11.048,9.065,6.544,-9.589,-4.853,300.173,56.162874,10.203936,59.16
2025-10-13T11:13:46.574212+00:00,11.051,8.727,6.588,-9.894,-4.706,304.235,56.162884,10.203878,62.37
2025-10-13T11:13:46.778062+00:00,11.055,8.441,6.647,-10.000,-4.509,308.312,56.162883,10.203900,60.25
2025-10-13T11:13:46.980277+00:00,11.059,8.221,6.720,-9.904,-4.268,312.356,56.162883,10.203889,58.22
2025-10-13T11:13:47.183142+00:00,11.063,8.074,6.805,-9.609,-3.983,316.414,56.162878,10.203935,60.93
2025-10-13T11:13:47.385942+00:00,11.067,8.005,6.903,-9.120,-3.656,320.470,56.162944,10.203875,59.21
2025-10-13T11:13:47.588565+00:00,11.071,8.018,7.012,-8.449,-3.292,324.522,56.162884,10.203863,62.01
2025-10-13T11:13:47.791967+00:00,11.075,8.112,7.132,-7.604,-2.893,328.590,56.162949,10.203923,61.60
2025-10-13T11:13:47.993771+00:00,11.079,8.283,7.260,-6.614,-2.468,332.626,56.162939,10.203900,60.76
2025-10-13T11:13:48.195527+00:00,11.083,8.523,7.395,-5.492,-2.017,336.661,56.162927,10.203905,57.53
2025-10-13T11:13:48.397447+00:00,11.087,8.824,7.536,-4.260,-1.546,340.700,56.162925,10.203911,61.48
2025-10-13T11:13:48.599295+00:00,11.091,9.172,7.682,-2.944,-1.059,344.737,56.162933,10.203852,59.30
2025-10-13T11:13:48.802524+00:00,11.096,9.556,7.833,-1.559,-0.558,348.801,56.162923,10.203880,58.40
2025-10-13T11:13:49.005380+00:00,11.100,9.958,7.984,-0.146,-0.052,352.858,56.162946,10.203893,57.84
2025-10-13T11:13:49.207137+00:00,11.104,10.360,8.136,1.263,0.452,356.894,56.162854,10.203873,60.54
2025-10-13T11:13:49.409143+00:00,11.108,10.747,8.285,2.649,0.952,0.934,56.162941,10.203907,58.32
2025-10-13T11:13:49.611988+00:00,11.112,11.106,8.433,3.987,1.444,4.991,56.162914,10.203897,61.16
2025-10-13T11:13:49.814086+00:00,11.116,11.418,8.576,5.240,1.919,9.032,56.162883,10.203948,61.04
2025-10-13T11:13:50.015923+00:00,11.120,11.672,8.712,6.387,2.375,13.069,56.162937,10.203917,58.73
2025-10-13T11:13:50.217764+00:00,11.124,11.858,8.842,7.407,2.806,17.106,56.162933,10.203947,59.86
2025-10-13T11:13:50.419918+00:00,11.128,11.969,8.963,8.281,3.209,21.149,56.162874,10.203897,59.55
2025-10-13T11:13:50.623274+00:00,11.132,11.999,9.075,8.992,3.582,25.216,56.162902,10.203870,59.64
2025-10-13T11:13:50.826206+00:00,11.136,11.948,9.175,9.521,3.917,29.275,56.162874,10.203894,59.32
2025-10-13T11:13:51.028034+00:00,11.140,11.817,9.263,9.857,4.210,33.311,56.162889,10.203885,60.10
2025-10-13T11:13:51.231991+00:00,11.144,11.610,9.339,9.996,4.463,37.391,56.162931,10.203868,61.90
2025-10-13T11:13:51.435008+00:00,11.148,11.338,9.400,9.933,4.668,41.451,56.162870,10.203908,61.74
2025-10-13T11:13:51.636850+00:00,11.152,11.013,9.447,9.672,4.825,45.488,56.162924,10.203852,60.17
2025-10-13T11:13:51.838782+00:00,11.156,10.646,9.480,9.218,4.933,49.526,56.162897,10.203895,58.66
2025-10-13T11:13:52.040664+00:00,11.159,10.254,9.497,8.580,4.990,53.564,56.162926,10.203897,61.83
2025-10-13T11:13:52.242446+00:00,11.163,9.851,9.499,7.772,4.997,57.600,56.162907,10.203910,61.05
2025-10-13T11:13:52.393813+00:00,11.166,9.552,9.490,7.063,4.968,60.627,56.162862,10.203885,58.61
2025-10-13T11:13:52.596578+00:00,11.170,9.168,9.466,5.990,4.886,64.682,56.162896,10.203869,57.87
2025-10-13T11:13:52.800778+00:00,11.174,8.817,9.425,4.789,4.752,68.766,56.162912,10.203857,62.08
2025-10-13T11:13:53.003622+00:00,11.177,8.516,9.371,3.498,4.570,72.823,56.162949,10.203903,58.80
2025-10-13T11:13:53.206381+00:00,11.181,8.277,9.302,2.138,4.341,76.878,56.162851,10.203925,58.40
2025-10-13T11:13:53.410298+00:00,11.185,8.107,9.220,0.726,4.066,80.957,56.162940,10.203859,59.77
2025-10-13T11:13:53.613176+00:00,11.189,8.016,9.125,-0.693,3.750,85.014,56.162896,10.203945,60.44
2025-10-13T11:13:53.818251+00:00,11.192,8.006,9.018,-2.113,3.392,89.116,56.162912,10.203941,57.65
2025-10-13T11:13:54.019941+00:00,11.196,8.079,8.901,-3.467,3.005,93.150,56.162911,10.203873,58.11
2025-10-13T11:13:54.221727+00:00,11.199,8.229,8.776,-4.753,2.587,97.185,56.162853,10.203889,58.42
2025-10-13T11:13:54.423636+00:00,11.203,8.451,8.643,-5.945,2.143,101.224,56.162909,10.203887,58.88
2025-10-13T11:13:54.625578+00:00,11.206,8.737,8.503,-7.019,1.676,105.262,56.162939,10.203873,59.48
2025-10-13T11:13:54.827758+00:00,11.210,9.074,8.358,-7.953,1.192,109.306,56.162886,10.203874,61.05
2025-10-13T11:13:55.029561+00:00,11.213,9.448,8.209,-8.727,0.697,113.342,56.162937,10.203923,62.36
2025-10-13T11:13:55.231317+00:00,11.216,9.844,8.059,-9.328,0.195,117.377,56.162887,10.203896,59.09
2025-10-13T11:13:55.433224+00:00,11.220,10.247,7.907,-9.742,-0.309,121.415,56.162893,10.203910,57.84
2025-10-13T11:13:55.635082+00:00,11.223,10.640,7.757,-9.963,-0.811,125.452,56.162924,10.203939,61.58
2025-10-13T11:13:55.837458+00:00,11.226,11.008,7.609,-9.985,-1.305,129.500,56.162943,10.203923,60.80
2025-10-13T11:13:56.039398+00:00,11.229,11.334,7.465,-9.807,-1.785,133.539,56.162935,10.203905,60.67
2025-10-13T11:13:56.242335+00:00,11.232,11.607,7.325,-9.431,-2.249,137.597,56.162863,10.203875,60.16
2025-10-13T11:13:56.445538+00:00,11.235,11.814,7.193,-8.865,-2.690,141.662,56.162880,10.203947,59.57
2025-10-13T11:13:56.647576+00:00,11.238,11.946,7.070,-8.124,-3.101,145.702,56.162886,10.203877,61.56
2025-10-13T11:13:56.849713+00:00,11.241,11.999,6.956,-7.220,-3.481,149.745,56.162899,10.203931,58.27
2025-10-13T11:13:57.051529+00:00,11.244,11.971,6.852,-6.174,-3.825,153.781,56.162907,10.203880,59.96
2025-10-13T11:13:57.253316+00:00,11.247,11.862,6.761,-5.005,-4.130,157.817,56.162878,10.203904,58.60
2025-10-13T11:13:57.454992+00:00,11.249,11.679,6.682,-3.737,-4.393,161.851,56.162872,10.203879,60.87
2025-10-13T11:13:57.656815+00:00,11.252,11.427,6.617,-2.394,-4.611,165.887,56.162942,10.203947,58.35
2025-10-13T11:13:57.858801+00:00,11.255,11.116,6.565,-1.002,-4.782,169.927,56.162877,10.203854,60.07
2025-10-13T11:13:58.060721+00:00,11.257,10.761,6.528,0.410,-4.905,173.965,56.162924,10.203864,61.69
2025-10-13T11:13:58.262472+00:00,11.260,10.375,6.507,1.812,-4.978,178.000,56.162885,10.203936,60.34
2025-10-13T11:13:58.464308+00:00,11.262,9.973,6.500,3.179,-5.000,182.037,56.162932,10.203912,59.88
2025-10-13T11:13:58.667153+00:00,11.264,9.571,6.509,4.489,-4.971,186.094,56.162906,10.203886,59.80
2025-10-13T11:13:58.869192+00:00,11.267,9.188,6.533,5.704,-4.891,190.135,56.162863,10.203853,61.31
2025-10-13T11:13:59.071032+00:00,11.269,8.838,6.572,6.803,-4.762,194.171,56.162884,10.203920,62.20
2025-10-13T11:13:59.272730+00:00,11.271,8.535,6.625,7.767,-4.584,198.205,56.162909,10.203892,59.01
2025-10-13T11:13:59.474574+00:00,11.273,8.292,6.692,8.577,-4.359,202.242,56.162935,10.203881,58.80
2025-10-13T11:13:59.676973+00:00,11.275,8.118,6.773,9.217,-4.090,206.290,56.162949,10.203908,61.22
2025-10-13T11:13:59.879270+00:00,11.277,8.020,6.867,9.672,-3.778,210.336,56.162927,10.203852,62.12
2025-10-13T11:14:00.082151+00:00,11.279,8.004,6.972,9.934,-3.427,214.394,56.162918,10.203919,57.95
2025-10-13T11:14:00.283920+00:00,11.281,8.068,7.087,9.997,-3.043,218.429,56.162873,10.203883,61.83
2025-10-13T11:14:00.486282+00:00,11.282,8.212,7.212,9.859,-2.627,222.476,56.162919,10.203866,61.33
2025-10-13T11:14:00.688237+00:00,11.284,8.428,7.345,9.525,-2.185,226.516,56.162880,10.203891,61.97
2025-10-13T11:14:00.890315+00:00,11.285,8.708,7.484,9.000,-1.720,230.557,56.162902,10.203908,58.03
2025-10-13T11:14:01.092098+00:00,11.287,9.040,7.629,8.297,-1.238,234.593,56.162877,10.203941,58.87
