ts_iso,batt_v,airspeed_ms,groundspeed_ms,roll_deg,pitch_deg,yaw_deg,lat,lon,alt_m
2025-10-13T13:54:39.892215+00:00,,,,,,,,,
2025-10-13T13:54:40.052721+00:00,11.163,9.858,9.499,7.789,4.997,64.250,56.162857,10.203901,58.45
2025-10-13T13:54:40.256357+00:00,11.167,9.458,9.486,6.819,4.953,68.322,56.162906,10.203889,59.44
2025-10-13T13:54:40.458671+00:00,11.171,9.082,9.458,5.718,4.859,72.369,56.162921,10.203934,61.41
2025-10-13T13:54:40.659648+00:00,11.175,8.746,9.415,4.511,4.716,76.389,56.162931,10.203927,58.89
2025-10-13T13:54:40.861591+00:00,11.178,8.459,9.357,3.209,4.524,80.427,56.162866,10.203887,57.76
2025-10-13T13:54:41.487123+00:00,11.190,8.004,9.095,-1.110,3.649,92.938,56.162895,10.203873,57.59
2025-10-13T13:54:41.655457+00:00,11.193,8.011,9.005,-2.271,3.349,96.304,56.162895,10.203873,57.59
2025-10-13T13:54:41.857577+00:00,11.196,8.092,8.887,-3.621,2.958,100.347,56.162929,10.203933,61.79
2025-10-13T13:54:42.060511+00:00,11.200,8.252,8.760,-4.905,2.534,104.406,56.162929,10.203936,61.13
2025-10-13T13:54:42.262372+00:00,11.203,8.483,8.626,-6.083,2.087,108.443,56.162895,10.203872,61.71
2025-10-13T13:54:42.464127+00:00,11.207,8.775,8.486,-7.140,1.618,112.478,56.162923,10.203885,60.34
2025-10-13T13:54:42.666030+00:00,11.210,9.117,8.340,-8.055,1.133,116.516,56.162874,10.203940,61.83
2025-10-13T13:54:42.868060+00:00,11.213,9.495,8.191,-8.810,0.637,120.557,56.162902,10.203889,58.62
2025-10-13T13:54:43.071525+00:00,11.217,9.896,8.039,-9.392,0.130,124.626,56.162853,10.203944,62.38
2025-10-13T13:54:43.274537+00:00,11.220,10.301,7.887,-9.784,-0.377,128.686,56.162943,10.203916,58.02
2025-10-13T13:54:43.476751+00:00,11.223,10.692,7.736,-9.978,-0.879,132.731,56.162853,10.203931,58.74
2025-10-13T13:54:43.678788+00:00,11.226,11.055,7.589,-9.972,-1.371,136.771,56.162879,10.203877,57.57
2025-10-13T13:54:43.880666+00:00,11.229,11.374,7.446,-9.768,-1.848,140.809,56.162926,10.203946,57.82
2025-10-13T13:54:44.083970+00:00,11.233,11.639,7.307,-9.365,-2.310,144.875,56.162901,10.203901,58.74
2025-10-13T13:54:44.286791+00:00,11.236,11.836,7.176,-8.775,-2.747,148.931,56.162917,10.203929,59.77
2025-10-13T13:54:44.489992+00:00,11.239,11.958,7.053,-8.006,-3.157,152.995,56.162869,10.203916,57.74
2025-10-13T13:54:44.691346+00:00,11.241,12.000,6.941,-7.085,-3.530,157.023,56.162896,10.203851,59.91
2025-10-13T13:54:44.893204+00:00,11.244,11.961,6.839,-6.021,-3.869,161.060,56.162877,10.203920,57.51
2025-10-13T13:54:45.096172+00:00,11.247,11.841,6.749,-4.829,-4.170,165.119,56.162884,10.203862,60.77
2025-10-13T13:54:45.299177+00:00,11.250,11.645,6.672,-3.541,-4.428,169.179,56.162883,10.203863,58.61
2025-10-13T13:54:45.502989+00:00,11.252,11.381,6.608,-2.175,-4.641,173.255,56.162910,10.203932,61.17
2025-10-13T13:54:45.704870+00:00,11.255,11.063,6.558,-0.778,-4.805,177.293,56.162917,10.203923,60.42
2025-10-13T13:54:45.906740+00:00,11.257,10.701,6.524,0.633,-4.920,181.330,56.162869,10.203935,58.49
2025-10-13T13:54:46.059458+00:00,11.259,10.408,6.508,1.694,-4.974,184.384,56.162940,10.203891,58.47
2025-10-13T13:54:46.261497+00:00,11.262,10.007,6.500,3.067,-5.000,188.426,56.162878,10.203902,59.70
2025-10-13T13:54:46.464509+00:00,11.264,9.604,6.507,4.384,-4.975,192.486,56.162919,10.203877,57.68
2025-10-13T13:54:46.667605+00:00,11.266,9.216,6.530,5.613,-4.899,196.548,56.162947,10.203890,57.79
2025-10-13T13:54:46.869484+00:00,11.269,8.863,6.568,6.723,-4.773,200.585,56.162931,10.203904,62.44
2025-10-13T13:54:47.073146+00:00,11.271,8.554,6.621,7.707,-4.597,204.659,56.162934,10.203916,62.10
2025-10-13T13:54:47.275003+00:00,11.273,8.306,6.687,8.527,-4.376,208.696,56.162913,10.203878,62.20
2025-10-13T13:54:47.476981+00:00,11.275,8.127,6.767,9.178,-4.110,212.735,56.162879,10.203885,58.65
2025-10-13T13:54:47.680874+00:00,11.277,8.024,6.860,9.650,-3.799,216.813,56.162943,10.203870,58.56
2025-10-13T13:54:47.884541+00:00,11.279,8.002,6.966,9.925,-3.448,220.886,56.162892,10.203856,59.78
2025-10-13T13:54:48.088261+00:00,11.280,8.063,7.081,9.998,-3.062,224.961,56.162913,10.203887,61.66
2025-10-13T13:54:48.290214+00:00,11.282,8.203,7.206,9.871,-2.648,229.000,56.162870,10.203927,57.74
2025-10-13T13:54:48.492326+00:00,11.284,8.416,7.338,9.546,-2.207,233.042,56.162928,10.203950,59.65
2025-10-13T13:54:48.694848+00:00,11.285,8.694,7.477,9.029,-1.742,237.093,56.162927,10.203890,62.08
2025-10-13T13:54:48.898015+00:00,11.287,9.026,7.623,8.329,-1.258,241.156,56.162914,10.203879,62.31
2025-10-13T13:54:49.100550+00:00,11.288,9.397,7.771,7.463,-0.762,245.206,56.162890,10.203908,61.20
2025-10-13T13:54:49.302707+00:00,11.290,9.793,7.922,6.450,-0.260,249.250,56.162941,10.203874,61.01
2025-10-13T13:54:49.505976+00:00,11.291,10.198,8.074,5.301,0.248,253.315,56.162881,10.203874,61.51
2025-10-13T13:54:49.708347+00:00,11.292,10.594,8.225,4.051,0.752,257.362,56.162935,10.203873,60.15
2025-10-13T13:54:49.912391+00:00,11.293,10.969,8.375,2.708,1.251,261.443,56.162863,10.203851,58.37
2025-10-13T13:54:50.116329+00:00,11.294,11.303,8.521,1.311,1.737,265.522,56.162865,10.203886,58.79
2025-10-13T13:54:50.318413+00:00,11.295,11.581,8.660,-0.100,2.201,269.564,56.162868,10.203916,57.94
2025-10-13T13:54:50.520384+00:00,11.296,11.795,8.793,-1.508,2.643,273.603,56.162896,10.203874,59.04
2025-10-13T13:54:50.722593+00:00,11.297,11.935,8.917,-2.887,3.058,277.648,56.162899,10.203903,62.37
2025-10-13T13:55:06.105088+00:00,11.143,8.327,9.320,9.979,4.399,225.297,56.162897,10.203886,58.22
2025-10-13T13:55:06.309344+00:00,11.139,8.140,9.240,9.784,4.134,229.382,56.162932,10.203899,58.16
2025-10-13T13:55:06.510754+00:00,11.135,8.030,9.149,9.397,3.830,233.411,56.162934,10.203932,61.83
2025-10-13T13:55:06.713913+00:00,11.131,8.001,9.045,8.818,3.485,237.473,56.162901,10.203865,61.00
2025-10-13T13:55:06.915298+00:00,11.127,8.053,8.932,8.067,3.107,241.502,56.162860,10.203936,58.97
2025-10-13T13:55:07.067115+00:00,11.124,8.144,8.840,7.395,2.801,244.538,56.162927,10.203880,60.62
2025-10-13T13:55:07.269955+00:00,11.120,8.332,8.710,6.368,2.367,248.595,56.162851,10.203871,59.66
2025-10-13T13:55:07.471919+00:00,11.116,8.587,8.573,5.218,1.911,252.634,56.162862,10.203888,59.36
2025-10-13T13:55:07.674283+00:00,11.112,8.901,8.430,3.961,1.434,256.681,56.162877,10.203915,61.27
2025-10-13T13:55:07.877661+00:00,11.108,9.261,8.282,2.618,0.941,260.749,56.162927,10.203912,60.39
2025-10-13T13:55:08.079691+00:00,11.104,9.649,8.132,1.232,0.441,264.789,56.162889,10.203930,59.36
2025-10-13T13:55:08.283528+00:00,11.099,10.055,7.979,-0.192,-0.068,268.866,56.162922,10.203886,57.50
2025-10-13T13:55:08.485524+00:00,11.095,10.455,7.828,-1.599,-0.572,272.906,56.162913,10.203916,58.47
2025-10-13T13:55:08.688506+00:00,11.091,10.838,7.678,-2.981,-1.072,276.966,56.162931,10.203882,62.48
2025-10-13T13:55:08.890754+00:00,11.087,11.186,7.532,-4.298,-1.560,281.011,56.162886,10.203894,60.69
2025-10-13T13:55:09.092124+00:00,11.083,11.484,7.391,-5.524,-2.030,285.038,56.162875,10.203886,62.17
2025-10-13T13:55:09.295864+00:00,11.079,11.725,7.255,-6.652,-2.484,289.113,56.162906,10.203858,61.38
2025-10-13T13:55:09.497719+00:00,11.075,11.893,7.127,-7.638,-2.908,293.150,56.162914,10.203901,61.64
2025-10-13T13:55:09.700001+00:00,11.071,11.984,7.009,-8.472,-3.304,297.195,56.162906,10.203912,62.21
2025-10-13T13:55:09.902198+00:00,11.067,11.994,6.900,-9.137,-3.666,301.239,56.162861,10.203919,57.90
2025-10-13T13:55:10.107301+00:00,11.063,11.922,6.802,-9.624,-3.995,305.341,56.162879,10.203930,60.09
2025-10-13T13:55:10.309839+00:00,11.059,11.771,6.716,-9.911,-4.278,309.392,56.162893,10.203921,61.93
2025-10-13T13:55:10.511895+00:00,11.055,11.549,6.645,-10.000,-4.518,313.433,56.162913,10.203911,59.58
2025-10-13T13:55:10.714152+00:00,11.051,11.263,6.587,-9.888,-4.711,317.479,56.162949,10.203904,61.93
2025-10-13T13:55:10.916226+00:00,11.047,10.926,6.543,-9.579,-4.856,321.520,56.162879,10.203940,58.92
2025-10-13T13:55:11.118685+00:00,11.044,10.551,6.515,-9.077,-4.951,325.569,56.162932,10.203923,58.44
2025-10-13T13:55:11.322354+00:00,11.040,10.151,6.501,-8.389,-4.996,329.642,56.162860,10.203938,59.39
2025-10-13T13:55:11.525857+00:00,11.036,9.744,6.503,-7.531,-4.990,333.712,56.162911,10.203945,58.47
2025-10-13T13:55:11.728355+00:00,11.032,9.351,6.520,-6.526,-4.932,337.763,56.162892,10.203866,58.07
2025-10-13T13:55:11.930294+00:00,11.028,8.985,6.553,-5.394,-4.824,341.802,56.162913,10.203898,57.54
2025-10-13T13:55:12.132128+00:00,11.024,8.660,6.600,-4.154,-4.667,345.838,56.162850,10.203876,58.60
2025-10-13T13:55:12.334723+00:00,11.021,8.388,6.662,-2.827,-4.461,349.889,56.162912,10.203919,60.07
2025-10-13T13:55:12.537340+00:00,11.017,8.183,6.737,-1.443,-4.210,353.942,56.162896,10.203930,61.31
2025-10-13T13:55:12.740233+00:00,11.013,8.052,6.825,-0.027,-3.915,358.000,56.162873,10.203918,60.72
2025-10-13T13:55:12.942114+00:00,11.010,8.001,6.925,1.381,-3.582,2.038,56.162947,10.203856,62.23
2025-10-13T13:55:13.144026+00:00,11.006,8.031,7.036,2.763,-3.212,6.076,56.162934,10.203868,59.68
2025-10-13T13:55:13.345675+00:00,11.003,8.141,7.157,4.087,-2.810,10.109,56.162916,10.203887,61.69
2025-10-13T13:55:13.497717+00:00,11.000,8.274,7.254,5.034,-2.488,13.149,56.162909,10.203908,60.73
2025-10-13T13:55:13.701338+00:00,10.996,8.513,7.390,6.210,-2.034,17.222,56.162930,10.203934,61.18
2025-10-13T13:55:13.903184+00:00,10.993,8.812,7.531,7.252,-1.564,21.259,56.162858,10.203873,58.93
2025-10-13T13:55:14.105142+00:00,10.990,9.159,7.677,8.150,-1.077,25.299,56.162933,10.203871,58.27
2025-10-13T13:55:14.307803+00:00,10.986,9.541,7.827,8.887,-0.578,29.352,56.162871,10.203937,58.68
2025-10-13T13:55:14.509669+00:00,10.983,9.941,7.978,9.444,-0.074,33.389,56.162906,10.203897,58.97
2025-10-13T13:55:14.712739+00:00,10.980,10.345,8.130,9.815,0.433,37.450,56.162896,10.203942,57.78
2025-10-13T13:55:14.915322+00:00,10.976,10.734,8.280,9.987,0.934,41.502,56.162860,10.203939,58.86
2025-10-13T13:55:15.118078+00:00,10.973,11.094,8.428,9.959,1.427,45.557,56.162863,10.203908,60.54
2025-10-13T13:55:15.322828+00:00,10.970,11.412,8.573,9.727,1.909,49.652,56.162877,10.203855,59.57
2025-10-13T13:55:15.524669+00:00,10.967,11.667,8.709,9.303,2.365,53.689,56.162925,10.203917,57.69
2025-10-13T13:55:15.728085+00:00,10.964,11.856,8.840,8.688,2.800,57.757,56.162910,10.203900,59.21
2025-10-13T13:55:15.932150+00:00,10.961,11.968,8.962,7.895,3.207,61.838,56.162869,10.203864,61.87
2025-10-13T13:55:16.134665+00:00,10.958,11.999,9.074,6.949,3.579,65.889,56.162859,10.203922,57.78
2025-10-13T13:55:16.337475+00:00,10.955,11.949,9.174,5.861,3.914,69.945,56.162879,10.203896,59.78
2025-10-13T13:55:16.539467+00:00,10.953,11.818,9.262,4.661,4.208,73.985,56.162861,10.203912,57.89
2025-10-13T13:55:16.742687+00:00,10.950,11.613,9.338,3.359,4.460,78.049,56.162919,10.203913,61.22
2025-10-13T13:55:16.944555+00:00,10.947,11.343,9.399,1.999,4.665,82.087,56.162947,10.203874,61.20
2025-10-13T13:55:17.146855+00:00,10.945,11.018,9.447,0.597,4.823,86.133,56.162946,10.203940,57.51
2025-10-13T13:55:17.349581+00:00,10.942,10.651,9.479,-0.821,4.932,90.187,56.162947,10.203949,58.10
2025-10-13T13:55:17.551664+00:00,10.940,10.258,9.497,-2.218,4.990,94.229,56.162882,10.203871,57.61
2025-10-13T13:55:17.754693+00:00,10.937,9.853,9.499,-3.577,4.997,98.290,56.162920,10.203898,62.44
2025-10-13T13:55:17.956516+00:00,10.935,9.456,9.486,-4.856,4.953,102.326,56.162894,10.203899,59.00
2025-10-13T13:55:18.158345+00:00,10.933,9.081,9.457,-6.039,4.858,106.363,56.162919,10.203861,59.27
2025-10-13T13:55:18.360695+00:00,10.931,8.743,9.414,-7.104,4.714,110.409,56.162857,10.203900,60.11
2025-10-13T13:55:18.562960+00:00,10.928,8.456,9.356,-8.026,4.522,114.455,56.162911,10.203908,61.95
2025-10-13T13:55:18.764944+00:00,10.926,8.232,9.285,-8.786,4.283,118.495,56.162927,10.203893,59.91
2025-10-13T13:55:18.966842+00:00,10.924,8.081,9.200,-9.371,4.002,122.533,56.162938,10.203936,62.02
2025-10-13T13:55:19.168714+00:00,10.923,8.007,9.104,-9.769,3.679,126.570,56.162897,10.203940,61.17
2025-10-13T13:55:19.371330+00:00,10.921,8.014,8.995,-9.973,3.318,130.622,56.162885,10.203897,62.47
2025-10-13T13:55:19.524295+00:00,10.919,8.074,8.907,-9.994,3.022,133.682,56.162892,10.203860,61.25
2025-10-13T13:55:19.725834+00:00,10.918,8.221,8.782,-9.848,2.606,137.712,56.162902,10.203891,58.71
2025-10-13T13:55:19.927757+00:00,10.916,8.440,8.649,-9.504,2.163,141.751,56.162915,10.203882,61.93
2025-10-13T13:55:20.130472+00:00,10.915,8.724,8.509,-8.969,1.696,145.805,56.162881,10.203924,61.20
2025-10-13T13:55:20.333643+00:00,10.913,9.061,8.363,-8.252,1.210,149.869,56.162939,10.203888,58.49
2025-10-13T13:55:20.535550+00:00,10.912,9.434,8.214,-7.374,0.715,153.907,56.162949,10.203893,59.56
2025-10-13T13:55:20.736854+00:00,10.910,9.829,8.064,-6.352,0.214,157.933,56.162939,10.203851,62.13
2025-10-13T13:55:20.938943+00:00,10.909,10.232,7.913,-5.200,-0.291,161.975,56.162947,10.203870,61.17
2025-10-13T13:55:21.140919+00:00,10.908,10.626,7.762,-3.944,-0.793,166.014,56.162869,10.203868,58.16
2025-10-13T13:55:21.343116+00:00,10.907,10.995,7.614,-2.608,-1.287,170.058,56.162921,10.203937,59.72
2025-10-13T13:55:21.544996+00:00,10.906,11.322,7.470,-1.223,-1.767,174.096,56.162904,10.203911,61.80
2025-10-13T13:55:21.747537+00:00,10.905,11.597,7.331,0.192,-2.231,178.146,56.162903,10.203898,62.19
2025-10-13T13:55:21.950328+00:00,10.904,11.807,7.198,1.604,-2.672,182.202,56.162901,10.203881,59.22
2025-10-13T13:55:22.152457+00:00,10.903,11.942,7.074,2.980,-3.085,186.245,56.162948,10.203942,61.92
2025-10-13T13:55:22.354341+00:00,10.903,11.998,6.960,4.295,-3.466,190.283,56.162922,10.203889,60.05
2025-10-13T13:55:22.556307+00:00,10.902,11.973,6.857,5.525,-3.812,194.322,56.162909,10.203931,58.87
2025-10-13T13:55:22.759294+00:00,10.901,11.868,6.764,6.650,-4.120,198.382,56.162945,10.203916,62.41
2025-10-13T13:55:22.961656+00:00,10.901,11.686,6.685,7.637,-4.385,202.429,56.162885,10.203852,59.04
2025-10-13T13:55:23.164740+00:00,10.901,11.434,6.618,8.475,-4.606,206.490,56.162924,10.203860,58.29
2025-10-13T13:55:23.366524+00:00,10.900,11.125,6.566,9.138,-4.778,210.526,56.162893,10.203941,61.27
2025-10-13T13:55:23.568430+00:00,10.900,10.771,6.529,9.619,-4.902,214.564,56.162926,10.203919,60.01
2025-10-13T13:55:23.771394+00:00,10.900,10.383,6.507,9.909,-4.977,218.624,56.162900,10.203856,62.27
2025-10-13T13:55:23.973256+00:00,10.900,9.982,6.500,10.000,-5.000,222.661,56.162928,10.203949,58.33
2025-10-13T13:55:24.176598+00:00,10.900,9.578,6.508,9.890,-4.972,226.727,56.162929,10.203929,57.58
2025-10-13T13:55:24.380672+00:00,10.900,9.191,6.532,9.578,-4.892,230.809,56.162868,10.203898,58.89
2025-10-13T13:55:24.582630+00:00,10.900,8.840,6.571,9.077,-4.763,234.848,56.162897,10.203863,58.61
2025-10-13T13:55:24.785084+00:00,10.901,8.536,6.625,8.394,-4.585,238.897,56.162854,10.203935,60.07
2025-10-13T13:55:24.986876+00:00,10.901,8.293,6.692,7.545,-4.360,242.933,56.162890,10.203921,58.51
2025-10-13T13:55:25.189777+00:00,10.902,8.118,6.773,6.540,-4.090,246.991,56.162864,10.203931,57.84
2025-10-13T13:55:25.393639+00:00,10.902,8.020,6.867,5.397,-3.776,251.068,56.162889,10.203898,58.56
2025-10-13T13:55:25.598377+00:00,10.903,8.004,6.974,4.140,-3.422,255.163,56.162895,10.203948,62.09
2025-10-13T13:55:25.801939+00:00,10.903,8.071,7.090,2.805,-3.033,259.234,56.162901,10.203877,58.82
2025-10-13T13:55:26.003750+00:00,10.904,8.216,7.215,1.426,-2.618,263.271,56.162904,10.203921,60.17
2025-10-13T13:55:26.205845+00:00,10.905,8.433,7.348,0.016,-2.175,267.312,56.162873,10.203926,57.83
2025-10-13T13:55:26.408445+00:00,10.906,8.716,7.488,-1.398,-1.708,271.364,56.162942,10.203920,62.43
2025-10-13T13:55:26.560076+00:00,10.907,8.962,7.596,-2.439,-1.347,274.397,56.162872,10.203889,58.65
2025-10-13T13:55:26.763146+00:00,10.908,9.328,7.744,-3.788,-0.852,278.458,56.162893,10.203915,61.23
2025-10-13T13:55:26.965259+00:00,10.909,9.720,7.895,-5.055,-0.351,282.501,56.162902,10.203862,58.23
2025-10-13T13:55:27.167124+00:00,10.910,10.123,8.046,-6.220,0.154,286.538,56.162878,10.203937,61.12
2025-10-13T13:55:27.369321+00:00,10.911,10.521,8.197,-7.262,0.657,290.582,56.162948,10.203873,59.85
2025-10-13T13:55:27.571108+00:00,10.913,10.898,8.346,-8.158,1.153,294.618,56.162925,10.203855,57.63
2025-10-13T13:55:27.773315+00:00,10.914,11.238,8.491,-8.892,1.638,298.662,56.162856,10.203869,60.08
2025-10-13T13:55:27.976362+00:00,10.916,11.530,8.633,-9.451,2.109,302.723,56.162863,10.203910,62.01
2025-10-13T13:55:28.179178+00:00,10.918,11.758,8.767,-9.818,2.557,306.779,56.162945,10.203883,58.61
2025-10-13T13:55:28.381785+00:00,10.919,11.914,8.893,-9.988,2.978,310.831,56.162905,10.203917,57.54
2025-10-13T13:55:28.583661+00:00,10.921,11.991,9.010,-9.958,3.368,314.869,56.162879,10.203905,62.23
2025-10-13T13:55:28.786161+00:00,10.923,11.988,9.117,-9.728,3.724,318.919,56.162869,10.203892,61.66
2025-10-13T13:55:28.992736+00:00,10.925,11.901,9.214,-9.292,4.048,323.050,56.162912,10.203860,62.49
2025-10-13T13:55:29.195745+00:00,10.927,11.736,9.297,-8.675,4.325,327.110,56.162869,10.203903,59.77
2025-10-13T13:55:29.397778+00:00,10.929,11.502,9.367,-7.888,4.556,331.151,56.162882,10.203919,60.49
2025-10-13T13:55:29.599683+00:00,10.931,11.207,9.422,-6.943,4.740,335.189,56.162941,10.203923,61.30
2025-10-13T13:55:29.802369+00:00,10.933,10.861,9.463,-5.856,4.877,339.243,56.162859,10.203942,58.63
2025-10-13T13:55:30.004586+00:00,10.935,10.481,9.489,-4.654,4.963,343.287,56.162911,10.203856,59.51
2025-10-13T13:55:30.208666+00:00,10.938,10.077,9.500,-3.346,4.999,347.369,56.162931,10.203859,62.32
2025-10-13T13:55:30.413033+00:00,10.940,9.670,9.495,-1.969,4.983,351.456,56.162908,10.203879,61.68
2025-10-13T13:55:30.615328+00:00,10.943,9.280,9.475,-0.565,4.916,355.502,56.162867,10.203873,60.15
2025-10-13T13:55:30.818757+00:00,10.945,8.918,9.439,0.858,4.797,359.571,56.162878,10.203862,60.73
2025-10-13T13:55:31.020527+00:00,10.948,8.603,9.389,2.252,4.631,3.606,56.162889,10.203890,59.85
2025-10-13T13:55:31.222343+00:00,10.950,8.345,9.325,3.601,4.417,7.642,56.162912,10.203903,57.84
2025-10-13T13:55:31.424626+00:00,10.953,8.153,9.248,4.882,4.158,11.688,56.162880,10.203926,61.21
2025-10-13T13:55:31.627570+00:00,10.956,8.036,9.157,6.068,3.856,15.747,56.162912,10.203932,58.74
2025-10-13T13:55:31.830353+00:00,10.959,8.000,9.054,7.131,3.514,19.803,56.162887,10.203893,57.95
2025-10-13T13:55:32.032222+00:00,10.962,8.046,8.941,8.048,3.137,23.840,56.162866,10.203852,58.45
2025-10-13T13:55:32.234536+00:00,10.965,8.171,8.818,8.805,2.728,27.886,56.162866,10.203928,61.18
2025-10-13T13:55:32.436352+00:00,10.968,8.370,8.688,9.385,2.292,31.923,56.162860,10.203938,60.99
2025-10-13T13:55:32.642733+00:00,10.971,8.642,8.547,9.784,1.822,36.050,56.162921,10.203924,60.92
2025-10-13T13:55:32.795584+00:00,10.973,8.882,8.438,9.949,1.462,39.107,56.162859,10.203949,59.36
2025-10-13T13:55:32.997371+00:00,10.976,9.237,8.292,9.992,0.973,43.143,56.162917,10.203916,57.83
2025-10-13T13:55:33.199168+00:00,10.979,9.623,8.142,9.836,0.474,47.179,56.162931,10.203865,58.92
2025-10-13T13:55:33.401193+00:00,10.983,10.025,7.991,9.484,-0.031,51.219,56.162907,10.203854,60.71
2025-10-13T13:55:33.602882+00:00,10.986,10.425,7.840,8.943,-0.534,55.253,56.162928,10.203881,57.64
2025-10-13T13:55:33.806293+00:00,10.989,10.811,7.689,8.217,-1.036,59.321,56.162883,10.203924,58.26
2025-10-13T13:55:34.008754+00:00,10.993,11.162,7.543,7.330,-1.525,63.371,56.162947,10.203911,61.87
2025-10-13T13:55:34.210915+00:00,10.996,11.465,7.401,6.297,-1.998,67.414,56.162898,10.203870,61.26
2025-10-13T13:55:34.414071+00:00,11.000,11.710,7.264,5.133,-2.452,71.477,56.162906,10.203931,60.96
2025-10-13T13:55:34.615794+00:00,11.003,11.883,7.136,3.874,-2.878,75.511,56.162949,10.203885,58.62
2025-10-13T13:55:34.818745+00:00,11.007,11.980,7.017,2.530,-3.278,79.570,56.162878,10.203905,62.15
2025-10-13T13:55:35.021750+00:00,11.010,11.996,6.907,1.134,-3.643,83.630,56.162875,10.203926,60.97
2025-10-13T13:55:35.225865+00:00,11.014,11.930,6.808,-0.292,-3.973,87.713,56.162894,10.203896,62.36
2025-10-13T13:55:35.428046+00:00,11.018,11.785,6.722,-1.699,-4.259,91.756,56.162932,10.203867,57.74
2025-10-13T13:55:35.629789+00:00,11.021,11.568,6.650,-3.070,-4.501,95.791,56.162924,10.203851,61.99
2025-10-13T13:55:35.832172+00:00,11.025,11.286,6.591,-4.383,-4.698,99.839,56.162887,10.203939,58.22
2025-10-13T13:55:36.034630+00:00,11.029,10.952,6.546,-5.608,-4.847,103.888,56.162892,10.203949,62.26
2025-10-13T13:55:36.237116+00:00,11.033,10.578,6.516,-6.722,-4.946,107.938,56.162859,10.203911,62.22
2025-10-13T13:55:36.439069+00:00,11.036,10.183,6.502,-7.698,-4.995,111.977,56.162887,10.203858,58.26
2025-10-13T13:55:36.642045+00:00,11.040,9.777,6.502,-8.524,-4.992,116.036,56.162943,10.203937,61.76
2025-10-13T13:55:36.844248+00:00,11.044,9.383,6.518,-9.176,-4.939,120.080,56.162930,10.203854,60.03
2025-10-13T13:55:37.046899+00:00,11.048,9.012,6.550,-9.646,-4.834,124.134,56.162920,10.203945,61.88
2025-10-13T13:55:37.248856+00:00,11.052,8.684,6.596,-9.921,-4.681,128.172,56.162872,10.203930,58.21
2025-10-13T13:55:37.451108+00:00,11.056,8.408,6.656,-9.999,-4.480,132.217,56.162945,10.203878,61.58
2025-10-13T13:55:37.653260+00:00,11.060,8.197,6.730,-9.876,-4.233,136.261,56.162855,10.203859,61.75
2025-10-13T13:55:37.855888+00:00,11.064,8.060,6.818,-9.555,-3.942,140.313,56.162873,10.203920,58.09
2025-10-13T13:55:38.058035+00:00,11.068,8.002,6.917,-9.043,-3.611,144.356,56.162912,10.203879,62.47
2025-10-13T13:55:38.260368+00:00,11.072,8.025,7.027,-8.350,-3.243,148.403,56.162918,10.203943,60.70
2025-10-13T13:55:38.462614+00:00,11.076,8.129,7.147,-7.491,-2.843,152.448,56.162869,10.203896,61.57
2025-10-13T13:55:38.665028+00:00,11.080,8.309,7.276,-6.480,-2.413,156.496,56.162866,10.203905,59.97
2025-10-13T13:55:38.867447+00:00,11.084,8.559,7.413,-5.339,-1.958,160.545,56.162859,10.203914,58.33
2025-10-13T13:55:39.069383+00:00,11.088,8.866,7.555,-4.095,-1.484,164.583,56.162932,10.203885,58.59
2025-10-13T13:55:39.272488+00:00,11.092,9.222,7.702,-2.761,-0.992,168.645,56.162903,10.203918,58.54
2025-10-13T13:55:39.474229+00:00,11.096,9.607,7.852,-1.380,-0.494,172.680,56.162854,10.203864,61.74
2025-10-13T13:55:39.677714+00:00,11.100,10.011,8.004,0.039,0.014,176.750,56.162913,10.203894,61.23
2025-10-13T13:55:39.882465+00:00,11.104,10.418,8.158,1.467,0.525,180.845,56.162897,10.203896,60.90
2025-10-13T13:55:40.084481+00:00,11.108,10.802,8.307,2.847,1.024,184.885,56.162878,10.203877,62.03
2025-10-13T13:55:40.286714+00:00,11.112,11.153,8.454,4.171,1.513,188.930,56.162933,10.203926,58.41
2025-10-13T13:55:40.488649+00:00,11.116,11.458,8.596,5.410,1.985,192.969,56.162886,10.203947,62.10
2025-10-13T13:55:40.640781+00:00,11.119,11.648,8.698,6.273,2.328,196.011,56.162920,10.203895,58.68
2025-10-13T13:55:40.844359+00:00,11.123,11.843,8.830,7.315,2.766,200.082,56.162919,10.203871,61.68
2025-10-13T13:55:41.047089+00:00,11.127,11.962,8.952,8.206,3.173,204.137,56.162891,10.203914,61.74
2025-10-13T13:55:41.249232+00:00,11.131,12.000,9.064,8.930,3.547,208.180,56.162922,10.203863,61.19
2025-10-13T13:55:41.451079+00:00,11.135,11.957,9.165,9.475,3.884,212.217,56.162917,10.203863,58.61
2025-10-13T13:55:41.652855+00:00,11.139,11.834,9.254,9.831,4.181,216.253,56.162930,10.203909,61.07
2025-10-13T13:55:41.856800+00:00,11.143,11.635,9.332,9.991,4.439,220.331,56.162856,10.203872,58.58
2025-10-13T13:55:42.059811+00:00,11.147,11.369,9.395,9.949,4.649,224.392,56.162854,10.203925,60.36
2025-10-13T13:55:42.264544+00:00,11.151,11.044,9.444,9.704,4.813,228.486,56.162949,10.203903,58.41
2025-10-13T13:55:42.467307+00:00,11.155,10.679,9.478,9.265,4.925,232.542,56.162905,10.203948,61.30
2025-10-13T13:55:42.669416+00:00,11.159,10.288,9.496,8.641,4.987,236.584,56.162872,10.203866,61.48
2025-10-13T13:55:42.871746+00:00,11.163,9.884,9.499,7.845,4.998,240.630,56.162903,10.203914,60.71
2025-10-13T13:55:43.073460+00:00,11.167,9.486,9.487,6.894,4.958,244.665,56.162928,10.203865,62.44
2025-10-13T13:55:43.276363+00:00,11.171,9.107,9.460,5.799,4.867,248.723,56.162880,10.203862,60.47
2025-10-13T13:55:43.478636+00:00,11.174,8.766,9.418,4.591,4.726,252.768,56.162944,10.203859,61.27
2025-10-13T13:55:43.680499+00:00,11.178,8.475,9.361,3.294,4.538,256.806,56.162855,10.203891,59.53
2025-10-13T13:55:43.883918+00:00,11.182,8.245,9.290,1.921,4.301,260.874,56.162901,10.203902,60.88
2025-10-13T13:55:44.085691+00:00,11.185,8.089,9.207,0.520,4.022,264.909,56.162850,10.203942,61.48
2025-10-13T13:55:44.288658+00:00,11.189,8.009,9.110,-0.899,3.701,268.969,56.162899,10.203877,59.07
2025-10-13T13:55:44.491280+00:00,11.193,8.011,9.003,-2.298,3.342,273.021,56.162933,10.203913,58.65
2025-10-13T13:55:44.694149+00:00,11.196,8.095,8.884,-3.652,2.948,277.079,56.162901,10.203922,61.04
2025-10-13T13:55:44.897057+00:00,11.200,8.257,8.757,-4.933,2.524,281.137,56.162916,10.203916,61.98
2025-10-13T13:55:45.099051+00:00,11.203,8.489,8.623,-6.110,2.076,285.176,56.162927,10.203947,61.07
2025-10-13T13:55:45.301224+00:00,11.207,8.783,8.482,-7.165,1.606,289.220,56.162858,10.203919,58.33
2025-10-13T13:55:45.502947+00:00,11.210,9.126,8.336,-8.076,1.121,293.255,56.162856,10.203866,58.48
2025-10-13T13:55:45.707820+00:00,11.214,9.510,8.185,-8.836,0.617,297.352,56.162936,10.203883,61.76
2025-10-13T13:55:45.910102+00:00,11.217,9.910,8.034,-9.408,0.113,301.398,56.162942,10.203877,61.69
2025-10-13T13:55:46.112085+00:00,11.220,10.312,7.883,-9.792,-0.392,305.437,56.162919,10.203875,59.95
2025-10-13T13:55:46.314253+00:00,11.223,10.703,7.732,-9.980,-0.893,309.481,56.162915,10.203913,61.04
2025-10-13T13:55:46.516079+00:00,11.226,11.064,7.585,-9.969,-1.384,313.517,56.162898,10.203859,61.21
2025-10-13T13:55:46.718155+00:00,11.230,11.382,7.442,-9.759,-1.861,317.559,56.162896,10.203860,62.38
2025-10-13T13:55:46.870333+00:00,11.232,11.585,7.337,-9.472,-2.209,320.602,56.162944,10.203871,58.07
2025-10-13T13:55:47.072863+00:00,11.235,11.798,7.205,-8.924,-2.651,324.653,56.162867,10.203872,57.76
2025-10-13T13:55:47.275508+00:00,11.238,11.938,7.080,-8.196,-3.066,328.706,56.162930,10.203907,61.03
2025-10-13T13:55:47.477443+00:00,11.241,11.998,6.965,-7.308,-3.449,332.744,56.162907,10.203903,62.05
2025-10-13T13:55:47.679163+00:00,11.244,11.977,6.861,-6.274,-3.796,336.779,56.162878,10.203932,58.21
2025-10-13T13:55:47.881506+00:00,11.246,11.875,6.769,-5.112,-4.105,340.826,56.162917,10.203883,59.21
2025-10-13T13:55:48.084063+00:00,11.249,11.697,6.688,-3.846,-4.372,344.877,56.162920,10.203930,60.46
2025-10-13T13:55:48.286891+00:00,11.252,11.449,6.621,-2.501,-4.596,348.933,56.162947,10.203897,59.41
2025-10-13T13:55:48.489733+00:00,11.254,11.141,6.569,-1.106,-4.771,352.990,56.162948,10.203878,60.36
2025-10-13T13:55:48.691513+00:00,11.257,10.789,6.531,0.304,-4.898,357.026,56.162899,10.203874,59.56
2025-10-13T13:55:48.893957+00:00,11.259,10.403,6.508,1.713,-4.974,1.075,56.162864,10.203899,60.33
2025-10-13T13:55:49.095686+00:00,11.262,10.002,6.500,3.082,-5.000,5.109,56.162887,10.203946,59.86
2025-10-13T13:55:49.299778+00:00,11.264,9.597,6.508,4.405,-4.974,9.191,56.162915,10.203869,59.93
2025-10-13T13:55:49.501855+00:00,11.266,9.212,6.531,5.627,-4.898,13.233,56.162947,10.203853,61.03
2025-10-13T13:55:49.703622+00:00,11.269,8.860,6.569,6.735,-4.772,17.268,56.162939,10.203908,60.02
2025-10-13T13:55:49.907637+00:00,11.271,8.550,6.622,7.718,-4.595,21.348,56.162885,10.203870,62.48
2025-10-13T13:55:50.111594+00:00,11.273,8.301,6.689,8.544,-4.370,25.427,56.162941,10.203857,61.23
2025-10-13T13:55:50.314681+00:00,11.275,8.123,6.770,9.194,-4.101,29.489,56.162879,10.203857,57.93
2025-10-13T13:55:50.517618+00:00,11.277,8.022,6.863,9.658,-3.791,33.548,56.162940,10.203907,59.06
2025-10-13T13:55:50.721279+00:00,11.279,8.003,6.968,9.929,-3.439,37.621,56.162932,10.203917,60.28
2025-10-13T13:55:50.923756+00:00,11.280,8.065,7.083,9.998,-3.055,41.670,56.162902,10.203908,61.49
2025-10-13T13:55:51.125707+00:00,11.282,8.206,7.208,9.867,-2.641,45.709,56.162900,10.203940,61.35
2025-10-13T13:55:51.328429+00:00,11.284,8.421,7.341,9.537,-2.197,49.764,56.162936,10.203869,62.12
2025-10-13T13:55:51.530915+00:00,11.285,8.700,7.480,9.017,-1.732,53.813,56.162950,10.203864,58.98
2025-10-13T13:55:51.733866+00:00,11.287,9.033,7.626,8.314,-1.248,57.872,56.162892,10.203938,58.55
2025-10-13T13:55:51.935750+00:00,11.288,9.404,7.774,7.448,-0.754,61.911,56.162938,10.203893,62.42
2025-10-13T13:55:52.137607+00:00,11.290,9.799,7.924,6.434,-0.252,65.948,56.162949,10.203870,58.85
2025-10-13T13:55:52.341156+00:00,11.291,10.205,8.077,5.282,0.257,70.019,56.162864,10.203938,61.07
2025-10-13T13:55:52.543406+00:00,11.292,10.600,8.228,4.031,0.759,74.063,56.162895,10.203943,59.28
2025-10-13T13:55:52.746848+00:00,11.293,10.974,8.377,2.691,1.257,78.132,56.162938,10.203866,61.54
2025-10-13T13:55:52.950159+00:00,11.294,11.306,8.523,1.298,1.742,82.199,56.162914,10.203897,58.74
2025-10-13T13:55:53.152320+00:00,11.295,11.584,8.662,-0.114,2.206,86.242,56.162891,10.203867,58.35
2025-10-13T13:55:53.355556+00:00,11.296,11.798,8.795,-1.531,2.650,90.307,56.162884,10.203883,62.12
2025-10-13T13:55:53.557312+00:00,11.297,11.937,8.919,-2.906,3.063,94.342,56.162947,10.203881,58.88
2025-10-13T13:55:53.760425+00:00,11.297,11.998,9.034,-4.233,3.448,98.404,56.162883,10.203886,61.20
2025-10-13T13:55:53.912646+00:00,11.298,11.989,9.114,-5.172,3.713,101.448,56.162879,10.203879,61.70
2025-10-13T13:55:54.116613+00:00,11.298,11.906,9.211,-6.337,4.035,105.527,56.162895,10.203854,59.31
2025-10-13T13:55:54.319143+00:00,11.299,11.746,9.294,-7.367,4.313,109.578,56.162914,10.203887,59.81
2025-10-13T13:55:54.521088+00:00,11.299,11.514,9.364,-8.246,4.546,113.617,56.162873,10.203878,59.32
2025-10-13T13:55:54.722853+00:00,11.300,11.222,9.420,-8.960,4.732,117.653,56.162945,10.203922,59.07
2025-10-13T13:55:54.924829+00:00,11.300,10.879,9.461,-9.497,4.871,121.692,56.162852,10.203926,58.21
2025-10-13T13:55:55.128546+00:00,11.300,10.498,9.488,-9.845,4.961,125.766,56.162883,10.203910,62.44
2025-10-13T13:55:55.331389+00:00,11.300,10.097,9.500,-9.994,4.999,129.823,56.162869,10.203855,61.69
2025-10-13T13:55:55.533375+00:00,11.300,9.695,9.496,-9.942,4.985,133.863,56.162858,10.203945,60.89
2025-10-13T13:55:55.735415+00:00,11.300,9.304,9.476,-9.692,4.921,137.904,56.162931,10.203877,58.02
2025-10-13T13:55:55.937399+00:00,11.300,8.942,9.442,-9.249,4.807,141.944,56.162910,10.203894,60.38
2025-10-13T13:55:56.139121+00:00,11.299,8.623,9.393,-8.621,4.644,145.978,56.162853,10.203856,60.60
2025-10-13T13:55:56.343020+00:00,11.299,8.358,9.329,-7.813,4.432,150.056,56.162867,10.203917,61.62
2025-10-13T13:55:56.546160+00:00,11.299,8.162,9.252,-6.849,4.174,154.119,56.162865,10.203877,61.43
2025-10-13T13:55:56.748760+00:00,11.298,8.041,9.162,-5.751,3.874,158.171,56.162927,10.203895,59.24
2025-10-13T13:55:56.950979+00:00,11.298,8.000,9.061,-4.539,3.535,162.215,56.162861,10.203884,60.71
2025-10-13T13:55:57.152752+00:00,11.297,8.041,8.948,-3.239,3.161,166.251,56.162892,10.203887,58.72
2025-10-13T13:55:57.356827+00:00,11.296,8.163,8.825,-1.860,2.750,170.332,56.162870,10.203863,57.88
2025-10-13T13:55:57.559451+00:00,11.295,8.359,8.694,-0.452,2.314,174.384,56.162937,10.203926,59.59
2025-10-13T13:55:57.762127+00:00,11.294,8.623,8.556,0.965,1.853,178.438,56.162926,10.203883,58.70
2025-10-13T13:55:57.964288+00:00,11.293,8.942,8.413,2.359,1.375,182.481,56.162858,10.203868,58.84
2025-10-13T13:55:58.166102+00:00,11.292,9.304,8.265,3.704,0.884,186.518,56.162938,10.203863,57.91
2025-10-13T13:55:58.368456+00:00,11.291,9.695,8.115,4.978,0.383,190.565,56.162894,10.203897,62.26
2025-10-13T13:55:58.570251+00:00,11.290,10.097,7.964,6.150,-0.122,194.601,56.162903,10.203910,60.40
2025-10-13T13:55:58.773101+00:00,11.289,10.498,7.812,7.204,-0.627,198.657,56.162935,10.203876,60.31
2025-10-13T13:55:58.975660+00:00,11.287,10.877,7.662,8.112,-1.125,202.709,56.162926,10.203909,58.50
2025-10-13T13:55:59.177488+00:00,11.286,11.220,7.517,8.854,-1.610,206.745,56.162881,10.203922,62.35
2025-10-13T13:55:59.379484+00:00,11.284,11.513,7.376,9.421,-2.079,210.785,56.162911,10.203915,58.64
2025-10-13T13:55:59.581295+00:00,11.283,11.744,7.242,9.799,-2.527,214.821,56.162947,10.203902,58.06
2025-10-13T13:55:59.784267+00:00,11.281,11.906,7.115,9.983,-2.951,218.881,56.162882,10.203935,61.46
2025-10-13T13:55:59.986964+00:00,11.279,11.989,6.997,9.965,-3.344,222.935,56.162913,10.203869,59.16
2025-10-13T13:56:00.190989+00:00,11.277,11.990,6.888,9.746,-3.705,227.015,56.162855,10.203856,58.99
2025-10-13T13:56:00.394872+00:00,11.275,11.909,6.792,9.328,-4.028,231.093,56.162947,10.203946,61.64
2025-10-13T13:56:00.547053+00:00,11.274,11.797,6.728,8.891,-4.241,234.137,56.162928,10.203859,58.80
2025-10-13T13:56:00.749102+00:00,11.272,11.584,6.654,8.158,-4.487,238.177,56.162902,10.203916,60.75
2025-10-13T13:56:00.951152+00:00,11.270,11.307,6.594,7.261,-4.686,242.219,56.162903,10.203907,60.02
2025-10-13T13:56:01.156679+00:00,11.268,10.970,6.548,6.200,-4.840,246.329,56.162907,10.203872,61.06
2025-10-13T13:56:01.359058+00:00,11.265,10.599,6.517,5.030,-4.942,250.377,56.162894,10.203862,57.53
2025-10-13T13:56:01.561055+00:00,11.263,10.204,6.502,3.762,-4.993,254.416,56.162929,10.203949,60.95
2025-10-13T13:56:01.764546+00:00,11.261,9.798,6.502,2.408,-4.994,258.486,56.162904,10.203869,59.24
2025-10-13T13:56:01.966716+00:00,11.258,9.402,6.517,1.015,-4.943,262.530,56.162860,10.203871,61.05
2025-10-13T13:56:02.168563+00:00,11.256,9.032,6.548,-0.396,-4.841,266.567,56.162901,10.203903,61.82
2025-10-13T13:56:02.371330+00:00,11.253,8.699,6.593,-1.805,-4.690,270.622,56.162900,10.203853,61.25
2025-10-13T13:56:02.573979+00:00,11.250,8.420,6.653,-3.178,-4.490,274.675,56.162915,10.203939,60.06
2025-10-13T13:56:02.777102+00:00,11.248,8.205,6.727,-4.489,-4.244,278.737,56.162873,10.203854,60.48
2025-10-13T13:56:02.980309+00:00,11.245,8.064,6.814,-5.711,-3.954,282.802,56.162869,10.203942,58.17
2025-10-13T13:56:03.182091+00:00,11.242,8.003,6.912,-6.809,-3.626,286.837,56.162948,10.203923,59.86
2025-10-13T13:56:03.384096+00:00,11.239,8.022,7.022,-7.774,-3.261,290.877,56.162877,10.203877,59.76
2025-10-13T13:56:03.586896+00:00,11.236,8.123,7.142,-8.585,-2.860,294.933,56.162925,10.203852,60.57
2025-10-13T13:56:03.789988+00:00,11.233,8.301,7.271,-9.225,-2.430,298.995,56.162854,10.203867,59.53
2025-10-13T13:56:03.992790+00:00,11.230,8.549,7.408,-9.679,-1.975,303.051,56.162942,10.203864,61.79
2025-10-13T13:56:04.194613+00:00,11.227,8.854,7.549,-9.936,-1.502,307.088,56.162884,10.203864,61.58
2025-10-13T13:56:04.398124+00:00,11.224,9.209,7.697,-9.996,-1.010,311.158,56.162850,10.203866,61.47
2025-10-13T13:56:04.599949+00:00,11.221,9.593,7.847,-9.855,-0.511,315.195,56.162889,10.203946,58.13
2025-10-13T13:56:04.805224+00:00,11.218,10.001,8.000,-9.510,0.001,319.300,56.162868,10.203863,58.03
2025-10-13T13:56:05.007172+00:00,11.214,10.402,8.152,-8.979,0.505,323.339,56.162935,10.203909,62.23
2025-10-13T13:56:05.210304+00:00,11.211,10.789,8.302,-8.265,1.007,327.401,56.162883,10.203879,62.11
2025-10-13T13:56:05.412395+00:00,11.208,11.142,8.449,-7.388,1.496,331.443,56.162912,10.203902,61.73
2025-10-13T13:56:05.614193+00:00,11.204,11.448,8.591,-6.366,1.969,335.479,56.162859,10.203938,57.68
2025-10-13T13:56:05.816647+00:00,11.201,11.696,8.727,-5.213,2.423,339.528,56.162924,10.203908,62.48
2025-10-13T13:56:06.019477+00:00,11.197,11.874,8.856,-3.953,2.853,343.585,56.162907,10.203873,58.65
2025-10-13T13:56:06.221586+00:00,11.194,11.976,8.976,-2.618,3.253,347.627,56.162893,10.203856,59.87
2025-10-13T13:56:06.424884+00:00,11.190,11.998,9.086,-1.223,3.622,351.693,56.162855,10.203922,60.38
2025-10-13T13:56:06.626730+00:00,11.186,11.937,9.185,0.187,3.950,355.730,56.162879,10.203922,60.81
2025-10-13T13:56:06.828918+00:00,11.183,11.798,9.272,1.595,4.240,359.774,56.162866,10.203899,61.53
2025-10-13T13:56:06.982470+00:00,11.180,11.643,9.329,2.645,4.430,2.845,56.162949,10.203878,61.04
2025-10-13T13:56:07.185562+00:00,11.176,11.379,9.393,3.985,4.643,6.906,56.162880,10.203925,57.99
2025-10-13T13:56:07.387735+00:00,11.172,11.060,9.442,5.239,4.806,10.950,56.162860,10.203852,61.62
2025-10-13T13:56:07.589616+00:00,11.169,10.699,9.476,6.386,4.921,14.988,56.162907,10.203894,60.54
2025-10-13T13:56:07.791956+00:00,11.165,10.308,9.496,7.409,4.985,19.035,56.162856,10.203921,59.49
2025-10-13T13:56:07.994219+00:00,11.161,9.904,9.500,8.282,4.999,23.080,56.162924,10.203898,57.77
2025-10-13T13:56:08.196704+00:00,11.157,9.505,9.488,8.991,4.961,27.129,56.162940,10.203902,57.56
2025-10-13T13:56:08.399518+00:00,11.153,9.125,9.462,9.520,4.872,31.186,56.162853,10.203899,61.63
2025-10-13T13:56:08.601474+00:00,11.149,8.782,9.420,9.856,4.734,35.225,56.162903,10.203944,57.68
2025-10-13T13:56:08.806149+00:00,11.145,8.485,9.364,9.996,4.545,39.318,56.162922,10.203922,59.54
2025-10-13T13:56:09.007937+00:00,11.141,8.254,9.294,9.934,4.312,43.354,56.162875,10.203888,59.53
2025-10-13T13:56:09.209715+00:00,11.137,8.094,9.211,9.674,4.035,47.390,56.162914,10.203944,58.38
2025-10-13T13:56:09.413713+00:00,11.133,8.011,9.114,9.215,3.714,51.469,56.162903,10.203938,59.01
2025-10-13T13:56:09.616651+00:00,11.129,8.010,9.007,8.573,3.355,55.528,56.162896,10.203919,58.99
2025-10-13T13:56:09.820655+00:00,11.125,8.091,8.888,7.753,2.961,59.609,56.162944,10.203948,58.29
2025-10-13T13:56:10.022496+00:00,11.121,8.250,8.762,6.786,2.540,63.645,56.162916,10.203851,59.92
2025-10-13T13:56:10.226515+00:00,11.117,8.482,8.626,5.671,2.088,67.726,56.162920,10.203927,62.31
2025-10-13T13:56:10.428607+00:00,11.113,8.775,8.486,4.454,1.619,71.768,56.162930,10.203852,60.25
2025-10-13T13:56:10.631253+00:00,11.109,9.118,8.340,3.143,1.132,75.820,56.162856,10.203861,58.20
2025-10-13T13:56:10.834229+00:00,11.105,9.498,8.190,1.767,0.633,79.880,56.162921,10.203904,57.52
2025-10-13T13:56:11.036117+00:00,11.101,9.896,8.039,0.363,0.130,83.918,56.162864,10.203902,59.06
2025-10-13T13:56:11.238007+00:00,11.097,10.299,7.888,-1.048,-0.375,87.956,56.162948,10.203947,60.07
2025-10-13T13:56:11.441041+00:00,11.093,10.692,7.737,-2.446,-0.878,92.016,56.162906,10.203859,60.04
2025-10-13T13:56:11.642804+00:00,11.089,11.054,7.589,-3.787,-1.369,96.052,56.162863,10.203935,57.91
2025-10-13T13:56:11.847013+00:00,11.085,11.376,7.444,-5.067,-1.852,100.136,56.162931,10.203871,62.37
2025-10-13T13:56:12.049119+00:00,11.081,11.640,7.307,-6.232,-2.311,104.178,56.162878,10.203928,61.18
2025-10-13T13:56:12.251206+00:00,11.077,11.836,7.176,-7.272,-2.747,108.219,56.162868,10.203865,59.79
2025-10-13T13:56:12.453400+00:00,11.073,11.958,7.054,-8.168,-3.154,112.264,56.162889,10.203913,58.85
2025-10-13T13:56:12.655219+00:00,11.069,12.000,6.941,-8.899,-3.529,116.300,56.162889,10.203942,59.16
2025-10-13T13:56:12.857466+00:00,11.065,11.961,6.839,-9.453,-3.869,120.345,56.162902,10.203898,58.05
2025-10-13T13:56:13.060096+00:00,11.061,11.841,6.749,-9.819,-4.169,124.397,56.162851,10.203864,62.29
2025-10-13T13:56:13.214462+00:00,11.058,11.699,6.689,-9.966,-4.370,127.484,56.162880,10.203854,62.01
2025-10-13T13:56:13.417304+00:00,11.054,11.452,6.622,-9.982,-4.593,131.541,56.162871,10.203942,59.06
2025-10-13T13:56:13.619292+00:00,11.050,11.146,6.569,-9.798,-4.769,135.581,56.162869,10.203913,57.51
2025-10-13T13:56:13.821709+00:00,11.046,10.793,6.531,-9.418,-4.896,139.630,56.162863,10.203949,61.23
2025-10-13T13:56:14.023802+00:00,11.042,10.409,6.508,-8.850,-4.974,143.672,56.162916,10.203937,58.49
2025-10-13T13:56:14.228707+00:00,11.038,10.002,6.500,-8.094,-5.000,147.769,56.162932,10.203870,60.91
2025-10-13T13:56:14.432112+00:00,11.034,9.598,6.508,-7.179,-4.974,151.838,56.162879,10.203860,62.48
2025-10-13T13:56:14.634023+00:00,11.031,9.213,6.531,-6.126,-4.898,155.876,56.162861,10.203870,61.94
2025-10-13T13:56:14.837107+00:00,11.027,8.858,6.569,-4.945,-4.771,159.938,56.162866,10.203854,61.84
2025-10-13T13:56:15.038956+00:00,11.023,8.552,6.621,-3.671,-4.596,163.975,56.162862,10.203860,60.33
2025-10-13T13:56:15.243077+00:00,11.019,8.303,6.689,-2.309,-4.372,168.057,56.162939,10.203887,60.81
2025-10-13T13:56:15.446743+00:00,11.016,8.124,6.769,-0.904,-4.102,172.130,56.162857,10.203853,58.72
2025-10-13T13:56:15.649800+00:00,11.012,8.023,6.863,0.516,-3.791,176.191,56.162857,10.203914,61.73
2025-10-13T13:56:15.852333+00:00,11.008,8.003,6.967,1.922,-3.443,180.242,56.162915,10.203892,60.51
2025-10-13T13:56:16.054278+00:00,11.005,8.064,7.082,3.286,-3.059,184.281,56.162945,10.203928,59.55
2025-10-13T13:56:16.256566+00:00,11.001,8.205,7.207,4.586,-2.645,188.327,56.162853,10.203896,60.35
2025-10-13T13:56:16.458942+00:00,10.998,8.418,7.339,5.795,-2.202,192.374,56.162940,10.203858,58.35
2025-10-13T13:56:16.662646+00:00,10.994,8.699,7.480,6.894,-1.735,196.448,56.162901,10.203855,59.54
2025-10-13T13:56:16.866394+00:00,10.991,9.033,7.625,7.854,-1.249,200.523,56.162936,10.203854,59.80
2025-10-13T13:56:17.068296+00:00,10.987,9.403,7.774,8.647,-0.754,204.561,56.162874,10.203946,59.39
2025-10-13T13:56:17.270104+00:00,10.984,9.798,7.924,9.268,-0.253,208.598,56.162914,10.203857,62.09
2025-10-13T13:56:17.472225+00:00,10.981,10.202,8.076,9.705,0.252,212.640,56.162886,10.203882,58.53
2025-10-13T13:56:17.674011+00:00,10.978,10.596,8.226,9.948,0.754,216.676,56.162877,10.203909,61.70
2025-10-13T13:56:17.878330+00:00,10.974,10.971,8.376,9.992,1.254,220.762,56.162889,10.203883,60.09
2025-10-13T13:56:18.080921+00:00,10.971,11.303,8.521,9.834,1.737,224.814,56.162896,10.203912,58.61
2025-10-13T13:56:18.283097+00:00,10.968,11.581,8.660,9.479,2.202,228.857,56.162931,10.203896,62.42
2025-10-13T13:56:18.485837+00:00,10.965,11.796,8.793,8.933,2.645,232.912,56.162892,10.203946,60.52
2025-10-13T13:56:18.687716+00:00,10.962,11.936,8.918,8.211,3.059,236.950,56.162898,10.203859,59.66
2025-10-13T13:56:18.890079+00:00,10.959,11.997,9.033,7.323,3.443,240.997,56.162913,10.203856,58.29
2025-10-13T13:56:19.092885+00:00,10.956,11.977,9.138,6.286,3.792,245.053,56.162898,10.203921,61.26
2025-10-13T13:56:19.295732+00:00,10.954,11.876,9.231,5.122,4.102,249.110,56.162889,10.203852,58.05
2025-10-13T13:56:19.448467+00:00,10.952,11.749,9.293,4.177,4.309,252.165,56.162920,10.203905,60.62
2025-10-13T13:56:19.651165+00:00,10.949,11.518,9.363,2.850,4.543,256.219,56.162856,10.203935,57.79
2025-10-13T13:56:19.854091+00:00,10.946,11.224,9.419,1.464,4.731,260.277,56.162893,10.203891,61.40
2025-10-13T13:56:20.055992+00:00,10.944,10.882,9.461,0.056,4.870,264.315,56.162934,10.203928,59.90
2025-10-13T13:56:20.259383+00:00,10.941,10.501,9.488,-1.363,4.960,268.383,56.162907,10.203861,59.65
2025-10-13T13:56:20.462188+00:00,10.939,10.101,9.500,-2.751,4.998,272.439,56.162916,10.203912,58.43
2025-10-13T13:56:20.664038+00:00,10.936,9.699,9.496,-4.078,4.986,276.476,56.162865,10.203852,59.13
2025-10-13T13:56:20.866516+00:00,10.934,9.307,9.477,-5.327,4.922,280.526,56.162875,10.203948,59.72
2025-10-13T13:56:21.068404+00:00,10.932,8.945,9.442,-6.466,4.808,284.564,56.162928,10.203871,57.72
2025-10-13T13:56:21.270579+00:00,10.930,8.625,9.394,-7.477,4.645,288.607,56.162915,10.203949,60.56
2025-10-13T13:56:21.472588+00:00,10.928,8.362,9.331,-8.338,4.435,292.647,56.162950,10.203852,58.23
2025-10-13T13:56:21.676347+00:00,10.926,8.164,9.253,-9.038,4.177,296.722,56.162936,10.203895,58.74
2025-10-13T13:56:21.879579+00:00,10.924,8.041,9.163,-9.554,3.877,300.787,56.162885,10.203913,62.45
2025-10-13T13:56:22.082149+00:00,10.922,8.000,9.061,-9.875,3.538,304.839,56.162873,10.203902,57.69
2025-10-13T13:56:22.285232+00:00,10.920,8.041,8.949,-9.999,3.162,308.900,56.162859,10.203900,57.65
2025-10-13T13:56:22.487279+00:00,10.918,8.161,8.826,-9.921,2.755,312.941,56.162938,10.203873,57.56
2025-10-13T13:56:22.690624+00:00,10.917,8.357,8.695,-9.643,2.317,317.008,56.162925,10.203900,60.95
2025-10-13T13:56:22.894347+00:00,10.915,8.622,8.556,-9.169,1.855,321.082,56.162945,10.203939,59.11
2025-10-13T13:56:23.096429+00:00,10.914,8.941,8.413,-8.515,1.377,325.124,56.162879,10.203898,58.06
2025-10-13T13:56:23.299363+00:00,10.912,9.305,8.265,-7.687,0.883,329.183,56.162906,10.203874,59.08
2025-10-13T13:56:23.501276+00:00,10.911,9.695,8.115,-6.709,0.382,333.221,56.162852,10.203916,59.53
2025-10-13T13:56:23.703792+00:00,10.909,10.099,7.963,-5.595,-0.123,337.271,56.162882,10.203929,60.51
2025-10-13T13:56:23.907780+00:00,10.908,10.501,7.810,-4.358,-0.632,341.351,56.162870,10.203868,59.73
2025-10-13T13:56:24.109664+00:00,10.907,10.879,7.661,-3.047,-1.128,345.389,56.162882,10.203879,58.50
2025-10-13T13:56:24.312366+00:00,10.906,11.223,7.515,-1.669,-1.615,349.443,56.162863,10.203859,60.75
2025-10-13T13:56:24.514542+00:00,10.905,11.516,7.375,-0.262,-2.085,353.486,56.162858,10.203891,61.19
2025-10-13T13:56:24.716551+00:00,10.904,11.747,7.240,1.149,-2.532,357.526,56.162946,10.203907,57.62
2025-10-13T13:56:24.921294+00:00,10.904,11.908,7.112,2.556,-2.960,1.621,56.162898,10.203942,61.79
2025-10-13T13:56:25.124021+00:00,10.903,11.990,6.994,3.898,-3.352,5.676,56.162939,10.203885,58.26
2025-10-13T13:56:25.327214+00:00,10.902,11.990,6.887,5.164,-3.711,9.740,56.162870,10.203926,58.79
2025-10-13T13:56:25.529071+00:00,10.902,11.908,6.791,6.319,-4.030,13.777,56.162942,10.203891,58.57
2025-10-13T13:56:25.731490+00:00,10.901,11.749,6.707,7.350,-4.308,17.825,56.162889,10.203922,58.58
2025-10-13T13:56:25.883115+00:00,10.901,11.582,6.654,8.027,-4.488,20.858,56.162889,10.203922,58.58
2025-10-13T13:56:26.085459+00:00,10.901,11.304,6.594,8.788,-4.688,24.904,56.162943,10.203883,61.93
2025-10-13T13:56:26.288774+00:00,10.900,10.971,6.548,9.376,-4.840,28.971,56.162920,10.203890,57.81
2025-10-13T13:56:26.490917+00:00,10.900,10.601,6.517,9.773,-4.942,33.014,56.162890,10.203899,58.65
2025-10-13T13:56:26.692672+00:00,10.900,10.206,6.502,9.974,-4.993,37.049,56.162856,10.203924,58.85
2025-10-13T13:56:26.895175+00:00,10.900,9.802,6.502,9.976,-4.994,41.099,56.162935,10.203896,59.74
2025-10-13T13:56:27.097049+00:00,10.900,9.407,6.517,9.779,-4.943,45.136,56.162891,10.203859,57.79
2025-10-13T13:56:27.300598+00:00,10.900,9.033,6.547,9.383,-4.842,49.207,56.162895,10.203899,61.29
2025-10-13T13:56:27.503614+00:00,10.901,8.700,6.593,8.798,-4.690,53.267,56.162896,10.203895,59.61
2025-10-13T13:56:27.705601+00:00,10.901,8.421,6.652,8.040,-4.492,57.308,56.162862,10.203931,62.35
2025-10-13T13:56:27.908990+00:00,10.901,8.206,6.726,7.115,-4.246,61.375,56.162927,10.203916,62.26
2025-10-13T13:56:28.111131+00:00,10.902,8.065,6.813,6.053,-3.957,65.418,56.162912,10.203942,59.86
2025-10-13T13:56:28.313168+00:00,10.902,8.003,6.911,4.871,-3.629,69.459,56.162878,10.203885,59.78
2025-10-13T13:56:28.516460+00:00,10.903,8.022,7.022,3.583,-3.261,73.525,56.162855,10.203861,60.87
2025-10-13T13:56:28.721157+00:00,10.904,8.124,7.143,2.213,-2.857,77.619,56.162906,10.203907,62.44
2025-10-13T13:56:28.924470+00:00,10.905,8.303,7.272,0.808,-2.426,81.685,56.162950,10.203936,61.95
2025-10-13T13:56:29.126458+00:00,10.905,8.550,7.408,-0.605,-1.973,85.725,56.162856,10.203875,59.83
2025-10-13T13:56:29.328351+00:00,10.906,8.856,7.550,-2.005,-1.500,89.763,56.162899,10.203919,59.49
2025-10-13T13:56:29.531466+00:00,10.907,9.210,7.698,-3.373,-1.008,93.825,56.162933,10.203926,61.47
2025-10-13T13:56:29.735077+00:00,10.909,9.598,7.848,-4.676,-0.505,97.897,56.162940,10.203948,59.05
2025-10-13T13:56:29.938746+00:00,10.910,10.002,8.001,-5.885,0.003,101.970,56.162943,10.203909,62.47
2025-10-13T13:56:30.140682+00:00,10.911,10.403,8.152,-6.965,0.507,106.009,56.162868,10.203932,61.25
2025-10-13T13:56:30.344374+00:00,10.912,10.791,8.303,-7.914,1.010,110.083,56.162876,10.203886,60.56
2025-10-13T13:56:30.546388+00:00,10.914,11.144,8.450,-8.696,1.499,114.123,56.162855,10.203920,60.48
2025-10-13T13:56:30.748380+00:00,10.915,11.450,8.592,-9.305,1.972,118.163,56.162867,10.203870,60.23
2025-10-13T13:56:30.950934+00:00,10.917,11.697,8.728,-9.730,2.426,122.214,56.162932,10.203865,60.23
2025-10-13T13:56:31.153266+00:00,10.919,11.875,8.857,-9.958,2.856,126.261,56.162894,10.203864,58.41
2025-10-13T13:56:31.356469+00:00,10.920,11.977,8.977,-9.987,3.257,130.325,56.162889,10.203915,57.96
2025-10-13T13:56:31.558250+00:00,10.922,11.998,9.087,-9.816,3.623,134.361,56.162928,10.203945,60.55
2025-10-13T13:56:31.760606+00:00,10.924,11.937,9.186,-9.449,3.952,138.408,56.162898,10.203862,60.48
2025-10-13T13:56:31.962685+00:00,10.926,11.797,9.272,-8.892,4.241,142.449,56.162897,10.203941,59.15
2025-10-13T13:56:32.166055+00:00,10.928,11.583,9.346,-8.153,4.488,146.517,56.162879,10.203928,60.04
2025-10-13T13:56:32.319708+00:00,10.930,11.377,9.393,-7.485,4.644,149.590,56.162865,10.203880,62.27
2025-10-13T13:56:32.521760+00:00,10.932,11.058,9.442,-6.475,4.807,153.631,56.162861,10.203908,61.44
2025-10-13T13:56:32.723640+00:00,10.934,10.696,9.476,-5.337,4.921,157.668,56.162876,10.203935,58.41
2025-10-13T13:56:32.926108+00:00,10.936,10.305,9.496,-4.089,4.985,161.718,56.162880,10.203950,60.47
2025-10-13T13:56:33.127897+00:00,10.939,9.903,9.500,-2.764,4.999,165.753,56.162942,10.203891,61.77
2025-10-13T13:56:33.330575+00:00,10.941,9.502,9.488,-1.377,4.961,169.807,56.162922,10.203908,57.72
2025-10-13T13:56:33.532700+00:00,10.944,9.124,9.462,0.033,4.872,173.850,56.162947,10.203926,58.92
2025-10-13T13:56:33.735180+00:00,10.946,8.780,9.420,1.446,4.733,177.899,56.162898,10.203899,60.50
2025-10-13T13:56:33.937630+00:00,10.949,8.486,9.364,2.829,4.546,181.948,56.162925,10.203919,61.62
2025-10-13T13:56:34.140646+00:00,10.952,8.254,9.294,4.159,4.312,186.008,56.162864,10.203902,57.89
2025-10-13T13:56:34.342811+00:00,10.954,8.094,9.210,5.400,4.035,190.052,56.162871,10.203869,62.07
2025-10-13T13:56:34.544596+00:00,10.957,8.011,9.115,6.531,3.717,194.087,56.162878,10.203871,59.02
2025-10-13T13:56:34.747633+00:00,10.960,8.010,9.008,7.538,3.359,198.148,56.162911,10.203861,60.46
2025-10-13T13:56:34.951447+00:00,10.963,8.090,8.889,8.395,2.964,202.224,56.162919,10.203929,59.67
2025-10-13T13:56:35.155374+00:00,10.966,8.250,8.762,9.083,2.539,206.303,56.162949,10.203933,61.21
2025-10-13T13:56:35.357663+00:00,10.969,8.480,8.627,9.582,2.091,210.349,56.162892,10.203908,61.41
2025-10-13T13:56:35.559537+00:00,10.972,8.772,8.487,9.890,1.623,214.386,56.162943,10.203939,57.74
2025-10-13T13:56:35.761386+00:00,10.975,9.113,8.342,10.000,1.138,218.423,56.162929,10.203860,59.85
2025-10-13T13:56:35.966535+00:00,10.978,9.497,8.190,9.907,0.634,222.526,56.162925,10.203918,57.53
2025-10-13T13:56:36.168556+00:00,10.982,9.896,8.039,9.617,0.130,226.567,56.162903,10.203861,60.95
2025-10-13T13:56:36.371122+00:00,10.985,10.300,7.887,9.133,-0.376,230.618,56.162940,10.203851,58.42
2025-10-13T13:56:36.572909+00:00,10.988,10.690,7.737,8.469,-0.876,234.654,56.162941,10.203864,59.47
2025-10-13T13:56:36.775675+00:00,10.992,11.054,7.589,7.632,-1.370,238.709,56.162933,10.203871,61.82
2025-10-13T13:56:36.981229+00:00,10.995,11.379,7.443,6.626,-1.856,242.820,56.162912,10.203949,59.99
2025-10-13T13:56:37.186538+00:00,10.999,11.645,7.303,5.485,-2.322,246.926,56.162902,10.203894,61.37
2025-10-13T13:56:37.389019+00:00,11.002,11.840,7.173,4.249,-2.757,250.976,56.162858,10.203883,58.79
2025-10-13T13:56:37.591004+00:00,11.006,11.960,7.051,2.931,-3.164,255.016,56.162885,10.203863,62.16
2025-10-13T13:56:37.793438+00:00,11.009,12.000,6.938,1.551,-3.539,259.064,56.162865,10.203936,57.78
2025-10-13T13:56:37.995736+00:00,11.013,11.958,6.837,0.141,-3.877,263.110,56.162851,10.203859,57.96
2025-10-13T13:56:38.198847+00:00,11.017,11.836,6.747,-1.277,-4.178,267.172,56.162860,10.203935,60.25
2025-10-13T13:56:38.351458+00:00,11.019,11.695,6.688,-2.327,-4.375,270.224,56.162860,10.203935,60.25
2025-10-13T13:56:38.553361+00:00,11.023,11.447,6.621,-3.674,-4.597,274.263,56.162897,10.203906,59.51
2025-10-13T13:56:38.755129+00:00,11.027,11.141,6.569,-4.946,-4.771,278.298,56.162875,10.203868,57.67
2025-10-13T13:56:38.958735+00:00,11.031,10.785,6.530,-6.131,-4.899,282.370,56.162879,10.203901,57.84
2025-10-13T13:56:39.160936+00:00,11.034,10.400,6.508,-7.184,-4.975,286.414,56.162916,10.203893,60.44
2025-10-13T13:56:39.364443+00:00,11.038,9.996,6.500,-8.099,-5.000,290.484,56.162915,10.203866,58.92
2025-10-13T13:56:39.568064+00:00,11.042,9.591,6.508,-8.850,-4.974,294.556,56.162856,10.203856,58.88
2025-10-13T13:56:39.770902+00:00,11.046,9.205,6.531,-9.420,-4.896,298.613,56.162863,10.203942,57.59
2025-10-13T13:56:39.973168+00:00,11.050,8.853,6.569,-9.799,-4.769,302.659,56.162883,10.203876,61.75
2025-10-13T13:56:40.176109+00:00,11.054,8.546,6.622,-9.983,-4.592,306.718,56.162877,10.203873,58.89
2025-10-13T13:56:40.378265+00:00,11.058,8.300,6.689,-9.966,-4.369,310.761,56.162932,10.203911,60.01
2025-10-13T13:56:40.582151+00:00,11.062,8.122,6.770,-9.747,-4.099,314.838,56.162871,10.203929,60.16
2025-10-13T13:56:40.785136+00:00,11.066,8.022,6.864,-9.332,-3.787,318.898,56.162851,10.203902,58.14
2025-10-13T13:56:40.987270+00:00,11.070,8.003,6.968,-8.732,-3.439,322.941,56.162924,10.203930,60.08
2025-10-13T13:56:41.189152+00:00,11.074,8.065,7.083,-7.958,-3.055,326.979,56.162864,10.203919,62.13
2025-10-13T13:56:41.392110+00:00,11.078,8.207,7.208,-7.021,-2.639,331.038,56.162942,10.203884,60.40
2025-10-13T13:56:41.593871+00:00,11.082,8.421,7.341,-5.948,-2.197,335.073,56.162868,10.203893,58.01
2025-10-13T13:56:41.797040+00:00,11.086,8.701,7.481,-4.749,-1.731,339.136,56.162888,10.203912,61.26
2025-10-13T13:56:41.999837+00:00,11.090,9.034,7.626,-3.456,-1.247,343.192,56.162931,10.203888,59.46
2025-10-13T13:56:42.201773+00:00,11.094,9.405,7.774,-2.099,-0.753,347.231,56.162915,10.203916,62.20
2025-10-13T13:56:42.405591+00:00,11.098,9.804,7.926,-0.688,-0.246,351.307,56.162859,10.203906,61.91
2025-10-13T13:56:42.607520+00:00,11.102,10.207,8.078,0.724,0.259,355.346,56.162935,10.203905,57.58
2025-10-13T13:56:42.809545+00:00,11.106,10.602,8.228,2.123,0.761,359.386,56.162934,10.203912,61.63
2025-10-13T13:56:43.012363+00:00,11.110,10.974,8.377,3.484,1.257,3.443,56.162938,10.203852,61.60
2025-10-13T13:56:43.216533+00:00,11.114,11.308,8.523,4.784,1.744,7.526,56.162943,10.203882,58.47
2025-10-13T13:56:43.419625+00:00,11.118,11.586,8.663,5.980,2.210,11.588,56.162930,10.203906,60.24
2025-10-13T13:56:43.621457+00:00,11.122,11.798,8.795,7.049,2.651,15.625,56.162917,10.203916,58.84
2025-10-13T13:56:43.824371+00:00,11.126,11.938,8.920,7.982,3.066,19.683,56.162865,10.203871,60.88
2025-10-13T13:56:44.026463+00:00,11.130,11.998,9.035,8.752,3.449,23.725,56.162924,10.203906,61.58
2025-10-13T13:56:44.229182+00:00,11.134,11.976,9.139,9.348,3.798,27.779,56.162852,10.203896,59.99
2025-10-13T13:56:44.432148+00:00,11.138,11.874,9.232,9.757,4.108,31.838,56.162885,10.203852,62.43
2025-10-13T13:56:44.584679+00:00,11.141,11.746,9.294,9.935,4.313,34.889,56.162939,10.203898,59.85
2025-10-13T13:56:44.788413+00:00,11.145,11.512,9.364,9.996,4.548,38.963,56.162891,10.203854,58.02
2025-10-13T13:56:44.990889+00:00,11.149,11.218,9.420,9.856,4.735,43.013,56.162880,10.203948,61.76
2025-10-13T13:56:45.193034+00:00,11.153,10.874,9.462,9.519,4.873,47.056,56.162899,10.203854,57.76
2025-10-13T13:56:45.395935+00:00,11.157,10.494,9.488,8.989,4.961,51.114,56.162851,10.203914,59.89
2025-10-13T13:56:45.598896+00:00,11.161,10.093,9.500,8.278,4.999,55.173,56.162871,10.203942,58.13
2025-10-13T13:56:45.800891+00:00,11.165,9.691,9.495,7.404,4.985,59.213,56.162938,10.203864,58.08
2025-10-13T13:56:46.003224+00:00,11.169,9.300,9.476,6.382,4.920,63.260,56.162860,10.203904,60.31
2025-10-13T13:56:46.205390+00:00,11.172,8.938,9.442,5.232,4.805,67.303,56.162872,10.203949,62.19
2025-10-13T13:56:46.408352+00:00,11.176,8.618,9.392,3.972,4.641,71.363,56.162936,10.203887,60.25
2025-10-13T13:56:46.611171+00:00,11.180,8.355,9.329,2.634,4.428,75.419,56.162869,10.203908,58.56
2025-10-13T13:56:46.815611+00:00,11.184,8.158,9.251,1.231,4.168,79.508,56.162919,10.203850,58.92
2025-10-13T13:56:47.017851+00:00,11.187,8.039,9.161,-0.182,3.868,83.553,56.162905,10.203911,58.65
2025-10-13T13:56:47.219709+00:00,11.191,8.000,9.059,-1.588,3.530,87.590,56.162920,10.203940,60.18
2025-10-13T13:56:47.421743+00:00,11.194,8.042,8.946,-2.964,3.154,91.630,56.162892,10.203942,59.59
2025-10-13T13:56:47.623811+00:00,11.198,8.164,8.824,-4.280,2.747,95.672,56.162859,10.203913,61.58
2025-10-13T13:56:47.826012+00:00,11.201,8.360,8.693,-5.512,2.311,99.716,56.162886,10.203892,60.85
2025-10-13T13:56:48.028163+00:00,11.205,8.624,8.556,-6.634,1.852,103.759,56.162900,10.203864,60.86
2025-10-13T13:56:48.230542+00:00,11.208,8.943,8.412,-7.624,1.374,107.806,56.162942,10.203871,61.58
2025-10-13T13:56:48.432765+00:00,11.212,9.306,8.264,-8.461,0.881,111.851,56.162942,10.203943,60.36
2025-10-13T13:56:48.634615+00:00,11.215,9.696,8.114,-9.127,0.381,115.888,56.162853,10.203894,61.90
2025-10-13T13:56:48.838770+00:00,11.218,10.103,7.961,-9.616,-0.129,119.971,56.162943,10.203864,57.53
2025-10-13T13:56:49.040715+00:00,11.222,10.502,7.810,-9.907,-0.632,124.010,56.162863,10.203855,58.02
2025-10-13T13:56:49.243000+00:00,11.225,10.881,7.661,-10.000,-1.130,128.056,56.162930,10.203885,58.87
2025-10-13T13:56:49.445086+00:00,11.228,11.223,7.515,-9.893,-1.615,132.097,56.162887,10.203921,58.57
2025-10-13T13:56:49.647247+00:00,11.231,11.516,7.375,-9.588,-2.085,136.140,56.162920,10.203921,61.62
2025-10-13T13:56:49.850153+00:00,11.234,11.748,7.240,-9.090,-2.534,140.199,56.162855,10.203930,59.53
2025-10-13T13:56:50.052445+00:00,11.237,11.907,7.113,-8.411,-2.956,144.244,56.162942,10.203865,58.90
2025-10-13T13:56:50.257120+00:00,11.240,11.990,6.994,-7.552,-3.353,148.337,56.162920,10.203918,60.34
2025-10-13T13:56:50.459367+00:00,11.243,11.990,6.887,-6.551,-3.710,152.383,56.162880,10.203878,61.35
2025-10-13T13:56:50.661278+00:00,11.246,11.909,6.791,-5.422,-4.029,156.421,56.162931,10.203882,58.83
2025-10-13T13:56:50.864403+00:00,11.248,11.749,6.707,-4.176,-4.309,160.484,56.162872,10.203891,59.17
2025-10-13T13:56:51.066530+00:00,11.251,11.519,6.637,-2.853,-4.543,164.526,56.162938,10.203936,59.40
2025-10-13T13:56:51.270288+00:00,11.254,11.224,6.581,-1.462,-4.731,168.601,56.162858,10.203944,59.84
2025-10-13T13:56:51.472959+00:00,11.256,10.880,6.539,-0.049,-4.871,172.654,56.162933,10.203933,60.39
2025-10-13T13:56:51.674953+00:00,11.259,10.502,6.512,1.361,-4.960,176.695,56.162942,10.203933,60.06
2025-10-13T13:56:51.828988+00:00,11.261,10.199,6.502,2.419,-4.994,179.775,56.162892,10.203937,60.72
2025-10-13T13:56:52.030832+00:00,11.263,9.796,6.502,3.762,-4.993,183.812,56.162903,10.203863,60.09
2025-10-13T13:56:52.232869+00:00,11.265,9.401,6.517,5.030,-4.942,187.853,56.162873,10.203869,61.64
2025-10-13T13:56:52.435020+00:00,11.268,9.030,6.548,6.199,-4.841,191.896,56.162939,10.203879,61.96
2025-10-13T13:56:52.637959+00:00,11.270,8.698,6.593,7.247,-4.689,195.953,56.162851,10.203888,62.46
2025-10-13T13:56:52.840494+00:00,11.272,8.419,6.653,8.148,-4.489,200.005,56.162858,10.203894,60.19
2025-10-13T13:56:53.043812+00:00,11.274,8.204,6.727,8.888,-4.243,204.072,56.162910,10.203928,60.49
2025-10-13T13:56:53.245759+00:00,11.276,8.064,6.814,9.445,-3.954,208.111,56.162941,10.203912,61.19
2025-10-13T13:56:53.448614+00:00,11.278,8.003,6.913,9.815,-3.624,212.168,56.162911,10.203925,57.87
2025-10-13T13:56:53.651067+00:00,11.280,8.023,7.023,9.987,-3.258,216.216,56.162905,10.203861,62.23
2025-10-13T13:56:53.853753+00:00,11.281,8.124,7.143,9.959,-2.857,220.270,56.162890,10.203879,58.63
2025-10-13T13:56:54.057136+00:00,11.283,8.303,7.272,9.729,-2.426,224.338,56.162922,10.203945,60.70
2025-10-13T13:56:54.259190+00:00,11.285,8.550,7.408,9.306,-1.973,228.379,56.162918,10.203859,61.22
2025-10-13T13:56:54.461239+00:00,11.286,8.856,7.550,8.697,-1.499,232.420,56.162851,10.203946,60.70
2025-10-13T13:56:54.662981+00:00,11.288,9.208,7.697,7.916,-1.011,236.455,56.162936,10.203854,60.21
2025-10-13T13:56:54.866495+00:00,11.289,9.595,7.847,6.968,-0.509,240.525,56.162857,10.203932,58.98
2025-10-13T13:56:55.068908+00:00,11.290,9.997,7.999,5.886,-0.004,244.573,56.162926,10.203941,57.73
2025-10-13T13:56:55.271090+00:00,11.291,10.399,8.150,4.687,0.501,248.617,56.162914,10.203905,58.05
2025-10-13T13:56:55.473202+00:00,11.293,10.784,8.300,3.394,1.000,252.660,56.162923,10.203859,59.38
