ts_iso,batt_v,airspeed_ms,groundspeed_ms,roll_deg,pitch_deg,yaw_deg,lat,lon,alt_m
2025-10-17T17:45:27.236231+00:00,,,,,,,,,
2025-10-17T17:45:27.845530+00:00,,,,,,,,,
2025-10-17T17:45:28.446965+00:00,,,,,,,,,
2025-10-17T17:45:29.051339+00:00,,,,,,,,,
2025-10-17T17:45:30.030439+00:00,,,,,,,,,
2025-10-17T17:45:30.635567+00:00,,,,,,,,,
2025-10-17T17:45:31.239147+00:00,,,,,,,,,
2025-10-17T17:45:31.857048+00:00,11.112,11.159,,4.192,1.520,,,,
2025-10-17T17:45:32.477149+00:00,11.125,11.890,,7.622,2.901,,,,
2025-10-17T17:45:33.080619+00:00,11.137,11.927,,9.606,3.980,,,,
2025-10-17T17:45:33.701058+00:00,11.149,11.257,,9.884,4.714,,,,
2025-10-17T17:45:34.323557+00:00,11.161,10.114,,8.318,4.998,,,,
2025-10-17T17:45:34.928544+00:00,11.172,8.958,,5.303,4.814,,,,
2025-10-17T17:45:35.534190+00:00,11.183,8.172,,1.346,4.191,,,,
2025-10-17T17:45:36.136330+00:00,11.194,8.034,,-2.826,3.194,,,,
2025-10-17T17:45:36.741313+00:00,11.205,8.592,,-6.518,1.903,,,,
2025-10-17T17:45:37.352035+00:00,11.215,9.661,,-9.076,0.425,,,,
2025-10-17T17:45:37.960338+00:00,11.225,10.849,,-10.000,-1.087,,,,
2025-10-17T17:45:38.563149+00:00,11.234,11.726,,-9.153,-2.486,,,,
2025-10-17T17:45:39.167385+00:00,11.242,11.994,,-6.693,-3.665,,,,
2025-10-17T17:45:39.772761+00:00,11.251,11.555,,-3.046,-4.512,,,,
2025-10-17T17:45:40.379948+00:00,11.258,10.560,,1.152,-4.950,,,,
2025-10-17T17:45:40.985778+00:00,11.266,9.367,,5.138,-4.935,,,,
2025-10-17T17:45:41.588407+00:00,11.272,8.403,,8.200,-4.475,,,,
2025-10-17T17:45:42.201257+00:00,11.278,8.001,,9.838,-3.594,,,,
2025-10-17T17:45:42.808617+00:00,11.283,8.321,,9.702,-2.390,,,,
2025-10-17T17:45:43.411561+00:00,11.288,9.233,,7.858,-0.978,,,,
2025-10-17T17:45:44.014499+00:00,11.291,10.415,,4.635,0.522,,,,
2025-10-17T17:45:44.624863+00:00,11.295,11.462,,0.547,1.992,,,,
2025-10-17T17:45:45.228055+00:00,11.297,11.978,,-3.593,3.264,,,,
2025-10-17T17:45:45.838885+00:00,11.299,11.790,,-7.139,4.252,,,,
2025-10-17T17:45:46.447010+00:00,11.300,10.959,,-9.394,4.845,,,,
2025-10-17T17:45:47.050617+00:00,11.300,9.793,,-9.974,4.993,,,,
2025-10-17T17:45:47.659889+00:00,11.299,8.692,,-8.780,4.686,,,,
2025-10-17T17:45:48.265820+00:00,11.298,8.063,,-6.033,3.952,,,,
2025-10-17T17:45:48.872358+00:00,11.296,8.124,,-2.212,2.857,,,,
2025-10-17T17:45:49.480421+00:00,11.294,8.857,,2.012,1.497,,,,
2025-10-17T17:45:50.087961+00:00,11.290,9.999,,5.874,0.002,,,,
2025-10-17T17:45:50.698636+00:00,11.286,11.146,,8.701,-1.502,,,,
2025-10-17T17:45:51.304357+00:00,11.281,11.875,,9.958,-2.856,,,,
2025-10-17T17:45:51.907359+00:00,11.276,11.939,,9.458,-3.946,,,,
2025-10-17T17:45:52.514586+00:00,11.270,11.312,,7.278,-4.683,,,,
2025-10-17T17:45:53.124037+00:00,11.263,10.212,,3.788,-4.993,,,,
2025-10-17T17:45:53.732649+00:00,11.256,9.037,,-0.376,-4.843,,,,
2025-10-17T17:45:54.340633+00:00,11.248,8.208,,-4.468,-4.249,,,,
2025-10-17T17:45:54.950325+00:00,11.239,8.022,,-7.770,-3.262,,,,
2025-10-17T17:45:55.555918+00:00,11.230,8.543,,-9.672,-1.984,,,,
2025-10-17T17:45:56.158853+00:00,11.221,9.577,,-9.864,-0.531,,,,
2025-10-17T17:45:56.766115+00:00,11.211,10.768,,-8.308,0.979,,,,
2025-10-17T17:45:57.378893+00:00,11.201,11.691,,-5.241,2.413,,,,
2025-10-17T17:45:57.992309+00:00,11.190,11.998,,-1.219,3.622,,,,
2025-10-17T17:45:58.596349+00:00,11.179,11.588,,2.961,4.484,,,,
2025-10-17T17:45:59.201492+00:00,11.168,10.614,,6.625,4.939,,,,
2025-10-17T17:45:59.809268+00:00,11.156,9.417,,9.126,4.945,,,,
2025-10-17T17:46:00.420830+00:00,11.144,8.424,,10.000,4.494,,,,
2025-10-17T17:46:01.029165+00:00,11.132,8.003,,9.078,3.631,,,,
2025-10-17T17:46:01.632733+00:00,11.120,8.293,,6.560,2.446,,,,
2025-10-17T17:46:02.244993+00:00,11.108,9.203,,2.830,1.018,,,,
2025-10-17T17:46:02.852823+00:00,11.096,10.393,,-1.381,-0.494,,,,
2025-10-17T17:46:03.456029+00:00,11.084,11.436,,-5.318,-1.950,,,,
2025-10-17T17:46:04.058850+00:00,11.072,11.972,,-8.320,-3.229,,,,
2025-10-17T17:46:04.669944+00:00,11.060,11.806,,-9.872,-4.227,,,,
2025-10-17T17:46:05.280879+00:00,11.048,10.986,,-9.645,-4.835,,,,
2025-10-17T17:46:05.889256+00:00,11.036,9.815,,-7.692,-4.995,,,,
2025-10-17T17:46:06.494954+00:00,11.025,8.714,,-4.382,-4.698,,,,
2025-10-17T17:46:07.102274+00:00,11.014,8.070,,-0.285,-3.972,,,,
2025-10-17T17:46:07.708911+00:00,11.003,8.116,,3.859,-2.883,,,,
2025-10-17T17:46:08.315528+00:00,10.993,8.834,,7.317,-1.531,,,,
2025-10-17T17:46:08.923851+00:00,10.983,9.971,,9.479,-0.036,,,,
2025-10-17T17:46:09.536072+00:00,10.973,11.126,,9.946,1.473,,,,
2025-10-17T17:46:10.142064+00:00,10.964,11.867,,8.635,2.831,,,,
2025-10-17T17:46:10.747295+00:00,10.955,11.943,,5.798,3.931,,,,
2025-10-17T17:46:11.350279+00:00,10.947,11.333,,1.952,4.671,,,,
2025-10-17T17:46:11.960691+00:00,10.940,10.238,,-2.288,4.991,,,,
2025-10-17T17:46:12.571996+00:00,10.933,9.055,,-6.121,4.849,,,,
2025-10-17T17:46:13.175825+00:00,10.926,8.221,,-8.826,4.268,,,,
2025-10-17T17:46:13.784229+00:00,10.921,8.018,,-9.980,3.291,,,,
2025-10-17T17:46:14.394724+00:00,10.916,8.529,,-9.345,2.008,,,,
2025-10-17T17:46:15.001070+00:00,10.911,9.563,,-7.051,0.550,,,,
2025-10-17T17:46:15.604613+00:00,10.908,10.748,,-3.523,-0.952,,,,
2025-10-17T17:46:16.212271+00:00,10.905,11.673,,0.653,-2.377,,,,
2025-10-17T17:46:16.825147+00:00,10.902,11.999,,4.745,-3.593,,,,
2025-10-17T17:46:17.437997+00:00,10.901,11.597,,7.976,-4.475,,,,
2025-10-17T17:46:18.044003+00:00,10.900,10.627,,9.752,-4.937,,,,
2025-10-17T17:46:18.647459+00:00,10.900,9.439,,9.802,-4.949,,,,
2025-10-17T17:46:19.255997+00:00,10.901,8.442,,8.109,-4.510,,,,
2025-10-17T17:46:19.866239+00:00,10.902,8.005,,4.956,-3.653,,,,
2025-10-17T17:46:20.475098+00:00,10.904,8.286,,0.921,-2.461,,,,
2025-10-17T17:46:21.084826+00:00,10.907,9.185,,-3.283,-1.042,,,,
2025-10-17T17:46:21.692238+00:00,10.911,10.373,,-6.887,0.469,,,,
2025-10-17T17:46:22.301374+00:00,10.915,11.430,,-9.269,1.940,,,,
2025-10-17T17:46:22.904665+00:00,10.920,11.971,,-9.993,3.221,,,,
2025-10-17T17:46:23.510170+00:00,10.926,11.814,,-8.954,4.215,,,,
2025-10-17T17:46:24.119494+00:00,10.932,11.005,,-6.309,4.828,,,,
2025-10-17T17:46:24.723742+00:00,10.939,9.845,,-2.569,4.996,,,,
2025-10-17T17:46:25.329760+00:00,10.947,8.737,,1.637,4.711,,,,
2025-10-17T17:46:25.933662+00:00,10.955,8.080,,5.540,3.999,,,,
2025-10-17T17:46:26.538562+00:00,10.963,8.103,,8.471,2.924,,,,
2025-10-17T17:46:27.143193+00:00,10.972,8.798,,9.906,1.583,,,,
2025-10-17T17:46:27.748820+00:00,10.982,9.922,,9.591,0.097,,,,
2025-10-17T17:46:28.356913+00:00,10.992,11.078,,7.567,-1.404,,,,
2025-10-17T17:46:28.969500+00:00,11.002,11.851,,4.163,-2.786,,,,
2025-10-17T17:46:29.577496+00:00,11.013,11.952,,0.038,-3.901,,,,
2025-10-17T17:46:30.180703+00:00,11.024,11.361,,-4.064,-4.654,,,,
2025-10-17T17:46:30.783899+00:00,11.035,10.290,,-7.451,-4.987,,,,
2025-10-17T17:46:31.394114+00:00,11.047,9.103,,-9.545,-4.866,,,,
2025-10-17T17:46:32.006028+00:00,11.059,8.239,,-9.921,-4.293,,,,
2025-10-17T17:46:32.679529+00:00,11.072,8.032,,-8.271,-3.205,,,,
2025-10-17T17:46:33.283088+00:00,11.084,8.582,,-5.239,-1.919,,,,
2025-10-17T17:46:33.890476+00:00,11.096,9.641,,-1.259,-0.450,,,,
2025-10-17T17:46:34.495255+00:00,11.108,10.824,,2.927,1.053,,,,
2025-10-17T17:46:35.101858+00:00,11.121,11.716,,6.606,2.465,,,,
2025-10-17T17:46:35.712049+00:00,11.133,11.995,,9.123,3.658,,,,
2025-10-17T17:46:36.318042+00:00,11.145,11.560,,10.000,4.508,,,,
2025-10-17T17:46:36.928386+00:00,11.156,10.561,,9.092,4.950,,,,
2025-10-17T17:46:37.533741+00:00,11.168,9.368,,6.576,4.936,,,,
2025-10-17T17:46:38.136749+00:00,11.179,8.404,,2.912,4.476,,,,
2025-10-17T17:46:38.743354+00:00,11.190,8.002,,-1.288,3.605,,,,
2025-10-17T17:46:39.350678+00:00,11.201,8.313,,-5.263,2.405,,,,
2025-10-17T17:46:39.957402+00:00,11.211,9.227,,-8.299,0.985,,,,
2025-10-17T17:46:41.091494+00:00,11.229,11.345,,-9.797,-1.802,,,,
2025-10-17T17:46:41.091494+00:00,11.229,11.345,,-9.797,-1.802,,,,
2025-10-17T17:46:45.622304+00:00,11.283,8.301,,9.732,-2.430,,,,
2025-10-17T17:46:46.228122+00:00,11.288,9.204,,7.924,-1.016,,,,
2025-10-17T17:46:46.832727+00:00,11.291,10.388,,4.719,0.488,,,,
2025-10-17T17:46:47.438479+00:00,11.295,11.436,,0.674,1.950,,,,
2025-10-17T17:46:48.049044+00:00,11.297,11.975,,-3.522,3.244,,,,
2025-10-17T17:46:48.651714+00:00,11.299,11.806,,-7.046,4.227,,,,
2025-10-17T17:46:49.254646+00:00,11.300,11.001,,-9.334,4.829,,,,
2025-10-17T17:46:49.861320+00:00,11.300,9.835,,-9.983,4.996,,,,
2025-10-17T17:46:50.467856+00:00,11.300,8.728,,-8.859,4.706,,,,
2025-10-17T17:46:51.071443+00:00,11.298,8.077,,-6.178,3.992,,,,
2025-10-17T17:46:51.679579+00:00,11.296,8.108,,-2.380,2.907,,,,
2025-10-17T17:46:52.285828+00:00,11.294,8.814,,1.830,1.560,,,,
2025-10-17T17:46:55.254447+00:00,11.271,11.445,,7.704,-4.598,,,,
2025-10-17T17:46:56.048777+00:00,11.262,10.026,,3.178,-5.000,,,,
2025-10-17T17:46:56.995372+00:00,11.250,8.393,,-3.327,-4.465,,,,
2025-10-17T17:46:58.018244+00:00,11.236,8.147,,-8.700,-2.793,,,,
2025-10-17T17:46:59.416893+00:00,11.214,10.423,,-8.945,0.532,,,,
2025-10-17T17:47:00.172575+00:00,11.201,11.649,,-5.467,2.329,,,,
2025-10-17T17:47:01.385305+00:00,11.180,11.638,,2.673,4.435,,,,
2025-10-17T17:47:02.047125+00:00,11.167,10.587,,6.697,4.945,,,,
2025-10-17T17:47:02.685785+00:00,11.155,9.332,,9.249,4.928,,,,
2025-10-17T17:47:03.341115+00:00,11.143,8.322,,9.976,4.393,,,,
2025-10-17T17:47:03.949086+00:00,11.131,8.001,,8.803,3.477,,,,
2025-10-17T17:47:04.570204+00:00,11.118,8.413,,5.985,2.212,,,,
2025-10-17T17:47:05.173735+00:00,11.106,9.384,,2.174,0.779,,,,
2025-10-17T17:47:05.820412+00:00,11.093,10.655,,-2.314,-0.830,,,,
2025-10-17T17:47:06.432286+00:00,11.081,11.622,,-6.146,-2.277,,,,
2025-10-17T17:47:07.043347+00:00,11.069,12.000,,-8.864,-3.510,,,,
2025-10-17T17:47:08.153038+00:00,11.047,10.915,,-9.566,-4.859,,,,
2025-10-17T17:47:08.761174+00:00,11.036,9.735,,-7.510,-4.989,,,,
2025-10-17T17:47:09.365012+00:00,11.024,8.656,,-4.140,-4.665,,,,
2025-10-17T17:47:09.974378+00:00,11.013,8.050,,-0.003,-3.910,,,,
2025-10-17T17:47:10.670444+00:00,11.001,8.218,,4.679,-2.612,,,,
2025-10-17T17:47:11.278112+00:00,10.991,9.055,,7.909,-1.217,,,,
2025-10-17T17:47:11.898176+00:00,10.980,10.256,,9.749,0.320,,,,
2025-10-17T17:47:12.505729+00:00,10.971,11.342,,9.799,1.798,,,,
2025-10-17T17:47:13.110241+00:00,10.962,11.947,,8.115,3.105,,,,
2025-10-17T17:47:13.717570+00:00,10.953,11.860,,4.983,4.135,,,,
2025-10-17T17:47:14.327359+00:00,10.945,11.103,,0.947,4.788,,,,
2025-10-17T17:47:14.938830+00:00,10.938,9.946,,-3.271,5.000,,,,
2025-10-17T17:47:16.043368+00:00,10.926,8.190,,-8.941,4.221,,,,
2025-10-17T17:47:16.651857+00:00,10.920,8.029,,-9.993,3.224,,,,
2025-10-17T17:47:17.257767+00:00,10.915,8.572,,-9.265,1.936,,,,
2025-10-17T17:47:17.859813+00:00,10.911,9.616,,-6.916,0.483,,,,
2025-10-17T17:47:18.462286+00:00,10.907,10.796,,-3.353,-1.016,,,,
2025-10-17T17:47:19.069559+00:00,10.904,11.700,,0.831,-2.433,,,,
2025-10-17T17:47:19.677371+00:00,10.902,11.997,,4.870,-3.629,,,,
2025-10-17T17:47:20.283650+00:00,10.901,11.580,,8.034,-4.490,,,,
2025-10-17T17:47:20.895106+00:00,10.900,10.590,,9.781,-4.944,,,,
2025-10-17T17:47:21.503740+00:00,10.900,9.392,,9.767,-4.940,,,,
2025-10-17T17:47:22.112182+00:00,10.901,8.412,,8.008,-4.483,,,,
2025-10-17T17:47:22.717826+00:00,10.902,8.002,,4.835,-3.619,,,,
2025-10-17T17:47:23.326231+00:00,10.905,8.306,,0.787,-2.419,,,,
2025-10-17T17:47:23.936291+00:00,10.907,9.221,,-3.413,-0.993,,,,
2025-10-17T17:47:24.542150+00:00,10.911,10.409,,-6.978,0.514,,,,
2025-10-17T17:47:25.650724+00:00,10.920,11.935,,-9.997,3.054,,,,
2025-10-17T17:47:26.260765+00:00,10.925,11.876,,-9.193,4.102,,,,
2025-10-17T17:47:26.866861+00:00,10.931,11.148,,-6.757,4.768,,,,
2025-10-17T17:47:27.478585+00:00,10.938,9.999,,-3.086,5.000,,,,
2025-10-17T17:47:28.086599+00:00,10.946,8.856,,1.117,4.770,,,,
2025-10-17T17:47:28.696038+00:00,10.954,8.123,,5.129,4.101,,,,
2025-10-17T17:47:29.298696+00:00,10.962,8.062,,8.194,3.067,,,,
2025-10-17T17:47:29.904962+00:00,10.971,8.689,,9.827,1.749,,,,
2025-10-17T17:47:30.510800+00:00,10.981,9.783,,9.718,0.272,,,,
2025-10-17T17:47:31.123174+00:00,10.991,10.965,,7.859,-1.246,,,,
2025-10-17T17:47:31.731498+00:00,11.001,11.793,,4.602,-2.639,,,,
2025-10-17T17:47:32.337018+00:00,11.012,11.979,,0.544,-3.785,,,,
2025-10-17T17:47:32.943665+00:00,11.023,11.459,,-3.618,-4.588,,,,
2025-10-17T17:47:33.546451+00:00,11.034,10.426,,-7.119,-4.971,,,,
2025-10-17T17:47:34.156705+00:00,11.046,9.229,,-9.389,-4.903,,,,
2025-10-17T17:47:34.774764+00:00,11.058,8.302,,-9.967,-4.371,,,,
2025-10-17T17:47:35.377957+00:00,11.070,8.002,,-8.759,-3.453,,,,
2025-10-17T17:47:35.989112+00:00,11.082,8.417,,-5.968,-2.205,,,,
2025-10-17T17:47:36.601131+00:00,11.094,9.406,,-2.096,-0.751,,,,
2025-10-17T17:47:37.206748+00:00,11.106,10.599,,2.112,0.757,,,,
2025-10-17T17:47:37.810563+00:00,11.118,11.576,,5.936,2.192,,,,
2025-10-17T17:47:38.416800+00:00,11.130,11.997,,8.723,3.434,,,,
2025-10-17T17:47:39.528251+00:00,11.152,10.987,,9.645,4.834,,,,
2025-10-17T17:47:40.139186+00:00,11.164,9.811,,7.682,4.994,,,,
2025-10-17T17:47:40.743826+00:00,11.175,8.712,,4.375,4.697,,,,
2025-10-17T17:47:41.346655+00:00,11.186,8.072,,0.308,3.977,,,,
2025-10-17T17:47:41.955391+00:00,11.197,8.115,,-3.851,2.886,,,,
2025-10-17T17:47:42.565826+00:00,11.207,8.838,,-7.329,1.526,,,,
2025-10-17T17:47:43.174214+00:00,11.217,9.977,,-9.485,0.029,,,,
2025-10-17T17:47:43.782030+00:00,11.227,11.123,,-9.947,-1.468,,,,
2025-10-17T17:47:44.389334+00:00,11.236,11.867,,-8.637,-2.830,,,,
2025-10-17T17:47:44.997695+00:00,11.245,11.942,,-5.784,-3.935,,,,
2025-10-17T17:47:45.600287+00:00,11.253,11.330,,-1.937,-4.673,,,,
2025-10-17T17:47:46.206540+00:00,11.260,10.241,,2.275,-4.991,,,,
2025-10-17T17:47:46.822124+00:00,11.267,9.051,,6.134,-4.848,,,,
2025-10-17T17:47:47.427898+00:00,11.274,8.217,,8.840,-4.262,,,,
2025-10-17T17:47:48.036031+00:00,11.279,8.019,,9.982,-3.284,,,,
2025-10-17T17:47:48.641294+00:00,11.284,8.527,,9.348,-2.011,,,,
2025-10-17T17:47:49.248412+00:00,11.289,9.562,,7.053,-0.551,,,,
2025-10-17T17:47:49.854674+00:00,11.292,10.752,,3.508,0.958,,,,
2025-10-17T17:47:50.462161+00:00,11.295,11.675,,-0.668,2.382,,,,
2025-10-17T17:47:51.070196+00:00,11.298,11.999,,-4.728,3.589,,,,
2025-10-17T17:47:51.682767+00:00,11.299,11.601,,-7.964,4.471,,,,
2025-10-17T17:47:52.292948+00:00,11.300,10.625,,-9.754,4.937,,,,
2025-10-17T17:47:52.895683+00:00,11.300,9.438,,-9.802,4.949,,,,
2025-10-17T17:47:53.498959+00:00,11.299,8.448,,-8.128,4.515,,,,
2025-10-17T17:47:54.112186+00:00,11.298,8.005,,-4.967,3.656,,,,
2025-10-17T17:47:54.723455+00:00,11.296,8.287,,-0.917,2.460,,,,
2025-10-17T17:47:55.331114+00:00,11.293,9.182,,3.273,1.045,,,,
2025-10-17T17:47:55.933951+00:00,11.289,10.361,,6.856,-0.454,,,,
2025-10-17T17:47:56.552376+00:00,11.285,11.435,,9.278,-1.947,,,,
2025-10-17T17:47:57.157886+00:00,11.280,11.973,,9.991,-3.232,,,,
2025-10-17T17:47:57.764122+00:00,11.274,11.809,,8.935,-4.223,,,,
2025-10-17T17:47:58.371708+00:00,11.268,10.998,,6.285,-4.831,,,,
2025-10-17T17:47:58.978037+00:00,11.261,9.832,,2.525,-4.996,,,,
2025-10-17T17:47:59.588098+00:00,11.253,8.720,,-1.710,-4.702,,,,
2025-10-17T17:48:00.192804+00:00,11.245,8.073,,-5.606,-3.982,,,,
2025-10-17T17:48:01.297202+00:00,11.229,8.654,,-9.795,-1.804,,,,
2025-10-17T17:48:01.908128+00:00,11.220,9.746,,-9.748,-0.318,,,,
2025-10-17T17:48:02.520057+00:00,11.210,10.932,,-7.940,1.200,,,,
2025-10-17T17:48:03.123439+00:00,11.199,11.771,,-4.751,2.588,,,,
2025-10-17T17:48:03.731752+00:00,11.189,11.984,,-0.692,3.750,,,,
2025-10-17T17:48:04.341939+00:00,11.177,11.483,,3.503,4.570,,,,
2025-10-17T17:48:04.947177+00:00,11.166,10.456,,7.044,4.967,,,,
2025-10-17T17:48:05.549740+00:00,11.155,9.272,,9.332,4.913,,,,
2025-10-17T17:48:06.155080+00:00,11.143,8.341,,9.984,4.414,,,,
2025-10-17T17:48:06.766747+00:00,11.131,8.000,,8.849,3.502,,,,
2025-10-17T17:48:07.375407+00:00,11.119,8.381,,6.133,2.272,,,,
2025-10-17T17:48:07.979472+00:00,11.107,9.335,,2.352,0.844,,,,
2025-10-17T17:48:08.581480+00:00,11.095,10.520,,-1.829,-0.655,,,,
2025-10-17T17:48:09.186588+00:00,11.083,11.526,,-5.709,-2.102,,,,
2025-10-17T17:48:09.795218+00:00,11.071,11.991,,-8.591,-3.365,,,,
2025-10-17T17:48:10.403161+00:00,11.059,11.742,,-9.938,-4.318,,,,
2025-10-17T17:48:11.011048+00:00,11.047,10.868,,-9.511,-4.874,,,,
2025-10-17T17:48:11.620647+00:00,11.035,9.681,,-7.381,-4.984,,,,
2025-10-17T17:48:12.228773+00:00,11.024,8.610,,-3.936,-4.635,,,,
2025-10-17T17:48:12.831538+00:00,11.013,8.040,,0.174,-3.870,,,,
2025-10-17T17:48:13.438000+00:00,11.002,8.163,,4.277,-2.748,,,,
2025-10-17T17:48:14.050643+00:00,10.992,8.953,,7.648,-1.361,,,,
2025-10-17T17:48:14.658431+00:00,10.982,10.113,,9.625,0.141,,,,
2025-10-17T17:48:15.266060+00:00,10.972,11.233,,9.887,1.630,,,,
2025-10-17T17:48:15.871313+00:00,10.963,11.910,,8.395,2.965,,,,
2025-10-17T17:48:16.478758+00:00,10.954,11.907,,5.406,4.033,,,,
2025-10-17T17:48:17.084193+00:00,10.946,11.225,,1.468,4.731,,,,
2025-10-17T17:48:17.690275+00:00,10.939,10.106,,-2.734,4.998,,,,
2025-10-17T17:48:18.298398+00:00,10.932,8.946,,-6.462,4.809,,,,
2025-10-17T17:48:18.910318+00:00,10.926,8.161,,-9.048,4.173,,,,
2025-10-17T17:48:19.518806+00:00,10.920,8.042,,-9.999,3.156,,,,
2025-10-17T17:48:20.121286+00:00,10.915,8.617,,-9.180,1.863,,,,
2025-10-17T17:48:20.723768+00:00,10.911,9.679,,-6.752,0.403,,,,
2025-10-17T17:48:21.334827+00:00,10.907,10.870,,-3.084,-1.115,,,,
2025-10-17T17:48:21.947490+00:00,10.904,11.747,,1.152,-2.533,,,,
2025-10-17T17:48:22.555080+00:00,10.902,11.990,,5.148,-3.707,,,,
2025-10-17T17:48:23.158355+00:00,10.901,11.526,,8.209,-4.536,,,,
2025-10-17T17:48:23.767282+00:00,10.900,10.513,,9.836,-4.958,,,,
2025-10-17T17:48:24.373301+00:00,10.900,9.320,,9.707,-4.925,,,,
2025-10-17T17:48:24.979097+00:00,10.901,8.370,,7.858,-4.444,,,,
2025-10-17T17:48:25.587067+00:00,10.902,8.000,,4.604,-3.554,,,,
2025-10-17T17:48:26.194664+00:00,10.905,8.346,,0.531,-2.339,,,,
2025-10-17T17:48:26.805270+00:00,10.908,9.290,,-3.656,-0.902,,,,
2025-10-17T17:48:27.410493+00:00,10.911,10.480,,-7.159,0.604,,,,
2025-10-17T17:48:28.013233+00:00,10.916,11.496,,-9.390,2.050,,,,
2025-10-17T17:48:28.619971+00:00,10.921,11.986,,-9.973,3.319,,,,
2025-10-17T17:48:29.229903+00:00,10.926,11.764,,-8.772,4.289,,,,
2025-10-17T17:48:29.837487+00:00,10.933,10.910,,-6.010,4.861,,,,
2025-10-17T17:48:30.445426+00:00,10.940,9.730,,-2.175,4.989,,,,
2025-10-17T17:48:31.055069+00:00,10.947,8.644,,2.060,4.657,,,,
2025-10-17T17:48:31.660417+00:00,10.955,8.048,,5.902,3.903,,,,
2025-10-17T17:48:32.270438+00:00,10.964,8.150,,8.715,2.784,,,,
2025-10-17T17:48:32.877409+00:00,10.973,8.914,,9.962,1.415,,,,
2025-10-17T17:48:33.489545+00:00,10.983,10.076,,9.425,-0.095,,,,
2025-10-17T17:48:34.101234+00:00,10.993,11.210,,7.186,-1.596,,,,
2025-10-17T17:48:34.704386+00:00,11.004,11.900,,3.705,-2.932,,,,
2025-10-17T17:48:35.311342+00:00,11.014,11.917,,-0.453,-4.008,,,,
2025-10-17T17:48:35.920304+00:00,11.026,11.246,,-4.543,-4.720,,,,
2025-10-17T17:48:36.538755+00:00,11.037,10.108,,-7.861,-4.998,,,,
2025-10-17T17:48:37.649201+00:00,11.059,8.259,,-9.938,-4.319,,,,
2025-10-17T17:48:38.256843+00:00,11.071,8.009,,-8.596,-3.367,,,,
2025-10-17T17:48:38.867512+00:00,11.083,8.475,,-5.704,-2.100,,,,
2025-10-17T17:48:39.473137+00:00,11.095,9.483,,-1.820,-0.652,,,,
2025-10-17T17:48:40.075544+00:00,11.107,10.669,,2.364,0.848,,,,
2025-10-17T17:48:40.682817+00:00,11.119,11.625,,6.161,2.283,,,,
2025-10-17T17:48:41.292082+00:00,11.131,12.000,,8.867,3.512,,,,
2025-10-17T17:48:41.900447+00:00,11.143,11.656,,9.985,4.417,,,,
2025-10-17T17:48:42.508121+00:00,11.155,10.720,,9.321,4.916,,,,
2025-10-17T17:48:43.117725+00:00,11.166,9.522,,6.986,4.964,,,,
2025-10-17T17:48:43.723082+00:00,11.178,8.502,,3.426,4.558,,,,
2025-10-17T17:48:44.326303+00:00,11.189,8.015,,-0.725,3.742,,,,
2025-10-17T17:48:44.932233+00:00,11.199,8.231,,-4.766,2.583,,,,
2025-10-17T17:48:45.551062+00:00,11.210,9.100,,-8.016,1.156,,,,
2025-10-17T17:48:46.161955+00:00,11.220,10.287,,-9.774,-0.360,,,,
2025-10-17T17:48:46.764693+00:00,11.229,11.359,,-9.783,-1.824,,,,
2025-10-17T17:48:47.369741+00:00,11.238,11.952,,-8.067,-3.128,,,,
2025-10-17T17:48:47.977171+00:00,11.247,11.851,,-4.911,-4.152,,,,
2025-10-17T17:48:48.587251+00:00,11.255,11.083,,-0.862,-4.797,,,,
2025-10-17T17:48:49.195978+00:00,11.262,9.927,,3.333,-4.999,,,,
2025-10-17T17:48:49.798691+00:00,11.269,8.807,,6.901,-4.747,,,,
2025-10-17T17:48:50.411959+00:00,11.275,8.100,,9.287,-4.051,,,,
2025-10-17T17:48:51.020132+00:00,11.281,8.083,,9.989,-2.988,,,,
2025-10-17T17:48:51.622745+00:00,11.286,8.745,,8.926,-1.663,,,,
2025-10-17T17:48:52.225387+00:00,11.290,9.849,,6.297,-0.189,,,,
2025-10-17T17:48:52.836183+00:00,11.293,11.020,,2.510,1.322,,,,
2025-10-17T17:48:53.446882+00:00,11.296,11.822,,-1.730,2.711,,,,
2025-10-17T17:48:54.055548+00:00,11.298,11.966,,-5.646,3.845,,,,
2025-10-17T17:48:54.665518+00:00,11.299,11.402,,-8.557,4.627,,,,
2025-10-17T17:48:55.273798+00:00,11.300,10.336,,-9.930,4.982,,,,
2025-10-17T17:48:55.879639+00:00,11.300,9.153,,-9.536,4.881,,,,
2025-10-17T17:48:56.486199+00:00,11.299,8.272,,-7.448,4.335,,,,
2025-10-17T17:48:57.094581+00:00,11.297,8.007,,-4.026,3.389,,,,
2025-10-17T17:48:57.707856+00:00,11.295,8.463,,0.149,2.121,,,,
2025-10-17T17:48:58.313571+00:00,11.292,9.465,,4.250,0.674,,,,
2025-10-17T17:48:58.919196+00:00,11.288,10.658,,7.597,-0.834,,,,
2025-10-17T17:48:59.521807+00:00,11.284,11.612,,9.593,-2.259,,,,
2025-10-17T17:49:00.133523+00:00,11.278,12.000,,9.899,-3.497,,,,
2025-10-17T17:49:00.736290+00:00,11.273,11.671,,8.451,-4.401,,,,
2025-10-17T17:49:01.342136+00:00,11.266,10.749,,5.503,-4.908,,,,
2025-10-17T17:49:01.950180+00:00,11.259,9.555,,1.564,-4.969,,,,
2025-10-17T17:49:02.558144+00:00,11.251,8.521,,-2.653,-4.573,,,,
2025-10-17T17:49:03.167471+00:00,11.243,8.017,,-6.404,-3.756,,,,
2025-10-17T17:49:03.775707+00:00,11.234,8.225,,-9.005,-2.596,,,,
2025-10-17T17:49:04.378640+00:00,11.225,9.061,,-9.996,-1.210,,,,
2025-10-17T17:49:04.984869+00:00,11.216,10.235,,-9.224,0.294,,,,
2025-10-17T17:49:05.597724+00:00,11.205,11.334,,-6.782,1.786,,,,
2025-10-17T17:49:06.208360+00:00,11.195,11.947,,-3.126,3.107,,,,
2025-10-17T17:49:06.811348+00:00,11.184,11.862,,1.040,4.130,,,,
2025-10-17T17:49:07.416738+00:00,11.173,11.116,,5.038,4.782,,,,
2025-10-17T17:49:08.092884+00:00,11.160,9.832,,8.421,4.996,,,,
2025-10-17T17:49:09.484074+00:00,11.133,8.009,,9.194,3.700,,,,
2025-10-17T17:49:10.091777+00:00,11.121,8.257,,6.751,2.525,,,,
2025-10-17T17:49:10.695269+00:00,11.109,9.121,,3.133,1.128,,,,
2025-10-17T17:49:11.305515+00:00,11.097,10.309,,-1.083,-0.387,,,,
2025-10-17T17:49:11.915724+00:00,11.085,11.385,,-5.104,-1.867,,,,
2025-10-17T17:49:12.518648+00:00,11.073,11.959,,-8.179,-3.160,,,,
2025-10-17T17:49:13.122699+00:00,11.061,11.841,,-9.820,-4.169,,,,
2025-10-17T17:49:14.232012+00:00,11.039,10.120,,-8.330,-4.998,,,,
2025-10-17T17:49:14.839824+00:00,11.028,8.958,,-5.304,-4.814,,,,
2025-10-17T17:49:15.447515+00:00,11.017,8.170,,-1.333,-4.189,,,,
2025-10-17T17:49:16.054230+00:00,11.006,8.037,,2.869,-3.182,,,,
2025-10-17T17:49:16.656411+00:00,10.995,8.597,,6.538,-1.895,,,,
2025-10-17T17:49:17.260416+00:00,10.985,9.655,,9.067,-0.433,,,,
2025-10-17T17:49:17.864810+00:00,10.976,10.836,,9.999,1.069,,,,
2025-10-17T17:49:18.476450+00:00,10.966,11.728,,9.148,2.490,,,,
2025-10-17T17:49:19.084081+00:00,10.957,11.994,,6.666,3.673,,,,
2025-10-17T17:49:19.690562+00:00,10.949,11.547,,3.004,4.519,,,,
2025-10-17T17:49:20.294991+00:00,10.942,10.553,,-1.177,4.951,,,,
2025-10-17T17:49:20.902363+00:00,10.934,9.357,,-5.168,4.933,,,,
2025-10-17T17:49:21.509121+00:00,10.928,8.392,,-8.237,4.465,,,,
2025-10-17T17:49:22.119658+00:00,10.922,8.001,,-9.846,3.582,,,,
2025-10-17T17:49:22.722721+00:00,10.917,8.323,,-9.698,2.384,,,,
2025-10-17T17:49:23.335044+00:00,10.912,9.255,,-7.806,0.949,,,,
2025-10-17T17:49:23.940042+00:00,10.908,10.443,,-4.548,-0.557,,,,
2025-10-17T17:49:24.546092+00:00,10.905,11.475,,-0.479,-2.014,,,,
2025-10-17T17:49:25.148576+00:00,10.903,11.981,,3.652,-3.281,,,,
2025-10-17T17:49:25.759275+00:00,10.901,11.782,,7.183,-4.264,,,,
2025-10-17T17:49:26.367713+00:00,10.900,10.943,,9.416,-4.850,,,,
2025-10-17T17:49:26.979973+00:00,10.900,9.758,,9.964,-4.991,,,,
2025-10-17T17:49:27.585293+00:00,10.901,8.671,,8.733,-4.673,,,,
2025-10-17T17:49:28.192424+00:00,10.902,8.056,,5.948,-3.928,,,,
2025-10-17T17:49:28.795185+00:00,10.904,8.132,,2.134,-2.833,,,,
2025-10-17T17:49:29.405051+00:00,10.906,8.879,,-2.102,-1.466,,,,
2025-10-17T17:49:30.013165+00:00,10.910,10.026,,-5.952,0.033,,,,
2025-10-17T17:49:30.625504+00:00,10.914,11.171,,-8.753,1.538,,,,
2025-10-17T17:49:31.228652+00:00,10.919,11.884,,-9.966,2.882,,,,
2025-10-17T17:49:31.835909+00:00,10.924,11.930,,-9.419,3.972,,,,
2025-10-17T17:49:32.438931+00:00,10.930,11.293,,-7.216,4.695,,,,
2025-10-17T17:49:33.049441+00:00,10.937,10.184,,-3.697,4.995,,,,
2025-10-17T17:49:33.657607+00:00,10.944,9.013,,0.470,4.835,,,,
2025-10-17T17:49:34.263608+00:00,10.952,8.198,,4.540,4.234,,,,
2025-10-17T17:49:34.871374+00:00,10.961,8.025,,7.812,3.244,,,,
2025-10-17T17:49:35.480870+00:00,10.970,8.562,,9.695,1.953,,,,
2025-10-17T17:49:36.084220+00:00,10.979,9.605,,9.848,0.497,,,,
2025-10-17T17:49:36.689735+00:00,10.989,10.791,,8.261,-1.009,,,,
2025-10-17T17:49:37.296058+00:00,10.999,11.697,,5.207,-2.425,,,,
2025-10-17T17:49:37.909081+00:00,11.010,11.997,,1.183,-3.631,,,,
2025-10-17T17:49:38.516970+00:00,11.021,11.576,,-3.022,-4.494,,,,
2025-10-17T17:49:39.125334+00:00,11.033,10.590,,-6.690,-4.944,,,,
2025-10-17T17:49:39.727777+00:00,11.044,9.403,,-9.146,-4.943,,,,
2025-10-17T17:49:40.334732+00:00,11.056,8.421,,-10.000,-4.491,,,,
2025-10-17T17:49:40.941638+00:00,11.068,8.003,,-9.075,-3.630,,,,
2025-10-17T17:49:41.552160+00:00,11.080,8.302,,-6.518,-2.428,,,,
2025-10-17T17:49:42.159876+00:00,11.092,9.209,,-2.808,-1.009,,,,
2025-10-17T17:49:42.767464+00:00,11.104,10.399,,1.403,0.502,,,,
2025-10-17T17:49:43.372308+00:00,11.116,11.443,,5.347,1.961,,,,
2025-10-17T17:49:43.978949+00:00,11.128,11.975,,8.353,3.245,,,,
2025-10-17T17:49:44.584789+00:00,11.140,11.803,,9.876,4.232,,,,
2025-10-17T17:49:45.203580+00:00,11.152,10.967,,9.624,4.842,,,,
2025-10-17T17:49:45.807265+00:00,11.164,9.802,,7.663,4.994,,,,
2025-10-17T17:49:46.498466+00:00,11.177,8.579,,3.794,4.615,,,,
2025-10-17T17:49:47.103462+00:00,11.188,8.031,,-0.343,3.832,,,,
2025-10-17T17:49:47.709904+00:00,11.198,8.183,,-4.429,2.698,,,,
2025-10-17T17:49:48.312757+00:00,11.209,8.977,,-7.713,1.326,,,,
2025-10-17T17:49:48.921266+00:00,11.219,10.143,,-9.654,-0.179,,,,
2025-10-17T17:49:50.029366+00:00,11.236,11.849,,-8.719,-2.781,,,,
2025-10-17T17:49:50.641397+00:00,11.245,11.951,,-5.897,-3.904,,,,
2025-10-17T17:49:51.246775+00:00,11.253,11.355,,-2.055,-4.658,,,,
2025-10-17T17:49:51.853573+00:00,11.260,10.274,,2.161,-4.988,,,,
2025-10-17T17:49:52.456383+00:00,11.267,9.103,,5.970,-4.865,,,,
2025-10-17T17:49:53.067331+00:00,11.273,8.240,,8.760,-4.294,,,,
2025-10-17T17:49:53.675667+00:00,11.279,8.013,,9.970,-3.329,,,,
2025-10-17T17:49:54.286876+00:00,11.284,8.503,,9.393,-2.052,,,,
2025-10-17T17:49:54.889753+00:00,11.289,9.519,,7.163,-0.606,,,,
2025-10-17T17:49:55.499060+00:00,11.292,10.716,,3.634,0.911,,,,
2025-10-17T17:49:56.102112+00:00,11.295,11.649,,-0.502,2.330,,,,
2025-10-17T17:49:56.711386+00:00,11.298,12.000,,-4.588,3.549,,,,
2025-10-17T17:49:57.319661+00:00,11.299,11.632,,-7.849,4.441,,,,
2025-10-17T17:49:57.927448+00:00,11.300,10.680,,-9.707,4.925,,,,
2025-10-17T17:49:58.535361+00:00,11.300,9.484,,-9.834,4.957,,,,
2025-10-17T17:49:59.143773+00:00,11.299,8.472,,-8.205,4.535,,,,
2025-10-17T17:49:59.746265+00:00,11.298,8.010,,-5.146,3.706,,,,
2025-10-17T17:50:00.353709+00:00,11.296,8.253,,-1.150,2.533,,,,
2025-10-17T17:50:00.960557+00:00,11.293,9.120,,3.046,1.129,,,,
2025-10-17T17:50:01.571042+00:00,11.289,10.309,,6.720,-0.387,,,,
2025-10-17T17:50:02.179117+00:00,11.285,11.382,,9.178,-1.862,,,,
2025-10-17T17:50:02.789210+00:00,11.280,11.961,,9.998,-3.170,,,,
2025-10-17T17:50:03.391835+00:00,11.274,11.838,,9.045,-4.174,,,,
2025-10-17T17:50:03.997935+00:00,11.268,11.062,,6.487,-4.806,,,,
2025-10-17T17:50:04.603816+00:00,11.261,9.908,,2.781,-4.999,,,,
2025-10-17T17:50:05.211128+00:00,11.254,8.784,,-1.428,-4.735,,,,
2025-10-17T17:50:05.819813+00:00,11.246,8.094,,-5.391,-4.037,,,,
2025-10-17T17:50:06.434273+00:00,11.237,8.093,,-8.412,-2.956,,,,
2025-10-17T17:50:07.039644+00:00,11.228,8.775,,-9.891,-1.619,,,,
2025-10-17T17:50:07.647074+00:00,11.218,9.896,,-9.617,-0.130,,,,
2025-10-17T17:50:08.249817+00:00,11.208,11.046,,-7.651,1.359,,,,
2025-10-17T17:50:08.861426+00:00,11.198,11.835,,-4.287,2.745,,,,
2025-10-17T17:50:09.469182+00:00,11.187,11.960,,-0.176,3.870,,,,
2025-10-17T17:50:10.082436+00:00,11.176,11.375,,4.001,4.645,,,,
2025-10-17T17:50:10.685745+00:00,11.165,10.309,,7.406,4.985,,,,
2025-10-17T17:50:11.293130+00:00,11.153,9.126,,9.518,4.873,,,,
2025-10-17T17:50:11.895866+00:00,11.141,8.260,,9.939,4.320,,,,
2025-10-17T17:50:12.506371+00:00,11.129,8.009,,8.589,3.364,,,,
2025-10-17T17:50:13.114385+00:00,11.117,8.474,,5.709,2.102,,,,
2025-10-17T17:50:13.720803+00:00,11.105,9.483,,1.821,0.652,,,,
2025-10-17T17:50:14.328330+00:00,11.093,10.678,,-2.398,-0.861,,,,
2025-10-17T17:50:14.937742+00:00,11.081,11.633,,-6.200,-2.299,,,,
2025-10-17T17:50:15.540688+00:00,11.069,12.000,,-8.870,-3.513,,,,
2025-10-17T17:50:16.146073+00:00,11.057,11.659,,-9.984,-4.414,,,,
2025-10-17T17:50:16.753354+00:00,11.045,10.724,,-9.327,-4.914,,,,
2025-10-17T17:50:17.365887+00:00,11.034,9.521,,-6.984,-4.963,,,,
2025-10-17T17:50:17.973808+00:00,11.022,8.498,,-3.406,-4.555,,,,
2025-10-17T17:50:18.582307+00:00,11.011,8.013,,0.783,-3.729,,,,
2025-10-17T17:50:19.184765+00:00,11.001,8.235,,4.795,-2.572,,,,
2025-10-17T17:50:19.791976+00:00,10.990,9.088,,7.987,-1.173,,,,
2025-10-17T17:50:20.398612+00:00,10.980,10.265,,9.757,0.332,,,,
2025-10-17T17:50:21.018035+00:00,10.971,11.367,,9.775,1.837,,,,
2025-10-17T17:50:21.626024+00:00,10.962,11.956,,8.032,3.145,,,,
2025-10-17T17:50:22.233751+00:00,10.953,11.844,,4.857,4.164,,,,
2025-10-17T17:50:22.838369+00:00,10.945,11.077,,0.839,4.799,,,,
2025-10-17T17:50:23.443810+00:00,10.938,9.927,,-3.333,4.999,,,,
2025-10-17T17:50:24.049798+00:00,10.931,8.801,,-6.918,4.744,,,,
2025-10-17T17:50:24.662764+00:00,10.925,8.099,,-9.295,4.047,,,,
2025-10-17T17:50:25.265762+00:00,10.919,8.082,,-9.990,2.992,,,,
2025-10-17T17:50:26.377743+00:00,10.911,9.660,,-6.802,0.427,,,,
2025-10-17T17:50:26.980817+00:00,10.907,10.838,,-3.201,-1.072,,,,
2025-10-17T17:50:27.587977+00:00,10.904,11.724,,0.990,-2.483,,,,
2025-10-17T17:50:28.196955+00:00,10.902,11.994,,5.016,-3.670,,,,
2025-10-17T17:50:28.805454+00:00,10.901,11.548,,8.142,-4.519,,,,
2025-10-17T17:50:29.413336+00:00,10.900,10.547,,9.813,-4.952,,,,
2025-10-17T17:50:30.020414+00:00,10.900,9.352,,9.734,-4.932,,,,
2025-10-17T17:50:30.628536+00:00,10.901,8.387,,7.920,-4.460,,,,
2025-10-17T17:50:31.230976+00:00,10.902,8.001,,4.727,-3.588,,,,
2025-10-17T17:50:31.837328+00:00,10.905,8.323,,0.678,-2.385,,,,
2025-10-17T17:50:32.449456+00:00,10.908,9.254,,-3.528,-0.950,,,,
2025-10-17T17:50:33.055521+00:00,10.911,10.443,,-7.067,0.558,,,,
2025-10-17T17:50:33.663907+00:00,10.916,11.479,,-9.359,2.020,,,,
2025-10-17T17:50:34.268981+00:00,10.921,11.982,,-9.980,3.291,,,,
2025-10-17T17:50:34.876132+00:00,10.926,11.780,,-8.830,4.266,,,,
2025-10-17T17:50:35.482369+00:00,10.933,10.943,,-6.115,4.850,,,,
2025-10-17T17:50:36.088420+00:00,10.940,9.771,,-2.316,4.992,,,,
2025-10-17T17:50:36.697031+00:00,10.947,8.676,,1.911,4.676,,,,
2025-10-17T17:50:37.309332+00:00,10.955,8.055,,5.818,3.926,,,,
2025-10-17T17:50:37.917298+00:00,10.964,8.138,,8.657,2.819,,,,
2025-10-17T17:50:38.520611+00:00,10.973,8.880,,9.948,1.464,,,,
2025-10-17T17:50:39.122926+00:00,10.983,10.016,,9.493,-0.020,,,,
2025-10-17T17:50:39.733582+00:00,10.993,11.160,,7.337,-1.522,,,,
2025-10-17T17:50:40.344674+00:00,11.003,11.885,,3.857,-2.884,,,,
2025-10-17T17:50:40.952132+00:00,11.014,11.930,,-0.293,-3.974,,,,
2025-10-17T17:50:41.555697+00:00,11.025,11.290,,-4.366,-4.696,,,,
2025-10-17T17:50:42.164734+00:00,11.036,10.184,,-7.695,-4.995,,,,
2025-10-17T17:50:42.770494+00:00,11.048,9.017,,-9.641,-4.836,,,,
2025-10-17T17:50:43.376795+00:00,11.060,8.200,,-9.879,-4.236,,,,
2025-10-17T17:50:43.984913+00:00,11.072,8.025,,-8.357,-3.247,,,,
2025-10-17T17:50:44.592319+00:00,11.084,8.557,,-5.347,-1.961,,,,
2025-10-17T17:50:45.203199+00:00,11.096,9.612,,-1.361,-0.487,,,,
2025-10-17T17:50:45.808165+00:00,11.108,10.797,,2.830,1.018,,,,
2025-10-17T17:50:46.411310+00:00,11.120,11.697,,6.512,2.426,,,,
2025-10-17T17:50:47.018352+00:00,11.132,11.998,,9.061,3.622,,,,
2025-10-17T17:50:47.627515+00:00,11.144,11.582,,9.999,4.489,,,,
2025-10-17T17:50:48.235938+00:00,11.156,10.599,,9.149,4.942,,,,
2025-10-17T17:50:48.843624+00:00,11.168,9.402,,6.668,4.942,,,,
2025-10-17T17:50:49.453595+00:00,11.179,8.416,,2.983,4.487,,,,
2025-10-17T17:50:50.059633+00:00,11.190,8.003,,-1.210,3.625,,,,
2025-10-17T17:50:50.662447+00:00,11.200,8.297,,-5.170,2.439,,,,
2025-10-17T17:50:51.269128+00:00,11.211,9.198,,-8.238,1.024,,,,
2025-10-17T17:50:51.881271+00:00,11.221,10.397,,-9.848,-0.499,,,,
2025-10-17T17:50:52.491724+00:00,11.230,11.449,,-9.682,-1.971,,,,
2025-10-17T17:50:53.095026+00:00,11.239,11.975,,-7.805,-3.247,,,,
2025-10-17T17:50:53.699889+00:00,11.248,11.803,,-4.547,-4.232,,,,
2025-10-17T17:50:54.307031+00:00,11.256,10.987,,-0.470,-4.834,,,,
2025-10-17T17:50:54.919024+00:00,11.263,9.808,,3.722,-4.994,,,,
2025-10-17T17:50:55.526818+00:00,11.270,8.706,,7.221,-4.694,,,,
2025-10-17T17:50:56.130184+00:00,11.276,8.069,,9.422,-3.970,,,,
2025-10-17T17:50:56.748698+00:00,11.281,8.125,,9.958,-2.856,,,,
2025-10-17T17:50:57.359240+00:00,11.286,8.862,,8.685,-1.491,,,,
2025-10-17T17:50:57.962595+00:00,11.290,9.996,,5.890,-0.005,,,,
2025-10-17T17:50:58.565889+00:00,11.294,11.131,,2.060,1.481,,,,
2025-10-17T17:50:59.174923+00:00,11.296,11.871,,-2.171,2.844,,,,
2025-10-17T17:50:59.787290+00:00,11.298,11.937,,-6.032,3.952,,,,
2025-10-17T17:51:00.393851+00:00,11.299,11.307,,-8.782,4.686,,,,
2025-10-17T17:51:00.999225+00:00,11.300,10.214,,-9.972,4.993,,,,
2025-10-17T17:51:02.106717+00:00,11.299,8.317,,-7.646,4.387,,,,
2025-10-17T17:51:02.715823+00:00,11.297,8.002,,-4.296,3.466,,,,
2025-10-17T17:51:03.324035+00:00,11.295,8.404,,-0.183,2.228,,,,
2025-10-17T17:51:03.931082+00:00,11.292,9.377,,3.955,0.789,,,,
2025-10-17T17:51:04.539706+00:00,11.288,10.575,,7.397,-0.727,,,,
2025-10-17T17:51:05.147642+00:00,11.284,11.566,,9.515,-2.174,,,,
2025-10-17T17:51:05.750413+00:00,11.279,11.995,,9.940,-3.413,,,,
2025-10-17T17:51:06.360127+00:00,11.273,11.714,,8.597,-4.352,,,,
2025-10-17T17:51:06.970387+00:00,11.267,10.814,,5.708,-4.891,,,,
2025-10-17T17:51:07.581202+00:00,11.260,9.619,,1.790,-4.977,,,,
2025-10-17T17:51:08.189229+00:00,11.252,8.566,,-2.432,-4.606,,,,
2025-10-17T17:51:08.796012+00:00,11.244,8.027,,-6.213,-3.814,,,,
2025-10-17T17:51:09.399629+00:00,11.235,8.190,,-8.880,-2.680,,,,
2025-10-17T17:51:10.006964+00:00,11.226,8.999,,-9.986,-1.295,,,,
2025-10-17T17:51:10.609704+00:00,11.216,10.157,,-9.326,0.197,,,,
2025-10-17T17:51:11.220357+00:00,11.206,11.272,,-6.991,1.689,,,,
2025-10-17T17:51:11.828301+00:00,11.196,11.926,,-3.415,3.021,,,,
2025-10-17T17:51:12.435237+00:00,11.185,11.890,,0.762,4.073,,,,
2025-10-17T17:51:13.057111+00:00,11.173,11.155,,4.896,4.765,,,,
2025-10-17T17:51:13.666435+00:00,11.162,10.012,,8.065,5.000,,,,
2025-10-17T17:51:14.274294+00:00,11.150,8.868,,9.786,4.775,,,,
2025-10-17T17:51:14.910844+00:00,11.138,8.110,,9.717,4.072,,,,
2025-10-17T17:51:15.513708+00:00,11.126,8.073,,7.897,3.027,,,,
2025-10-17T17:51:15.973952+00:00,11.117,8.510,,5.549,2.039,,,,
2025-10-17T17:51:16.580395+00:00,11.105,9.537,,1.629,0.583,,,,
2025-10-17T17:51:17.186214+00:00,11.093,10.727,,-2.575,-0.925,,,,
2025-10-17T17:51:17.789413+00:00,11.081,11.656,,-6.308,-2.343,,,,
2025-10-17T17:51:18.395216+00:00,11.069,12.000,,-8.942,-3.554,,,,
2025-10-17T17:51:19.007411+00:00,11.056,11.625,,-9.994,-4.448,,,,
2025-10-17T17:51:19.618439+00:00,11.045,10.662,,-9.241,-4.929,,,,
2025-10-17T17:51:20.221182+00:00,11.033,9.475,,-6.865,-4.956,,,,
2025-10-17T17:51:20.826532+00:00,11.022,8.470,,-3.269,-4.534,,,,
2025-10-17T17:51:21.433454+00:00,11.011,8.009,,0.917,-3.696,,,,
2025-10-17T17:51:22.044604+00:00,11.000,8.262,,4.966,-2.512,,,,
2025-10-17T17:51:22.653185+00:00,10.990,9.140,,8.109,-1.101,,,,
2025-10-17T17:51:23.256012+00:00,10.980,10.316,,9.794,0.396,,,,
2025-10-17T17:51:23.869764+00:00,10.970,11.396,,9.745,1.883,,,,
2025-10-17T17:51:24.477724+00:00,10.961,11.964,,7.948,3.183,,,,
2025-10-17T17:51:25.080713+00:00,10.953,11.832,,4.765,4.185,,,,
2025-10-17T17:51:25.684157+00:00,10.945,11.054,,0.742,4.809,,,,
2025-10-17T17:51:26.294482+00:00,10.938,9.889,,-3.457,4.998,,,,
2025-10-17T17:51:26.905476+00:00,10.931,8.764,,-7.038,4.725,,,,
2025-10-17T17:51:27.513508+00:00,10.925,8.087,,-9.343,4.019,,,,
2025-10-17T17:51:28.118553+00:00,10.919,8.095,,-9.983,2.950,,,,
2025-10-17T17:51:28.725564+00:00,10.914,8.782,,-8.852,1.608,,,,
2025-10-17T17:51:29.331583+00:00,10.910,9.902,,-6.152,0.123,,,,
2025-10-17T17:51:29.937765+00:00,10.907,11.058,,-2.360,-1.375,,,,
2025-10-17T17:51:30.546281+00:00,10.904,11.838,,1.866,-2.752,,,,
2025-10-17T17:51:31.158549+00:00,10.902,11.957,,5.780,-3.882,,,,
2025-10-17T17:51:31.764729+00:00,10.901,11.374,,8.627,-4.646,,,,
2025-10-17T17:51:32.370016+00:00,10.900,10.303,,9.943,-4.986,,,,
2025-10-17T17:51:32.979507+00:00,10.900,9.117,,9.492,-4.870,,,,
2025-10-17T17:51:33.590027+00:00,10.901,8.248,,7.334,-4.304,,,,
2025-10-17T17:51:34.200227+00:00,10.903,8.011,,3.859,-3.341,,,,
2025-10-17T17:51:34.811621+00:00,10.905,8.495,,-0.318,-2.066,,,,
2025-10-17T17:51:35.419154+00:00,10.908,9.516,,-4.413,-0.610,,,,
2025-10-17T17:51:36.030064+00:00,10.912,10.716,,-7.737,0.911,,,,
2025-10-17T17:51:36.635579+00:00,10.917,11.652,,-9.658,2.335,,,,
2025-10-17T17:51:37.740400+00:00,10.927,11.750,,-8.722,4.308,,,,
2025-10-17T17:51:38.351233+00:00,10.933,10.877,,-5.908,4.872,,,,
2025-10-17T17:51:38.959822+00:00,10.940,9.692,,-2.046,4.985,,,,
2025-10-17T17:51:39.572704+00:00,10.948,8.612,,2.211,4.636,,,,
2025-10-17T17:51:40.177934+00:00,10.956,8.039,,6.025,3.868,,,,
2025-10-17T17:51:40.785243+00:00,10.964,8.165,,8.780,2.744,,,,
2025-10-17T17:51:41.388072+00:00,10.974,8.940,,9.970,1.379,,,,
2025-10-17T17:51:42.001374+00:00,10.983,10.109,,9.386,-0.136,,,,
2025-10-17T17:51:42.609292+00:00,10.993,11.230,,7.125,-1.626,,,,
2025-10-17T17:51:43.222718+00:00,11.004,11.914,,3.556,-2.977,,,,
2025-10-17T17:51:43.826145+00:00,11.015,11.906,,-0.588,-4.037,,,,
2025-10-17T17:51:44.433706+00:00,11.026,11.218,,-4.654,-4.734,,,,
2025-10-17T17:51:45.036650+00:00,11.037,10.104,,-7.871,-4.998,,,,
2025-10-17T17:51:45.647389+00:00,11.049,8.940,,-9.720,-4.806,,,,
2025-10-17T17:51:46.255378+00:00,11.061,8.161,,-9.823,-4.173,,,,
2025-10-17T17:51:46.861564+00:00,11.073,8.041,,-8.180,-3.161,,,,
2025-10-17T17:51:47.469391+00:00,11.085,8.621,,-5.077,-1.856,,,,
2025-10-17T17:51:48.078446+00:00,11.097,9.698,,-1.060,-0.379,,,,
2025-10-17T17:51:48.681643+00:00,11.109,10.873,,3.108,1.119,,,,
2025-10-17T17:51:49.287115+00:00,11.121,11.742,,6.742,2.521,,,,
2025-10-17T17:51:49.894113+00:00,11.133,11.991,,9.187,3.696,,,,
2025-10-17T17:51:50.507439+00:00,11.145,11.521,,9.997,4.540,,,,
2025-10-17T17:51:51.115178+00:00,11.157,10.508,,9.010,4.959,,,,
2025-10-17T17:51:51.725384+00:00,11.168,9.307,,6.403,4.922,,,,
2025-10-17T17:51:52.327768+00:00,11.180,8.366,,2.699,4.440,,,,
2025-10-17T17:51:52.934879+00:00,11.191,8.000,,-1.511,3.549,,,,
2025-10-17T17:51:53.541552+00:00,11.201,8.348,,-5.450,2.335,,,,
2025-10-17T17:51:54.152002+00:00,11.212,9.293,,-8.435,0.898,,,,
2025-10-17T17:51:54.759717+00:00,11.222,10.488,,-9.900,-0.614,,,,
2025-10-17T17:51:55.367451+00:00,11.231,11.508,,-9.600,-2.071,,,,
2025-10-17T17:51:55.972288+00:00,11.240,11.988,,-7.602,-3.332,,,,
2025-10-17T17:51:56.580928+00:00,11.248,11.758,,-4.238,-4.296,,,,
2025-10-17T17:51:57.187044+00:00,11.256,10.902,,-0.134,-4.864,,,,
2025-10-17T17:51:57.800785+00:00,11.264,9.709,,4.043,-4.987,,,,
2025-10-17T17:51:58.403913+00:00,11.270,8.638,,7.436,-4.653,,,,
2025-10-17T17:51:59.016231+00:00,11.276,8.044,,9.542,-3.886,,,,
2025-10-17T17:51:59.621459+00:00,11.282,8.155,,9.928,-2.772,,,,
2025-10-17T17:52:00.228607+00:00,11.286,8.924,,8.552,-1.401,,,,
2025-10-17T17:52:00.831575+00:00,11.290,10.070,,5.678,0.088,,,,
2025-10-17T17:52:01.441046+00:00,11.294,11.202,,1.762,1.584,,,,
2025-10-17T17:52:02.050424+00:00,11.296,11.900,,-2.468,2.933,,,,
2025-10-17T17:52:02.662795+00:00,11.298,11.913,,-6.273,4.017,,,,
2025-10-17T17:52:03.268148+00:00,11.300,11.242,,-8.920,4.722,,,,
2025-10-17T17:52:03.873430+00:00,11.300,10.129,,-9.990,4.997,,,,
2025-10-17T17:52:04.476032+00:00,11.300,8.975,,-9.299,4.820,,,,
2025-10-17T17:52:05.086737+00:00,11.299,8.176,,-6.938,4.198,,,,
2025-10-17T17:52:05.697399+00:00,11.297,8.035,,-3.329,3.187,,,,
2025-10-17T17:52:06.308698+00:00,11.294,8.606,,0.885,1.880,,,,
2025-10-17T17:52:06.911752+00:00,11.291,9.666,,4.888,0.419,,,,
2025-10-17T17:52:07.521086+00:00,11.287,10.854,,8.060,-1.095,,,,
2025-10-17T17:52:08.124235+00:00,11.283,11.729,,9.778,-2.494,,,,
2025-10-17T17:52:08.743453+00:00,11.277,11.991,,9.754,-3.696,,,,
2025-10-17T17:52:09.351478+00:00,11.271,11.528,,7.974,-4.535,,,,
2025-10-17T17:52:09.959007+00:00,11.265,10.519,,4.775,-4.957,,,,
2025-10-17T17:52:10.565585+00:00,11.258,9.325,,0.731,-4.926,,,,
2025-10-17T17:52:11.176595+00:00,11.250,8.367,,-3.472,-4.440,,,,
2025-10-17T17:52:11.780002+00:00,11.242,8.000,,-7.011,-3.557,,,,
2025-10-17T17:52:12.386917+00:00,11.233,8.344,,-9.327,-2.344,,,,
2025-10-17T17:52:12.992594+00:00,11.223,9.276,,-9.985,-0.920,,,,
2025-10-17T17:52:14.107827+00:00,11.205,11.356,,-6.707,1.820,,,,
2025-10-17T17:52:14.711050+00:00,11.195,11.951,,-3.078,3.121,,,,
2025-10-17T17:52:15.318367+00:00,11.184,11.854,,1.120,4.146,,,,
2025-10-17T17:52:15.926018+00:00,11.173,11.093,,5.120,4.792,,,,
2025-10-17T17:52:16.529377+00:00,11.161,9.950,,8.191,5.000,,,,
2025-10-17T17:52:17.132022+00:00,11.150,8.826,,9.822,4.756,,,,
2025-10-17T17:52:17.743960+00:00,11.138,8.109,,9.715,4.070,,,,
2025-10-17T17:52:18.355152+00:00,11.126,8.078,,7.856,3.008,,,,
2025-10-17T17:52:18.962743+00:00,11.114,8.737,,4.603,1.675,,,,
2025-10-17T17:52:19.568416+00:00,11.102,9.845,,0.543,0.194,,,,
2025-10-17T17:52:20.175117+00:00,11.089,11.009,,-3.619,-1.307,,,,
2025-10-17T17:52:20.780768+00:00,11.077,11.813,,-7.134,-2.687,,,,
2025-10-17T17:52:21.387494+00:00,11.065,11.971,,-9.388,-3.824,,,,
2025-10-17T17:52:21.995275+00:00,11.053,11.424,,-9.973,-4.613,,,,
2025-10-17T17:52:22.607427+00:00,11.042,10.359,,-8.765,-4.980,,,,
2025-10-17T17:52:23.213801+00:00,11.030,9.173,,-6.005,-4.887,,,,
2025-10-17T17:52:23.818627+00:00,11.019,8.284,,-2.190,-4.350,,,,
2025-10-17T17:52:24.421763+00:00,11.008,8.004,,2.000,-3.422,,,,
2025-10-17T17:52:25.031935+00:00,10.997,8.437,,5.879,-2.169,,,,
2025-10-17T17:52:25.643095+00:00,10.987,9.435,,8.706,-0.713,,,,
2025-10-17T17:52:26.246363+00:00,10.977,10.624,,9.958,0.789,,,,
2025-10-17T17:52:26.853829+00:00,10.968,11.597,,9.451,2.230,,,,
2025-10-17T17:52:27.463686+00:00,10.959,11.999,,7.249,3.471,,,,
2025-10-17T17:52:28.069534+00:00,10.951,11.684,,3.772,4.386,,,,
2025-10-17T17:52:28.672364+00:00,10.943,10.776,,-0.352,4.901,,,,
2025-10-17T17:52:29.279174+00:00,10.936,9.586,,-4.439,4.973,,,,
2025-10-17T17:52:29.892791+00:00,10.929,8.535,,-7.768,4.584,,,,
2025-10-17T17:52:30.503529+00:00,10.923,8.019,,-9.680,3.771,,,,
2025-10-17T17:52:31.108971+00:00,10.918,8.214,,-9.856,2.621,,,,
2025-10-17T17:52:31.711561+00:00,10.913,9.040,,-8.299,1.239,,,,
2025-10-17T17:52:32.318777+00:00,10.909,10.212,,-5.260,-0.266,,,,
2025-10-17T17:52:32.927828+00:00,10.906,11.312,,-1.272,-1.751,,,,
2025-10-17T17:52:33.535916+00:00,10.903,11.939,,2.937,-3.072,,,,
2025-10-17T17:52:34.144039+00:00,10.901,11.871,,6.622,-4.113,,,,
2025-10-17T17:52:34.751027+00:00,10.900,11.134,,9.122,-4.774,,,,
2025-10-17T17:52:35.358982+00:00,10.900,9.990,,10.000,-5.000,,,,
2025-10-17T17:52:35.962299+00:00,10.900,8.857,,9.107,-4.771,,,,
2025-10-17T17:52:36.570280+00:00,10.901,8.124,,6.590,-4.104,,,,
2025-10-17T17:52:37.182867+00:00,10.903,8.066,,2.865,-3.051,,,,
2025-10-17T17:52:37.789249+00:00,10.906,8.702,,-1.335,-1.729,,,,
2025-10-17T17:52:38.398419+00:00,10.909,9.806,,-5.314,-0.243,,,,
2025-10-17T17:52:39.003913+00:00,10.913,10.973,,-8.328,1.257,,,,
2025-10-17T17:52:39.610952+00:00,10.918,11.796,,-9.869,2.646,,,,
2025-10-17T17:52:40.216713+00:00,10.923,11.977,,-9.658,3.791,,,,
2025-10-17T17:52:40.823208+00:00,10.929,11.454,,-7.733,4.592,,,,
2025-10-17T17:52:41.430955+00:00,10.936,10.410,,-4.426,4.973,,,,
2025-10-17T17:52:42.043287+00:00,10.943,9.210,,-0.299,4.897,,,,
2025-10-17T17:52:42.652055+00:00,10.951,8.301,,3.859,4.370,,,,
2025-10-17T17:52:43.254443+00:00,10.959,8.002,,7.297,3.453,,,,
2025-10-17T17:52:43.857515+00:00,10.968,8.407,,9.458,2.223,,,,
2025-10-17T17:52:44.474698+00:00,10.978,9.401,,9.949,0.757,,,,
2025-10-17T17:52:45.085670+00:00,10.987,10.604,,8.633,-0.764,,,,
2025-10-17T17:52:45.693528+00:00,10.998,11.585,,5.780,-2.208,,,,
2025-10-17T17:52:46.297152+00:00,11.008,11.997,,1.926,-3.442,,,,
2025-10-17T17:52:46.905161+00:00,11.019,11.699,,-2.297,-4.370,,,,
2025-10-17T17:52:47.511488+00:00,11.030,10.795,,-6.101,-4.896,,,,
2025-10-17T17:52:48.116905+00:00,11.042,9.610,,-8.820,-4.976,,,,
2025-10-17T17:52:48.724420+00:00,11.054,8.560,,-9.979,-4.601,,,,
2025-10-17T17:52:49.832186+00:00,11.075,8.115,,-7.584,-2.884,,,,
2025-10-17T17:52:50.443374+00:00,11.088,8.840,,-4.196,-1.522,,,,
2025-10-17T17:52:51.048638+00:00,11.100,9.973,,-0.093,-0.033,,,,
2025-10-17T17:52:51.655387+00:00,11.112,11.118,,4.035,1.462,,,,
2025-10-17T17:52:52.258850+00:00,11.124,11.862,,7.432,2.817,,,,
2025-10-17T17:52:52.867499+00:00,11.136,11.945,,9.533,3.925,,,,
2025-10-17T17:52:53.477165+00:00,11.148,11.328,,9.928,4.674,,,,
2025-10-17T17:52:54.089139+00:00,11.160,10.228,,8.535,4.992,,,,
2025-10-17T17:52:54.694019+00:00,11.171,9.058,,5.640,4.850,,,,
2025-10-17T17:52:55.299592+00:00,11.182,8.221,,1.744,4.268,,,,
2025-10-17T17:52:55.902558+00:00,11.193,8.016,,-2.443,3.302,,,,
2025-10-17T17:52:56.512866+00:00,11.204,8.521,,-6.241,2.021,,,,
2025-10-17T17:52:57.121723+00:00,11.214,9.557,,-8.913,0.557,,,,
2025-10-17T17:52:57.732274+00:00,11.224,10.755,,-9.991,-0.962,,,,
2025-10-17T17:52:58.335464+00:00,11.233,11.672,,-9.290,-2.376,,,,
2025-10-17T17:52:58.945065+00:00,11.242,11.999,,-6.926,-3.587,,,,
2025-10-17T17:52:59.547849+00:00,11.250,11.614,,-3.364,-4.459,,,,
2025-10-17T17:53:00.156967+00:00,11.258,10.648,,0.832,-4.932,,,,
2025-10-17T17:53:00.759947+00:00,11.265,9.460,,4.841,-4.953,,,,
2025-10-17T17:53:01.372868+00:00,11.272,8.451,,8.043,-4.517,,,,
2025-10-17T17:53:01.981266+00:00,11.278,8.006,,9.779,-3.668,,,,
2025-10-17T17:53:02.589378+00:00,11.283,8.276,,9.769,-2.482,,,,
2025-10-17T17:53:03.192060+00:00,11.287,9.155,,8.038,-1.082,,,,
2025-10-17T17:53:03.799384+00:00,11.291,10.340,,4.870,0.427,,,,
2025-10-17T17:53:04.405641+00:00,11.294,11.403,,0.841,1.895,,,,
2025-10-17T17:53:05.017108+00:00,11.297,11.967,,-3.371,3.199,,,,
2025-10-17T17:53:05.625155+00:00,11.299,11.821,,-6.957,4.203,,,,
2025-10-17T17:53:06.232591+00:00,11.300,11.024,,-9.301,4.821,,,,
2025-10-17T17:53:06.838514+00:00,11.300,9.863,,-9.988,4.997,,,,
2025-10-17T17:53:07.444397+00:00,11.300,8.751,,-8.906,4.718,,,,
2025-10-17T17:53:08.050659+00:00,11.298,8.084,,-6.244,4.009,,,,
2025-10-17T17:53:08.664850+00:00,11.296,8.104,,-2.419,2.919,,,,
2025-10-17T17:53:09.267708+00:00,11.294,8.799,,1.767,1.582,,,,
2025-10-17T17:53:09.878417+00:00,11.290,9.934,,5.689,0.083,,,,
2025-10-17T17:53:10.483938+00:00,11.286,11.083,,8.568,-1.411,,,,
2025-10-17T17:53:11.090761+00:00,11.282,11.849,,9.932,-2.780,,,,
2025-10-17T17:53:11.694227+00:00,11.276,11.955,,9.537,-3.890,,,,
2025-10-17T17:53:12.303337+00:00,11.270,11.363,,7.440,-4.653,,,,
2025-10-17T17:53:12.911532+00:00,11.263,10.282,,4.016,-4.987,,,,
2025-10-17T17:53:13.523917+00:00,11.256,9.093,,-0.154,-4.862,,,,
2025-10-17T17:53:14.128890+00:00,11.248,8.240,,-4.249,-4.294,,,,
2025-10-17T17:53:14.734610+00:00,11.240,8.012,,-7.597,-3.335,,,,
2025-10-17T17:53:15.337382+00:00,11.231,8.488,,-9.594,-2.078,,,,
2025-10-17T17:53:15.947947+00:00,11.222,9.511,,-9.900,-0.615,,,,
2025-10-17T17:53:16.556735+00:00,11.212,10.708,,-8.432,0.900,,,,
2025-10-17T17:53:17.167306+00:00,11.201,11.653,,-5.445,2.337,,,,
2025-10-17T17:53:17.770516+00:00,11.191,12.000,,-1.530,3.544,,,,
2025-10-17T17:53:18.380553+00:00,11.180,11.634,,2.700,4.440,,,,
2025-10-17T17:53:18.983261+00:00,11.168,10.692,,6.406,4.922,,,,
2025-10-17T17:53:19.592384+00:00,11.157,9.493,,9.008,4.959,,,,
2025-10-17T17:53:20.209317+00:00,11.145,8.467,,9.999,4.531,,,,
2025-10-17T17:53:20.815129+00:00,11.133,8.008,,9.184,3.694,,,,
2025-10-17T17:53:21.431151+00:00,11.121,8.268,,6.689,2.499,,,,
2025-10-17T17:53:22.039036+00:00,11.109,9.150,,3.024,1.088,,,,
2025-10-17T17:53:22.642201+00:00,11.097,10.327,,-1.147,-0.410,,,,
2025-10-17T17:53:23.245426+00:00,11.085,11.389,,-5.118,-1.872,,,,
2025-10-17T17:53:23.855854+00:00,11.073,11.963,,-8.218,-3.179,,,,
2025-10-17T17:53:24.465816+00:00,11.061,11.829,,-9.840,-4.191,,,,
2025-10-17T17:53:25.573756+00:00,11.039,10.091,,-8.274,-4.999,,,,
2025-10-17T17:53:26.180442+00:00,11.028,8.936,,-5.225,-4.805,,,,
2025-10-17T17:53:26.782761+00:00,11.017,8.164,,-1.278,-4.178,,,,
2025-10-17T17:53:27.386734+00:00,11.006,8.038,,2.903,-3.172,,,,
2025-10-17T17:53:27.991441+00:00,10.995,8.608,,6.578,-1.877,,,,
2025-10-17T17:53:28.600636+00:00,10.985,9.680,,9.104,-0.401,,,,
2025-10-17T17:53:29.206372+00:00,10.975,10.861,,10.000,1.104,,,,
2025-10-17T17:53:29.812326+00:00,10.966,11.736,,9.124,2.509,,,,
2025-10-17T17:53:30.414329+00:00,10.957,11.993,,6.652,3.678,,,,
2025-10-17T17:53:31.021333+00:00,10.949,11.543,,2.982,4.522,,,,
2025-10-17T17:53:31.628014+00:00,10.941,10.542,,-1.216,4.953,,,,
2025-10-17T17:53:32.239070+00:00,10.934,9.340,,-5.224,4.929,,,,
2025-10-17T17:53:32.846910+00:00,10.928,8.380,,-8.278,4.453,,,,
2025-10-17T17:53:33.454570+00:00,10.922,8.000,,-9.855,3.569,,,,
2025-10-17T17:53:34.059684+00:00,10.917,8.334,,-9.681,2.363,,,,
2025-10-17T17:53:34.665907+00:00,10.912,9.261,,-7.791,0.940,,,,
2025-10-17T17:53:35.272005+00:00,10.908,10.452,,-4.519,-0.568,,,,
2025-10-17T17:53:35.884366+00:00,10.905,11.489,,-0.403,-2.039,,,,
2025-10-17T17:53:36.487765+00:00,10.903,11.984,,3.729,-3.303,,,,
2025-10-17T17:53:37.100384+00:00,10.901,11.769,,7.249,-4.281,,,,
2025-10-17T17:53:37.705587+00:00,10.900,10.924,,9.440,-4.857,,,,
2025-10-17T17:53:38.312871+00:00,10.900,9.747,,9.961,-4.990,,,,
2025-10-17T17:53:38.915650+00:00,10.901,8.667,,8.723,-4.671,,,,
2025-10-17T17:53:39.526949+00:00,10.902,8.053,,5.908,-3.917,,,,
2025-10-17T17:53:40.134578+00:00,10.904,8.141,,2.052,-2.809,,,,
2025-10-17T17:53:40.746661+00:00,10.907,8.903,,-2.199,-1.432,,,,
2025-10-17T17:53:41.352118+00:00,10.910,10.049,,-6.017,0.062,,,,
2025-10-17T17:53:41.957391+00:00,10.914,11.178,,-8.768,1.549,,,,
2025-10-17T17:53:42.560140+00:00,10.919,11.887,,-9.968,2.890,,,,
2025-10-17T17:53:43.170969+00:00,10.924,11.926,,-9.401,3.983,,,,
2025-10-17T17:53:43.779280+00:00,10.930,11.273,,-7.153,4.706,,,,
2025-10-17T17:53:44.390776+00:00,10.937,10.156,,-3.606,4.996,,,,
2025-10-17T17:53:44.994020+00:00,10.945,8.998,,0.533,4.829,,,,
2025-10-17T17:53:45.603384+00:00,10.953,8.188,,4.617,4.217,,,,
2025-10-17T17:53:46.206547+00:00,10.961,8.028,,7.846,3.229,,,,
2025-10-17T17:53:46.815435+00:00,10.970,8.572,,9.707,1.936,,,,
2025-10-17T17:53:47.418482+00:00,10.979,9.618,,9.839,0.480,,,,
2025-10-17T17:53:48.032821+00:00,10.989,10.819,,8.198,-1.048,,,,
2025-10-17T17:53:48.640707+00:00,11.000,11.715,,5.104,-2.463,,,,
2025-10-17T17:53:49.250013+00:00,11.010,11.995,,1.089,-3.655,,,,
2025-10-17T17:53:49.852543+00:00,11.021,11.566,,-3.076,-4.502,,,,
2025-10-17T17:53:50.459987+00:00,11.033,10.576,,-6.727,-4.947,,,,
2025-10-17T17:53:51.066876+00:00,11.044,9.381,,-9.179,-4.938,,,,
2025-10-17T17:53:51.681360+00:00,11.056,8.398,,-9.998,-4.470,,,,
2025-10-17T17:53:52.290551+00:00,11.068,8.001,,-9.011,-3.593,,,,
2025-10-17T17:53:52.898433+00:00,11.080,8.322,,-6.418,-2.387,,,,
2025-10-17T17:53:53.503429+00:00,11.092,9.239,,-2.699,-0.970,,,,
2025-10-17T17:53:54.109462+00:00,11.104,10.428,,1.504,0.538,,,,
2025-10-17T17:53:54.715513+00:00,11.116,11.465,,5.440,1.997,,,,
2025-10-17T17:53:55.329387+00:00,11.129,11.982,,8.441,3.289,,,,
2025-10-17T17:53:55.932951+00:00,11.141,11.785,,9.897,4.259,,,,
2025-10-17T17:53:56.550861+00:00,11.153,10.932,,9.585,4.854,,,,
2025-10-17T17:53:57.156144+00:00,11.164,9.759,,7.565,4.991,,,,
2025-10-17T17:53:57.763428+00:00,11.175,8.669,,4.195,4.672,,,,
2025-10-17T17:53:58.366262+00:00,11.186,8.057,,0.109,3.933,,,,
2025-10-17T17:53:58.974154+00:00,11.197,8.134,,-4.028,2.829,,,,
2025-10-17T17:53:59.581182+00:00,11.208,8.878,,-7.443,1.468,,,,
2025-10-17T17:54:00.191864+00:00,11.218,10.030,,-9.542,-0.037,,,,
2025-10-17T17:54:00.796443+00:00,11.227,11.161,,-9.929,-1.524,,,,
2025-10-17T17:54:01.903276+00:00,11.244,11.976,,-6.261,-3.799,,,,
2025-10-17T17:54:02.509862+00:00,11.252,11.447,,-2.493,-4.597,,,,
2025-10-17T17:54:03.122115+00:00,11.259,10.390,,1.757,-4.976,,,,
2025-10-17T17:54:03.727995+00:00,11.266,9.204,,5.652,-4.896,,,,
2025-10-17T17:54:04.336186+00:00,11.273,8.298,,8.555,-4.367,,,,
2025-10-17T17:54:04.941097+00:00,11.279,8.003,,9.927,-3.443,,,,
2025-10-17T17:54:05.548289+00:00,11.284,8.419,,9.541,-2.202,,,,
2025-10-17T17:54:06.154441+00:00,11.288,9.398,,7.462,-0.761,,,,
2025-10-17T17:54:06.760646+00:00,11.292,10.592,,4.060,0.748,,,,
2025-10-17T17:54:07.369900+00:00,11.295,11.579,,-0.085,2.197,,,,
2025-10-17T17:54:07.981919+00:00,11.297,11.998,,-4.231,3.448,,,,
2025-10-17T17:54:08.589915+00:00,11.299,11.696,,-7.595,4.374,,,,
2025-10-17T17:54:09.192935+00:00,11.300,10.795,,-9.593,4.896,,,,
2025-10-17T17:54:09.795184+00:00,11.300,9.616,,-9.909,4.977,,,,
2025-10-17T17:54:10.405670+00:00,11.299,8.560,,-8.458,4.602,,,,
2025-10-17T17:54:11.017906+00:00,11.298,8.024,,-5.476,3.798,,,,
2025-10-17T17:54:11.625508+00:00,11.296,8.202,,-1.536,2.651,,,,
2025-10-17T17:54:12.229057+00:00,11.293,9.016,,2.651,1.272,,,,
2025-10-17T17:54:12.838336+00:00,11.290,10.190,,6.402,-0.237,,,,
2025-10-17T17:54:13.444286+00:00,11.285,11.290,,8.996,-1.717,,,,
2025-10-17T17:54:14.050811+00:00,11.281,11.931,,9.996,-3.041,,,,
2025-10-17T17:54:14.658561+00:00,11.275,11.883,,9.218,-4.089,,,,
2025-10-17T17:54:15.265671+00:00,11.269,11.161,,6.799,-4.762,,,,
2025-10-17T17:54:15.876533+00:00,11.262,10.017,,3.147,-5.000,,,,
2025-10-17T17:54:16.481582+00:00,11.255,8.876,,-1.033,-4.779,,,,
2025-10-17T17:54:17.084664+00:00,11.247,8.136,,-5.017,-4.127,,,,
2025-10-17T17:54:17.691570+00:00,11.238,8.055,,-8.137,-3.095,,,,
2025-10-17T17:54:18.300999+00:00,11.229,8.673,,-9.813,-1.774,,,,
2025-10-17T17:54:18.909362+00:00,11.219,9.766,,-9.732,-0.293,,,,
2025-10-17T17:54:19.517069+00:00,11.209,10.942,,-7.915,1.214,,,,
2025-10-17T17:54:20.126542+00:00,11.199,11.782,,-4.677,2.613,,,,
2025-10-17T17:54:20.732332+00:00,11.188,11.982,,-0.626,3.766,,,,
2025-10-17T17:54:21.335120+00:00,11.177,11.480,,3.517,4.572,,,,
2025-10-17T17:54:21.943075+00:00,11.166,10.446,,7.068,4.968,,,,
2025-10-17T17:54:22.550057+00:00,11.154,9.255,,9.355,4.909,,,,
2025-10-17T17:54:23.154068+00:00,11.143,8.332,,9.981,4.405,,,,
2025-10-17T17:54:23.760390+00:00,11.131,8.000,,8.841,3.497,,,,
2025-10-17T17:54:24.368628+00:00,11.119,8.384,,6.122,2.267,,,,
2025-10-17T17:54:24.977657+00:00,11.107,9.348,,2.304,0.826,,,,
2025-10-17T17:54:25.585257+00:00,11.094,10.544,,-1.916,-0.687,,,,
2025-10-17T17:54:26.192826+00:00,11.082,11.545,,-5.795,-2.137,,,,
2025-10-17T17:54:26.795988+00:00,11.070,11.993,,-8.626,-3.383,,,,
2025-10-17T17:54:27.402102+00:00,11.058,11.734,,-9.944,-4.328,,,,
2025-10-17T17:54:28.014515+00:00,11.047,10.846,,-9.484,-4.881,,,,
2025-10-17T17:54:28.620825+00:00,11.035,9.663,,-7.338,-4.982,,,,
2025-10-17T17:54:29.228698+00:00,11.024,8.597,,-3.879,-4.627,,,,
2025-10-17T17:54:29.833874+00:00,11.013,8.035,,0.253,-3.852,,,,
2025-10-17T17:54:30.441579+00:00,11.002,8.173,,4.356,-2.722,,,,
2025-10-17T17:54:31.047115+00:00,10.991,8.962,,7.672,-1.348,,,,
2025-10-17T17:54:31.654128+00:00,10.981,10.122,,9.634,0.153,,,,
2025-10-17T17:54:32.268688+00:00,10.972,11.251,,9.874,1.657,,,,
2025-10-17T17:54:32.881618+00:00,10.963,11.921,,8.321,3.003,,,,
2025-10-17T17:54:33.491582+00:00,10.954,11.893,,5.277,4.065,,,,
2025-10-17T17:54:34.094966+00:00,10.946,11.194,,1.332,4.747,,,,
2025-10-17T17:54:34.698265+00:00,10.939,10.073,,-2.848,4.999,,,,
2025-10-17T17:54:35.307400+00:00,10.932,8.916,,-6.557,4.796,,,,
2025-10-17T17:54:35.918103+00:00,10.925,8.148,,-9.097,4.150,,,,
2025-10-17T17:54:36.525077+00:00,10.920,8.048,,-10.000,3.127,,,,
2025-10-17T17:54:37.629684+00:00,10.911,9.512,,-7.179,0.615,,,,
2025-10-17T17:54:38.239157+00:00,10.908,10.710,,-3.655,-0.903,,,,
2025-10-17T17:54:38.844950+00:00,10.905,11.648,,0.498,-2.328,,,,
2025-10-17T17:54:39.451241+00:00,10.902,12.000,,4.567,-3.543,,,,
2025-10-17T17:54:40.060303+00:00,10.901,11.635,,7.837,-4.438,,,,
2025-10-17T17:54:40.667360+00:00,10.900,10.687,,9.701,-4.923,,,,
2025-10-17T17:54:41.279993+00:00,10.900,9.481,,9.832,-4.957,,,,
2025-10-17T17:54:41.885545+00:00,10.901,8.474,,8.211,-4.537,,,,
2025-10-17T17:54:42.488039+00:00,10.902,8.010,,5.155,-3.709,,,,
2025-10-17T17:54:43.095278+00:00,10.904,8.251,,1.163,-2.536,,,,
2025-10-17T17:54:43.704529+00:00,10.907,9.121,,-3.050,-1.127,,,,
2025-10-17T17:54:44.312450+00:00,10.911,10.305,,-6.710,0.382,,,,
2025-10-17T17:54:44.920808+00:00,10.915,11.380,,-9.173,1.858,,,,
2025-10-17T17:54:45.530082+00:00,10.920,11.960,,-9.999,3.165,,,,
2025-10-17T17:54:46.136018+00:00,10.926,11.838,,-9.042,4.176,,,,
2025-10-17T17:54:46.739004+00:00,10.932,11.066,,-6.499,4.804,,,,
2025-10-17T17:54:47.344938+00:00,10.939,9.912,,-2.796,4.999,,,,
2025-10-17T17:54:47.958678+00:00,10.946,8.777,,1.457,4.732,,,,
2025-10-17T17:54:48.573526+00:00,10.954,8.088,,5.452,4.021,,,,
2025-10-17T17:54:49.176691+00:00,10.963,8.092,,8.409,2.957,,,,
2025-10-17T17:54:49.781830+00:00,10.972,8.773,,9.890,1.622,,,,
2025-10-17T17:54:50.388741+00:00,10.982,9.892,,9.620,0.134,,,,
2025-10-17T17:54:50.998420+00:00,10.992,11.055,,7.627,-1.372,,,,
2025-10-17T17:54:51.606948+00:00,11.002,11.837,,4.273,-2.749,,,,
2025-10-17T17:54:52.209821+00:00,11.013,11.962,,0.195,-3.865,,,,
2025-10-17T17:54:52.821653+00:00,11.024,11.381,,-3.975,-4.641,,,,
2025-10-17T17:54:53.431653+00:00,11.035,10.304,,-7.418,-4.985,,,,
2025-10-17T17:54:54.034112+00:00,11.047,9.130,,-9.513,-4.874,,,,
2025-10-17T17:54:54.637058+00:00,11.059,8.262,,-9.941,-4.323,,,,
2025-10-17T17:54:55.247432+00:00,11.071,8.009,,-8.598,-3.368,,,,
2025-10-17T17:54:55.858480+00:00,11.083,8.475,,-5.705,-2.101,,,,
2025-10-17T17:54:56.467095+00:00,11.095,9.489,,-1.800,-0.645,,,,
2025-10-17T17:54:57.072040+00:00,11.107,10.679,,2.401,0.862,,,,
2025-10-17T17:54:57.679222+00:00,11.119,11.631,,6.190,2.295,,,,
2025-10-17T17:54:58.285036+00:00,11.131,12.000,,8.873,3.515,,,,
2025-10-17T17:54:58.891071+00:00,11.143,11.657,,9.985,4.416,,,,
2025-10-17T17:54:59.499572+00:00,11.155,10.719,,9.320,4.916,,,,
2025-10-17T17:55:00.111320+00:00,11.166,9.517,,6.973,4.963,,,,
2025-10-17T17:55:00.719574+00:00,11.178,8.494,,3.390,4.553,,,,
2025-10-17T17:55:01.325144+00:00,11.189,8.013,,-0.779,3.729,,,,
2025-10-17T17:55:01.927655+00:00,11.199,8.235,,-4.792,2.573,,,,
