ts_iso,batt_v,airspeed_ms,groundspeed_ms,roll_deg,pitch_deg,yaw_deg,lat,lon,alt_m
2025-10-13T15:05:07.777429+00:00,,,,,,,,,
2025-10-13T15:05:23.092829+00:00,,,,,,,,,
2025-10-13T15:05:23.694298+00:00,,,,,,,,,
2025-10-13T15:05:24.296507+00:00,,,,,,,,,
2025-10-13T15:05:25.281784+00:00,,,,,,,,,
2025-10-13T15:05:25.889638+00:00,,,,,,,,,
2025-10-13T15:05:26.091828+00:00,11.112,11.144,,4.135,1.499,,,,
2025-10-13T15:05:26.707153+00:00,11.124,11.881,,7.559,2.873,,,,
2025-10-13T15:05:27.329348+00:00,11.137,11.924,,9.615,3.988,,,,
2025-10-13T15:05:27.940575+00:00,11.149,11.264,,9.888,4.711,,,,
2025-10-13T15:05:28.562386+00:00,11.161,10.124,,8.338,4.998,,,,
2025-10-13T15:05:29.169119+00:00,11.172,8.964,,5.322,4.816,,,,
2025-10-13T15:05:29.771557+00:00,11.183,8.177,,1.390,4.200,,,,
2025-10-13T15:05:30.377062+00:00,11.194,8.033,,-2.806,3.200,,,,
2025-10-13T15:05:30.988293+00:00,11.205,8.597,,-6.535,1.896,,,,
2025-10-13T15:05:31.594563+00:00,11.215,9.659,,-9.072,0.428,,,,
2025-10-13T15:05:32.196839+00:00,11.224,10.835,,-9.999,-1.069,,,,
2025-10-13T15:05:32.805424+00:00,11.234,11.724,,-9.157,-2.483,,,,
2025-10-13T15:05:33.413780+00:00,11.243,11.994,,-6.680,-3.669,,,,
2025-10-13T15:05:34.018474+00:00,11.251,11.553,,-3.034,-4.514,,,,
2025-10-13T15:05:34.620571+00:00,11.258,10.566,,1.130,-4.949,,,,
2025-10-13T15:05:35.226259+00:00,11.265,9.373,,5.118,-4.937,,,,
2025-10-13T15:05:35.837066+00:00,11.272,8.397,,8.219,-4.470,,,,
2025-10-13T15:05:36.441548+00:00,11.278,8.001,,9.833,-3.600,,,,
2025-10-13T15:05:37.044440+00:00,11.283,8.312,,9.715,-2.408,,,,
2025-10-13T15:05:37.650818+00:00,11.288,9.224,,7.878,-0.989,,,,
2025-10-13T15:05:38.258879+00:00,11.291,10.416,,4.631,0.523,,,,
2025-10-13T15:05:38.865934+00:00,11.295,11.458,,0.566,1.986,,,,
2025-10-13T15:05:39.473413+00:00,11.297,11.979,,-3.603,3.267,,,,
2025-10-13T15:05:40.078269+00:00,11.299,11.794,,-7.118,4.246,,,,
2025-10-13T15:05:40.683891+00:00,11.300,10.971,,-9.377,4.840,,,,
2025-10-13T15:05:41.290835+00:00,11.300,9.800,,-9.975,4.994,,,,
2025-10-13T15:05:41.901428+00:00,11.299,8.695,,-8.788,4.688,,,,
2025-10-13T15:05:42.507831+00:00,11.298,8.064,,-6.043,3.955,,,,
2025-10-13T15:05:43.111379+00:00,11.296,8.121,,-2.244,2.866,,,,
2025-10-13T15:05:43.722674+00:00,11.294,8.855,,2.002,1.501,,,,
2025-10-13T15:05:44.330430+00:00,11.290,9.996,,5.867,0.005,,,,
2025-10-13T15:05:44.935170+00:00,11.286,11.134,,8.676,-1.484,,,,
2025-10-13T15:05:45.538301+00:00,11.281,11.868,,9.952,-2.835,,,,
2025-10-13T15:05:46.146573+00:00,11.276,11.941,,9.469,-3.939,,,,
2025-10-13T15:05:46.754967+00:00,11.270,11.317,,7.294,-4.680,,,,
2025-10-13T15:05:47.359139+00:00,11.263,10.229,,3.844,-4.992,,,,
2025-10-13T15:05:47.961008+00:00,11.256,9.064,,-0.268,-4.852,,,,
2025-10-13T15:05:48.569000+00:00,11.248,8.222,,-4.371,-4.269,,,,
2025-10-13T15:05:49.179601+00:00,11.240,8.018,,-7.706,-3.289,,,,
2025-10-13T15:05:49.784974+00:00,11.231,8.523,,-9.645,-2.017,,,,
2025-10-13T15:05:50.387975+00:00,11.221,9.549,,-9.880,-0.568,,,,
2025-10-13T15:05:50.995641+00:00,11.211,10.742,,-8.363,0.945,,,,
2025-10-13T15:05:51.687796+00:00,11.200,11.757,,-4.847,2.554,,,,
2025-10-13T15:05:52.293324+00:00,11.189,11.989,,-0.821,3.720,,,,
2025-10-13T15:05:52.900602+00:00,11.178,11.511,,3.362,4.548,,,,
2025-10-13T15:05:53.506823+00:00,11.167,10.495,,6.942,4.961,,,,
2025-10-13T15:05:54.113535+00:00,11.155,9.302,,9.291,4.921,,,,
2025-10-13T15:05:54.721957+00:00,11.143,8.356,,9.989,4.429,,,,
2025-10-13T15:05:55.332377+00:00,11.131,8.000,,8.896,3.528,,,,
2025-10-13T15:05:55.938153+00:00,11.119,8.361,,6.229,2.310,,,,
2025-10-13T15:05:56.544751+00:00,11.107,9.307,,2.453,0.880,,,,
2025-10-13T15:05:57.153769+00:00,11.095,10.505,,-1.776,-0.636,,,,
2025-10-13T15:05:57.763365+00:00,11.083,11.522,,-5.690,-2.095,,,,
2025-10-13T15:05:58.369586+00:00,11.071,11.990,,-8.571,-3.355,,,,
2025-10-13T15:05:58.972730+00:00,11.059,11.752,,-9.929,-4.304,,,,
2025-10-13T15:05:59.589016+00:00,11.047,10.872,,-9.516,-4.873,,,,
2025-10-13T15:06:00.197223+00:00,11.035,9.687,,-7.397,-4.985,,,,
2025-10-13T15:06:00.800099+00:00,11.024,8.622,,-3.992,-4.644,,,,
2025-10-13T15:06:01.403406+00:00,11.013,8.043,,0.117,-3.883,,,,
2025-10-13T15:06:02.014812+00:00,11.002,8.161,,4.256,-2.755,,,,
2025-10-13T15:06:02.625685+00:00,10.992,8.944,,7.626,-1.373,,,,
2025-10-13T15:06:03.231491+00:00,10.982,10.099,,9.612,0.124,,,,
2025-10-13T15:06:03.833957+00:00,10.972,11.214,,9.899,1.601,,,,
2025-10-13T15:06:04.444941+00:00,10.963,11.906,,8.419,2.952,,,,
2025-10-13T15:06:05.056702+00:00,10.954,11.908,,5.418,4.030,,,,
2025-10-13T15:06:05.661601+00:00,10.946,11.229,,1.486,4.729,,,,
2025-10-13T15:06:06.269127+00:00,10.939,10.109,,-2.726,4.998,,,,
2025-10-13T15:06:06.875305+00:00,10.932,8.952,,-6.445,4.811,,,,
2025-10-13T15:06:07.483979+00:00,10.926,8.166,,-9.029,4.182,,,,
2025-10-13T15:06:08.092888+00:00,10.920,8.039,,-9.998,3.168,,,,
2025-10-13T15:06:08.702173+00:00,10.915,8.618,,-9.177,1.861,,,,
2025-10-13T15:06:09.307986+00:00,10.911,9.687,,-6.730,0.392,,,,
2025-10-13T15:06:09.914562+00:00,10.907,10.869,,-3.086,-1.114,,,,
2025-10-13T15:06:10.522887+00:00,10.904,11.743,,1.119,-2.523,,,,
2025-10-13T15:06:11.134203+00:00,10.902,11.990,,5.142,-3.705,,,,
2025-10-13T15:06:11.740046+00:00,10.901,11.524,,8.216,-4.538,,,,
2025-10-13T15:06:12.343101+00:00,10.900,10.521,,9.830,-4.957,,,,
2025-10-13T15:06:12.954593+00:00,10.900,9.318,,9.705,-4.925,,,,
2025-10-13T15:06:13.565929+00:00,10.901,8.362,,7.829,-4.436,,,,
2025-10-13T15:06:14.171429+00:00,10.902,8.000,,4.578,-3.546,,,,
2025-10-13T15:06:14.774267+00:00,10.905,8.346,,0.535,-2.340,,,,
2025-10-13T15:06:15.384895+00:00,10.908,9.289,,-3.653,-0.904,,,,
2025-10-13T15:06:15.995758+00:00,10.911,10.490,,-7.184,0.617,,,,
2025-10-13T15:06:16.601634+00:00,10.916,11.507,,-9.410,2.069,,,,
2025-10-13T15:06:17.204885+00:00,10.921,11.987,,-9.970,3.328,,,,
2025-10-13T15:06:17.812917+00:00,10.926,11.761,,-8.763,4.292,,,,
2025-10-13T15:06:18.427814+00:00,10.933,10.892,,-5.953,4.867,,,,
2025-10-13T15:06:19.031230+00:00,10.940,9.718,,-2.136,4.988,,,,
2025-10-13T15:06:19.641014+00:00,10.947,8.635,,2.101,4.652,,,,
2025-10-13T15:06:20.246726+00:00,10.956,8.046,,5.937,3.893,,,,
2025-10-13T15:06:20.853486+00:00,10.964,8.152,,8.725,2.778,,,,
2025-10-13T15:06:21.462299+00:00,10.973,8.922,,9.965,1.404,,,,
2025-10-13T15:06:22.072031+00:00,10.983,10.081,,9.419,-0.101,,,,
2025-10-13T15:06:22.678290+00:00,10.993,11.205,,7.201,-1.589,,,,
2025-10-13T15:06:23.281515+00:00,11.004,11.898,,3.724,-2.926,,,,
2025-10-13T15:06:23.893063+00:00,11.014,11.916,,-0.465,-4.010,,,,
2025-10-13T15:06:24.503184+00:00,11.026,11.242,,-4.561,-4.722,,,,
2025-10-13T15:06:25.108924+00:00,11.037,10.128,,-7.818,-4.997,,,,
2025-10-13T15:06:25.711814+00:00,11.049,8.974,,-9.686,-4.820,,,,
2025-10-13T15:06:26.323032+00:00,11.060,8.175,,-9.844,-4.196,,,,
2025-10-13T15:06:26.934120+00:00,11.072,8.036,,-8.228,-3.184,,,,
2025-10-13T15:06:27.539996+00:00,11.085,8.601,,-5.161,-1.889,,,,
2025-10-13T15:06:28.142595+00:00,11.097,9.658,,-1.202,-0.430,,,,
2025-10-13T15:06:28.753782+00:00,11.109,10.850,,3.026,1.089,,,,
2025-10-13T15:06:29.365695+00:00,11.121,11.736,,6.711,2.508,,,,
2025-10-13T15:06:29.970884+00:00,11.133,11.993,,9.165,3.683,,,,
2025-10-13T15:06:30.574026+00:00,11.145,11.544,,9.999,4.521,,,,
2025-10-13T15:06:31.182110+00:00,11.157,10.541,,9.063,4.953,,,,
2025-10-13T15:06:31.796339+00:00,11.168,9.333,,6.476,4.928,,,,
2025-10-13T15:06:32.402534+00:00,11.179,8.378,,2.764,4.451,,,,
2025-10-13T15:06:33.009637+00:00,11.190,8.000,,-1.444,3.566,,,,
2025-10-13T15:06:33.615848+00:00,11.201,8.337,,-5.390,2.358,,,,
2025-10-13T15:06:34.222915+00:00,11.211,9.268,,-8.383,0.932,,,,
2025-10-13T15:06:34.831237+00:00,11.221,10.463,,-9.887,-0.582,,,,
2025-10-13T15:06:35.441059+00:00,11.231,11.494,,-9.621,-2.046,,,,
2025-10-13T15:06:36.047310+00:00,11.240,11.985,,-7.645,-3.315,,,,
2025-10-13T15:06:36.653685+00:00,11.248,11.769,,-4.312,-4.281,,,,
2025-10-13T15:06:37.262707+00:00,11.256,10.918,,-0.196,-4.859,,,,
2025-10-13T15:06:37.872375+00:00,11.263,9.735,,3.960,-4.989,,,,
2025-10-13T15:06:38.478266+00:00,11.270,8.653,,7.388,-4.663,,,,
2025-10-13T15:06:39.081613+00:00,11.276,8.052,,9.501,-3.916,,,,
2025-10-13T15:06:39.697234+00:00,11.282,8.148,,9.935,-2.790,,,,
2025-10-13T15:06:40.306324+00:00,11.286,8.913,,8.576,-1.417,,,,
2025-10-13T15:06:40.909765+00:00,11.290,10.057,,5.714,0.072,,,,
2025-10-13T15:06:41.512647+00:00,11.294,11.181,,1.851,1.553,,,,
2025-10-13T15:06:42.123854+00:00,11.296,11.893,,-2.393,2.911,,,,
2025-10-13T15:06:42.736928+00:00,11.298,11.919,,-6.216,4.002,,,,
2025-10-13T15:06:43.342171+00:00,11.300,11.258,,-8.887,4.713,,,,
2025-10-13T15:06:43.945331+00:00,11.300,10.154,,-9.985,4.996,,,,
2025-10-13T15:06:44.556461+00:00,11.300,8.982,,-9.310,4.823,,,,
2025-10-13T15:06:45.167669+00:00,11.299,8.179,,-6.956,4.203,,,,
2025-10-13T15:06:45.773043+00:00,11.297,8.032,,-3.387,3.204,,,,
2025-10-13T15:06:46.380088+00:00,11.294,8.588,,0.793,1.910,,,,
2025-10-13T15:06:46.986637+00:00,11.291,9.647,,4.829,0.443,,,,
2025-10-13T15:06:47.598200+00:00,11.287,10.841,,8.029,-1.076,,,,
2025-10-13T15:06:48.203818+00:00,11.283,11.724,,9.770,-2.484,,,,
2025-10-13T15:06:48.811671+00:00,11.278,11.994,,9.779,-3.668,,,,
2025-10-13T15:06:49.417384+00:00,11.272,11.552,,8.052,-4.515,,,,
2025-10-13T15:06:50.024291+00:00,11.265,10.556,,4.892,-4.951,,,,
2025-10-13T15:06:50.633187+00:00,11.258,9.357,,0.849,-4.933,,,,
2025-10-13T15:06:51.242906+00:00,11.250,8.388,,-3.352,-4.461,,,,
2025-10-13T15:06:51.849114+00:00,11.242,8.001,,-6.934,-3.584,,,,
2025-10-13T15:06:52.455359+00:00,11.233,8.326,,-9.286,-2.380,,,,
2025-10-13T15:06:53.068476+00:00,11.224,9.260,,-9.988,-0.942,,,,
2025-10-13T15:06:53.677113+00:00,11.214,10.455,,-8.893,0.573,,,,
2025-10-13T15:06:54.279902+00:00,11.204,11.479,,-6.240,2.022,,,,
2025-10-13T15:06:54.882993+00:00,11.193,11.982,,-2.491,3.289,,,,
2025-10-13T15:06:55.499771+00:00,11.182,11.773,,1.790,4.277,,,,
2025-10-13T15:06:56.108336+00:00,11.171,10.925,,5.696,4.856,,,,
2025-10-13T15:06:56.712202+00:00,11.159,9.754,,8.566,4.991,,,,
2025-10-13T15:06:57.314892+00:00,11.148,8.672,,9.928,4.674,,,,
2025-10-13T15:06:57.925972+00:00,11.136,8.054,,9.531,3.924,,,,
2025-10-13T15:06:58.537375+00:00,11.124,8.141,,7.415,2.809,,,,
2025-10-13T15:06:59.142961+00:00,11.112,8.891,,3.998,1.448,,,,
2025-10-13T15:06:59.750468+00:00,11.100,10.040,,-0.139,-0.050,,,,
2025-10-13T15:07:00.359955+00:00,11.087,11.177,,-4.264,-1.548,,,,
2025-10-13T15:07:00.968626+00:00,11.075,11.890,,-7.621,-2.901,,,,
2025-10-13T15:07:01.574345+00:00,11.063,11.926,,-9.610,-3.984,,,,
2025-10-13T15:07:02.181550+00:00,11.051,11.274,,-9.895,-4.705,,,,
2025-10-13T15:07:02.787724+00:00,11.040,10.169,,-8.423,-4.996,,,,
2025-10-13T15:07:03.399832+00:00,11.028,8.993,,-5.423,-4.827,,,,
2025-10-13T15:07:04.005318+00:00,11.017,8.189,,-1.487,-4.219,,,,
2025-10-13T15:07:04.612919+00:00,11.006,8.029,,2.725,-3.223,,,,
2025-10-13T15:07:05.219499+00:00,10.996,8.573,,6.447,-1.934,,,,
2025-10-13T15:07:05.826148+00:00,10.985,9.627,,9.024,-0.468,,,,
2025-10-13T15:07:06.439165+00:00,10.976,10.825,,9.999,1.055,,,,
2025-10-13T15:07:07.047228+00:00,10.966,11.718,,9.174,2.470,,,,
2025-10-13T15:07:07.650228+00:00,10.958,11.996,,6.739,3.650,,,,
2025-10-13T15:07:08.257116+00:00,10.949,11.564,,3.095,4.504,,,,
2025-10-13T15:07:08.869758+00:00,10.942,10.564,,-1.140,4.949,,,,
2025-10-13T15:07:09.477613+00:00,10.934,9.367,,-5.139,4.935,,,,
2025-10-13T15:07:10.080797+00:00,10.928,8.402,,-8.203,4.474,,,,
2025-10-13T15:07:10.683575+00:00,10.922,8.002,,-9.826,3.610,,,,
2025-10-13T15:07:11.300551+00:00,10.917,8.321,,-9.701,2.389,,,,
2025-10-13T15:07:11.908923+00:00,10.912,9.243,,-7.833,0.964,,,,
2025-10-13T15:07:12.511648+00:00,10.909,10.426,,-4.600,-0.536,,,,
2025-10-13T15:07:13.119486+00:00,10.905,11.466,,-0.525,-1.999,,,,
2025-10-13T15:07:13.728645+00:00,10.903,11.981,,3.652,-3.281,,,,
2025-10-13T15:07:14.337521+00:00,10.901,11.783,,7.174,-4.261,,,,
2025-10-13T15:07:14.943045+00:00,10.900,10.951,,9.404,-4.847,,,,
2025-10-13T15:07:15.550152+00:00,10.900,9.777,,9.970,-4.992,,,,
2025-10-13T15:07:16.159921+00:00,10.901,8.679,,8.752,-4.678,,,,
2025-10-13T15:07:16.768533+00:00,10.902,8.058,,5.970,-3.935,,,,
2025-10-13T15:07:17.374039+00:00,10.904,8.132,,2.143,-2.836,,,,
2025-10-13T15:07:17.981878+00:00,10.906,8.874,,-2.080,-1.473,,,,
2025-10-13T15:07:18.587672+00:00,10.910,10.015,,-5.920,0.019,,,,
2025-10-13T15:07:19.199729+00:00,10.914,11.161,,-8.733,1.524,,,,
2025-10-13T15:07:19.809976+00:00,10.919,11.885,,-9.967,2.884,,,,
2025-10-13T15:07:20.415870+00:00,10.924,11.930,,-9.419,3.972,,,,
2025-10-13T15:07:21.019520+00:00,10.930,11.292,,-7.213,4.695,,,,
2025-10-13T15:07:21.626174+00:00,10.937,10.191,,-3.719,4.994,,,,
2025-10-13T15:07:22.239445+00:00,10.944,9.010,,0.482,4.833,,,,
2025-10-13T15:07:22.847818+00:00,10.952,8.195,,4.565,4.228,,,,
2025-10-13T15:07:23.450565+00:00,10.961,8.025,,7.808,3.245,,,,
2025-10-13T15:07:24.056979+00:00,10.970,8.556,,9.688,1.962,,,,
2025-10-13T15:07:24.669963+00:00,10.979,9.616,,9.841,0.483,,,,
2025-10-13T15:07:25.278067+00:00,10.989,10.806,,8.228,-1.029,,,,
2025-10-13T15:07:25.881411+00:00,10.999,11.702,,5.175,-2.437,,,,
2025-10-13T15:07:26.488520+00:00,11.010,11.997,,1.187,-3.630,,,,
2025-10-13T15:07:27.104827+00:00,11.021,11.567,,-3.073,-4.502,,,,
2025-10-13T15:07:27.710795+00:00,11.033,10.580,,-6.718,-4.946,,,,
2025-10-13T15:07:28.313688+00:00,11.044,9.392,,-9.162,-4.941,,,,
2025-10-13T15:07:28.921192+00:00,11.056,8.413,,-9.999,-4.484,,,,
2025-10-13T15:07:29.533179+00:00,11.068,8.002,,-9.041,-3.610,,,,
2025-10-13T15:07:30.141581+00:00,11.080,8.312,,-6.469,-2.408,,,,
2025-10-13T15:07:30.747011+00:00,11.092,9.222,,-2.760,-0.992,,,,
2025-10-13T15:07:31.354504+00:00,11.104,10.413,,1.451,0.519,,,,
2025-10-13T15:07:31.963965+00:00,11.116,11.459,,5.415,1.987,,,,
2025-10-13T15:07:32.572703+00:00,11.128,11.979,,8.406,3.271,,,,
2025-10-13T15:07:33.182524+00:00,11.140,11.787,,9.894,4.255,,,,
2025-10-13T15:07:33.788246+00:00,11.152,10.959,,9.615,4.845,,,,
2025-10-13T15:07:34.391760+00:00,11.164,9.793,,7.643,4.993,,,,
2025-10-13T15:07:35.003745+00:00,11.175,8.688,,4.273,4.683,,,,
2025-10-13T15:07:35.614683+00:00,11.186,8.059,,0.139,3.940,,,,
2025-10-13T15:07:36.220835+00:00,11.197,8.130,,-3.990,2.841,,,,
2025-10-13T15:07:36.824124+00:00,11.208,8.862,,-7.398,1.491,,,,
2025-10-13T15:07:37.431574+00:00,11.218,10.004,,-9.515,-0.005,,,,
2025-10-13T15:07:38.044242+00:00,11.227,11.153,,-9.933,-1.512,,,,
2025-10-13T15:07:38.654966+00:00,11.236,11.882,,-8.559,-2.875,,,,
2025-10-13T15:07:39.258312+00:00,11.245,11.934,,-5.687,-3.961,,,,
2025-10-13T15:07:39.868670+00:00,11.253,11.292,,-1.767,-4.695,,,,
2025-10-13T15:07:40.482414+00:00,11.261,10.178,,2.493,-4.995,,,,
2025-10-13T15:07:41.087931+00:00,11.268,9.012,,6.255,-4.834,,,,
2025-10-13T15:07:41.690755+00:00,11.274,8.200,,8.902,-4.237,,,,
2025-10-13T15:07:42.298698+00:00,11.280,8.024,,9.989,-3.248,,,,
2025-10-13T15:07:42.920851+00:00,11.285,8.576,,9.256,-1.929,,,,
2025-10-13T15:07:43.526854+00:00,11.289,9.630,,6.879,-0.464,,,,
2025-10-13T15:07:44.130080+00:00,11.293,10.810,,3.300,1.035,,,,
2025-10-13T15:07:44.737440+00:00,11.296,11.709,,-0.888,2.451,,,,
2025-10-13T15:07:45.347499+00:00,11.298,11.996,,-4.933,3.647,,,,
2025-10-13T15:07:45.955585+00:00,11.299,11.565,,-8.085,4.503,,,,
2025-10-13T15:07:46.565283+00:00,11.300,10.570,,-9.796,4.948,,,,
2025-10-13T15:07:47.171389+00:00,11.300,9.377,,-9.755,4.937,,,,
2025-10-13T15:07:47.777694+00:00,11.299,8.405,,-7.983,4.477,,,,
2025-10-13T15:07:48.389421+00:00,11.298,8.001,,-4.762,3.598,,,,
2025-10-13T15:07:48.999358+00:00,11.295,8.321,,-0.693,2.390,,,,
2025-10-13T15:07:49.605376+00:00,11.292,9.238,,3.474,0.971,,,,
2025-10-13T15:07:50.208753+00:00,11.289,10.422,,7.013,-0.531,,,,
2025-10-13T15:07:50.820640+00:00,11.284,11.469,,9.340,-2.004,,,,
2025-10-13T15:07:51.430687+00:00,11.279,11.981,,9.981,-3.287,,,,
2025-10-13T15:07:52.036727+00:00,11.274,11.783,,8.842,-4.261,,,,
2025-10-13T15:07:52.639512+00:00,11.267,10.956,,6.154,-4.846,,,,
2025-10-13T15:07:53.250681+00:00,11.260,9.774,,2.329,-4.992,,,,
2025-10-13T15:07:53.862417+00:00,11.253,8.674,,-1.920,-4.675,,,,
2025-10-13T15:07:54.467759+00:00,11.245,8.058,,-5.785,-3.934,,,,
2025-10-13T15:07:55.071294+00:00,11.236,8.130,,-8.621,-2.840,,,,
2025-10-13T15:07:55.682036+00:00,11.227,8.875,,-9.946,-1.471,,,,
2025-10-13T15:07:56.292780+00:00,11.217,10.027,,-9.481,0.034,,,,
2025-10-13T15:07:56.898595+00:00,11.207,11.161,,-7.333,1.524,,,,
2025-10-13T15:07:57.501286+00:00,11.197,11.880,,-3.905,2.868,,,,
2025-10-13T15:07:58.108824+00:00,11.186,11.933,,0.241,3.962,,,,
2025-10-13T15:07:58.723510+00:00,11.175,11.284,,4.389,4.699,,,,
2025-10-13T15:07:59.329415+00:00,11.164,10.183,,7.698,4.995,,,,
2025-10-13T15:07:59.937509+00:00,11.152,9.012,,9.647,4.834,,,,
2025-10-13T15:08:00.540763+00:00,11.140,8.200,,9.879,4.236,,,,
2025-10-13T15:08:01.150625+00:00,11.128,8.025,,8.351,3.244,,,,
2025-10-13T15:08:01.759356+00:00,11.116,8.561,,5.330,1.954,,,,
2025-10-13T15:08:02.368751+00:00,11.104,9.615,,1.352,0.484,,,,
2025-10-13T15:08:02.974723+00:00,11.092,10.801,,-2.846,-1.023,,,,
2025-10-13T15:08:03.581688+00:00,11.080,11.703,,-6.545,-2.439,,,,
2025-10-13T15:08:04.189986+00:00,11.068,11.997,,-9.083,-3.634,,,,
2025-10-13T15:08:04.800323+00:00,11.056,11.571,,-10.000,-4.498,,,,
2025-10-13T15:08:05.405997+00:00,11.044,10.587,,-9.132,-4.945,,,,
2025-10-13T15:08:06.009237+00:00,11.032,9.399,,-6.660,-4.942,,,,
2025-10-13T15:08:06.621167+00:00,11.021,8.412,,-2.960,-4.483,,,,
2025-10-13T15:08:07.230927+00:00,11.010,8.002,,1.260,-3.612,,,,
2025-10-13T15:08:07.837042+00:00,10.999,8.308,,5.232,-2.416,,,,
2025-10-13T15:08:08.440198+00:00,10.989,9.211,,8.265,-1.007,,,,
2025-10-13T15:08:09.051453+00:00,10.979,10.409,,9.856,0.514,,,,
2025-10-13T15:08:09.663046+00:00,10.970,11.459,,9.669,1.987,,,,
2025-10-13T15:08:10.268331+00:00,10.961,11.978,,7.765,3.264,,,,
2025-10-13T15:08:10.871729+00:00,10.952,11.796,,4.499,4.242,,,,
2025-10-13T15:08:11.483072+00:00,10.944,10.966,,0.387,4.842,,,,
2025-10-13T15:08:12.093651+00:00,10.937,9.788,,-3.789,4.993,,,,
2025-10-13T15:08:12.699093+00:00,10.930,8.693,,-7.260,4.687,,,,
2025-10-13T15:08:13.302002+00:00,10.924,8.065,,-9.440,3.958,,,,
2025-10-13T15:08:13.909400+00:00,10.919,8.122,,-9.961,2.863,,,,
2025-10-13T15:08:14.524241+00:00,10.914,8.863,,-8.682,1.489,,,,
2025-10-13T15:08:15.129438+00:00,10.910,10.001,,-5.874,-0.002,,,,
2025-10-13T15:08:15.736907+00:00,10.906,11.143,,-2.013,-1.497,,,,
2025-10-13T15:08:16.343112+00:00,10.904,11.874,,2.199,-2.853,,,,
2025-10-13T15:08:16.949979+00:00,10.902,11.938,,6.024,-3.949,,,,
2025-10-13T15:08:17.558506+00:00,10.901,11.307,,8.784,-4.687,,,,
2025-10-13T15:08:18.168399+00:00,10.900,10.204,,9.975,-4.993,,,,
2025-10-13T15:08:18.774148+00:00,10.900,9.035,,9.385,-4.842,,,,
2025-10-13T15:08:19.380942+00:00,10.901,8.208,,7.128,-4.249,,,,
2025-10-13T15:08:19.989235+00:00,10.903,8.022,,3.594,-3.264,,,,
2025-10-13T15:08:20.599065+00:00,10.905,8.547,,-0.592,-1.977,,,,
2025-10-13T15:08:21.205229+00:00,10.909,9.589,,-4.650,-0.516,,,,
2025-10-13T15:08:21.808393+00:00,10.912,10.772,,-7.869,0.985,,,,
2025-10-13T15:08:22.424439+00:00,10.917,11.696,,-9.728,2.424,,,,
2025-10-13T15:08:23.034350+00:00,10.922,11.997,,-9.814,3.625,,,,
2025-10-13T15:08:23.637088+00:00,10.928,11.587,,-8.167,4.484,,,,
2025-10-13T15:08:24.240713+00:00,10.935,10.616,,-5.083,4.939,,,,
2025-10-13T15:08:24.851603+00:00,10.942,9.413,,-1.054,4.945,,,,
2025-10-13T15:08:25.463976+00:00,10.950,8.421,,3.175,4.491,,,,
2025-10-13T15:08:26.069690+00:00,10.958,8.003,,6.795,3.631,,,,
2025-10-13T15:08:26.672443+00:00,10.967,8.293,,9.204,2.447,,,,
2025-10-13T15:08:27.280460+00:00,10.976,9.194,,9.997,1.029,,,,
2025-10-13T15:08:27.897693+00:00,10.986,10.402,,8.979,-0.505,,,,
2025-10-13T15:08:28.503152+00:00,10.996,11.446,,6.374,-1.965,,,,
2025-10-13T15:08:29.111121+00:00,11.006,11.976,,2.624,-3.251,,,,
2025-10-13T15:08:29.716727+00:00,11.017,11.800,,-1.578,-4.236,,,,
2025-10-13T15:08:30.323573+00:00,11.029,10.982,,-5.507,-4.836,,,,
2025-10-13T15:08:30.932120+00:00,11.040,9.810,,-8.464,-4.994,,,,
2025-10-13T15:08:31.541392+00:00,11.052,8.705,,-9.909,-4.693,,,,
2025-10-13T15:08:32.147395+00:00,11.064,8.067,,-9.585,-3.964,,,,
2025-10-13T15:08:32.750795+00:00,11.076,8.117,,-7.574,-2.880,,,,
2025-10-13T15:08:33.362578+00:00,11.088,8.845,,-4.178,-1.515,,,,
2025-10-13T15:08:33.973274+00:00,11.100,9.990,,-0.036,-0.013,,,,
2025-10-13T15:08:34.578873+00:00,11.112,11.130,,4.081,1.479,,,,
2025-10-13T15:08:35.181984+00:00,11.124,11.867,,7.463,2.831,,,,
2025-10-13T15:08:35.793119+00:00,11.136,11.941,,9.552,3.939,,,,
2025-10-13T15:08:36.404183+00:00,11.148,11.312,,9.919,4.683,,,,
2025-10-13T15:08:37.009833+00:00,11.160,10.220,,8.519,4.992,,,,
2025-10-13T15:08:37.613055+00:00,11.171,9.053,,5.624,4.849,,,,
2025-10-13T15:08:38.224027+00:00,11.182,8.214,,1.688,4.257,,,,
2025-10-13T15:08:38.838137+00:00,11.193,8.022,,-2.573,3.266,,,,
2025-10-13T15:08:39.443408+00:00,11.204,8.540,,-6.318,1.989,,,,
2025-10-13T15:08:40.046391+00:00,11.214,9.573,,-8.939,0.537,,,,
2025-10-13T15:08:40.654148+00:00,11.224,10.765,,-9.992,-0.975,,,,
2025-10-13T15:08:41.268465+00:00,11.233,11.690,,-9.247,-2.412,,,,
2025-10-13T15:08:41.871750+00:00,11.242,11.998,,-6.873,-3.604,,,,
2025-10-13T15:08:42.481885+00:00,11.250,11.593,,-3.248,-4.479,,,,
2025-10-13T15:08:43.087526+00:00,11.258,10.621,,0.931,-4.938,,,,
2025-10-13T15:08:43.694544+00:00,11.265,9.425,,4.953,-4.947,,,,
2025-10-13T15:08:44.302811+00:00,11.272,8.434,,8.099,-4.503,,,,
2025-10-13T15:08:44.912592+00:00,11.278,8.004,,9.801,-3.642,,,,
2025-10-13T15:08:45.518737+00:00,11.283,8.290,,9.750,-2.454,,,,
2025-10-13T15:08:46.121665+00:00,11.287,9.179,,7.983,-1.050,,,,
2025-10-13T15:08:46.733375+00:00,11.291,10.375,,4.762,0.471,,,,
2025-10-13T15:08:47.343650+00:00,11.295,11.433,,0.690,1.945,,,,
2025-10-13T15:08:47.949252+00:00,11.297,11.972,,-3.474,3.230,,,,
2025-10-13T15:08:48.552955+00:00,11.299,11.812,,-7.014,4.218,,,,
2025-10-13T15:08:49.163815+00:00,11.300,10.998,,-9.339,4.830,,,,
2025-10-13T15:08:49.774934+00:00,11.300,9.823,,-9.981,4.995,,,,
2025-10-13T15:08:50.380623+00:00,11.300,8.720,,-8.842,4.702,,,,
2025-10-13T15:08:50.983094+00:00,11.298,8.075,,-6.155,3.985,,,,
2025-10-13T15:08:51.594025+00:00,11.296,8.112,,-2.332,2.893,,,,
2025-10-13T15:08:52.205034+00:00,11.294,8.833,,1.911,1.532,,,,
2025-10-13T15:08:52.810172+00:00,11.290,9.964,,5.777,0.044,,,,
2025-10-13T15:08:53.413695+00:00,11.286,11.106,,8.616,-1.444,,,,
2025-10-13T15:08:54.021500+00:00,11.281,11.859,,9.943,-2.810,,,,
2025-10-13T15:08:54.636146+00:00,11.276,11.944,,9.482,-3.929,,,,
2025-10-13T15:08:55.241973+00:00,11.270,11.330,,7.335,-4.673,,,,
2025-10-13T15:08:55.848956+00:00,11.263,10.241,,3.881,-4.991,,,,
2025-10-13T15:08:56.455240+00:00,11.256,9.066,,-0.258,-4.853,,,,
2025-10-13T15:08:57.062463+00:00,11.248,8.224,,-4.358,-4.272,,,,
2025-10-13T15:08:57.671052+00:00,11.240,8.017,,-7.688,-3.297,,,,
2025-10-13T15:08:58.281483+00:00,11.231,8.525,,-9.647,-2.015,,,,
2025-10-13T15:08:58.887659+00:00,11.221,9.557,,-9.876,-0.557,,,,
2025-10-13T15:08:59.494236+00:00,11.211,10.748,,-8.352,0.952,,,,
2025-10-13T15:09:00.103045+00:00,11.201,11.674,,-5.331,2.379,,,,
2025-10-13T15:09:00.712540+00:00,11.190,11.999,,-1.352,3.589,,,,
2025-10-13T15:09:01.318652+00:00,11.179,11.608,,2.847,4.465,,,,
2025-10-13T15:09:01.921521+00:00,11.168,10.650,,6.523,4.932,,,,
2025-10-13T15:09:02.537882+00:00,11.156,9.437,,9.095,4.949,,,,
2025-10-13T15:09:03.146349+00:00,11.145,8.441,,10.000,4.509,,,,
2025-10-13T15:09:03.749157+00:00,11.133,8.006,,9.134,3.664,,,,
2025-10-13T15:09:04.352839+00:00,11.121,8.274,,6.661,2.488,,,,
2025-10-13T15:09:04.963972+00:00,11.109,9.166,,2.967,1.068,,,,
2025-10-13T15:09:05.575206+00:00,11.096,10.360,,-1.263,-0.452,,,,
2025-10-13T15:09:06.180492+00:00,11.084,11.415,,-5.230,-1.915,,,,
2025-10-13T15:09:06.783629+00:00,11.072,11.967,,-8.263,-3.201,,,,
2025-10-13T15:09:07.394687+00:00,11.060,11.818,,-9.855,-4.208,,,,
2025-10-13T15:09:08.006391+00:00,11.048,11.010,,-9.670,-4.826,,,,
2025-10-13T15:09:08.611568+00:00,11.037,9.849,,-7.768,-4.996,,,,
2025-10-13T15:09:09.218892+00:00,11.025,8.738,,-4.479,-4.711,,,,
2025-10-13T15:09:09.825432+00:00,11.014,8.079,,-0.398,-3.996,,,,
2025-10-13T15:09:10.437568+00:00,11.003,8.108,,3.790,-2.905,,,,
2025-10-13T15:09:11.043253+00:00,10.993,8.815,,7.261,-1.559,,,,
2025-10-13T15:09:11.650999+00:00,10.983,9.947,,9.452,-0.066,,,,
2025-10-13T15:09:12.256855+00:00,10.973,11.095,,9.958,1.428,,,,
2025-10-13T15:09:12.864038+00:00,10.964,11.854,,8.696,2.795,,,,
2025-10-13T15:09:13.472480+00:00,10.955,11.950,,5.879,3.909,,,,
2025-10-13T15:09:14.082069+00:00,10.947,11.344,,2.004,4.664,,,,
2025-10-13T15:09:14.688261+00:00,10.940,10.261,,-2.208,4.989,,,,
2025-10-13T15:09:15.294314+00:00,10.933,9.085,,-6.027,4.860,,,,
2025-10-13T15:09:15.907156+00:00,10.926,8.229,,-8.800,4.278,,,,
2025-10-13T15:09:16.515509+00:00,10.921,8.016,,-9.976,3.307,,,,
2025-10-13T15:09:17.118630+00:00,10.916,8.508,,-9.383,2.043,,,,
2025-10-13T15:09:17.721881+00:00,10.911,9.527,,-7.142,0.596,,,,
2025-10-13T15:09:18.337388+00:00,10.908,10.736,,-3.566,-0.936,,,,
2025-10-13T15:09:18.945996+00:00,10.905,11.667,,0.614,-2.365,,,,
2025-10-13T15:09:19.549231+00:00,10.902,12.000,,4.650,-3.567,,,,
2025-10-13T15:09:20.152177+00:00,10.901,11.627,,7.869,-4.446,,,,
2025-10-13T15:09:20.763455+00:00,10.900,10.665,,9.720,-4.928,,,,
2025-10-13T15:09:21.375375+00:00,10.900,9.461,,9.818,-4.953,,,,
2025-10-13T15:09:21.980726+00:00,10.901,8.460,,8.168,-4.525,,,,
2025-10-13T15:09:22.588694+00:00,10.902,8.007,,5.058,-3.682,,,,
2025-10-13T15:09:23.198371+00:00,10.904,8.270,,1.033,-2.496,,,,
2025-10-13T15:09:23.807414+00:00,10.907,9.155,,-3.172,-1.082,,,,
2025-10-13T15:09:24.413142+00:00,10.911,10.337,,-6.793,0.423,,,,
2025-10-13T15:09:25.020797+00:00,10.915,11.402,,-9.216,1.894,,,,
2025-10-13T15:09:25.627012+00:00,10.920,11.965,,-9.997,3.189,,,,
2025-10-13T15:09:26.238954+00:00,10.926,11.823,,-8.987,4.201,,,,
2025-10-13T15:09:26.844695+00:00,10.932,11.030,,-6.386,4.818,,,,
2025-10-13T15:09:27.452732+00:00,10.939,9.866,,-2.639,4.997,,,,
2025-10-13T15:09:28.058436+00:00,10.946,8.753,,1.563,4.720,,,,
2025-10-13T15:09:28.665194+00:00,10.955,8.084,,5.494,4.011,,,,
2025-10-13T15:09:29.278304+00:00,10.963,8.103,,8.473,2.923,,,,
2025-10-13T15:09:29.886171+00:00,10.972,8.804,,9.910,1.575,,,,
2025-10-13T15:09:30.489368+00:00,10.982,9.925,,9.589,0.094,,,,
2025-10-13T15:09:31.092471+00:00,10.992,11.072,,7.584,-1.395,,,,
2025-10-13T15:09:31.708811+00:00,11.002,11.851,,4.163,-2.785,,,,
2025-10-13T15:09:32.317668+00:00,11.013,11.952,,0.032,-3.902,,,,
2025-10-13T15:09:32.920564+00:00,11.024,11.360,,-4.067,-4.654,,,,
2025-10-13T15:09:33.523337+00:00,11.035,10.290,,-7.452,-4.987,,,,
2025-10-13T15:09:34.134871+00:00,11.047,9.101,,-9.548,-4.865,,,,
2025-10-13T15:09:34.745724+00:00,11.059,8.239,,-9.921,-4.292,,,,
2025-10-13T15:09:35.351469+00:00,11.071,8.013,,-8.527,-3.332,,,,
2025-10-13T15:09:35.958939+00:00,11.083,8.496,,-5.613,-2.065,,,,
2025-10-13T15:09:36.567999+00:00,11.095,9.520,,-1.687,-0.604,,,,
2025-10-13T15:09:37.177289+00:00,11.107,10.718,,2.541,0.913,,,,
2025-10-13T15:09:37.782555+00:00,11.119,11.652,,6.293,2.336,,,,
2025-10-13T15:09:38.390108+00:00,11.131,12.000,,8.939,3.552,,,,
2025-10-13T15:09:38.996185+00:00,11.143,11.633,,9.992,4.440,,,,
2025-10-13T15:09:39.602512+00:00,11.155,10.684,,9.272,4.924,,,,
2025-10-13T15:09:40.211236+00:00,11.167,9.487,,6.896,4.958,,,,
2025-10-13T15:09:40.821585+00:00,11.178,8.472,,3.275,4.535,,,,
2025-10-13T15:09:41.427392+00:00,11.189,8.009,,-0.903,3.700,,,,
2025-10-13T15:09:42.034343+00:00,11.200,8.256,,-4.928,2.526,,,,
2025-10-13T15:09:42.646745+00:00,11.210,9.136,,-8.099,1.107,,,,
2025-10-13T15:09:43.255144+00:00,11.220,10.322,,-9.799,-0.404,,,,
2025-10-13T15:09:43.858665+00:00,11.230,11.385,,-9.756,-1.867,,,,
2025-10-13T15:09:44.461721+00:00,11.239,11.959,,-7.999,-3.160,,,,
2025-10-13T15:09:45.077914+00:00,11.247,11.831,,-4.758,-4.186,,,,
2025-10-13T15:09:45.686661+00:00,11.255,11.043,,-0.696,-4.813,,,,
2025-10-13T15:09:46.289526+00:00,11.262,9.891,,3.451,-4.998,,,,
2025-10-13T15:09:46.893117+00:00,11.269,8.777,,6.996,-4.732,,,,
2025-10-13T15:09:47.503836+00:00,11.275,8.090,,9.329,-4.027,,,,
2025-10-13T15:09:48.115280+00:00,11.281,8.095,,9.982,-2.948,,,,
2025-10-13T15:09:48.720927+00:00,11.286,8.781,,8.854,-1.610,,,,
2025-10-13T15:09:49.328204+00:00,11.290,9.903,,6.149,-0.121,,,,
2025-10-13T15:09:49.937378+00:00,11.293,11.064,,2.336,1.384,,,,
2025-10-13T15:09:50.545695+00:00,11.296,11.841,,-1.889,2.759,,,,
2025-10-13T15:09:51.151260+00:00,11.298,11.959,,-5.761,3.877,,,,
2025-10-13T15:09:51.759153+00:00,11.299,11.376,,-8.621,4.644,,,,
2025-10-13T15:09:52.364712+00:00,11.300,10.306,,-9.942,4.985,,,,
2025-10-13T15:09:52.971526+00:00,11.300,9.124,,-9.501,4.872,,,,
2025-10-13T15:09:53.579883+00:00,11.299,8.254,,-7.363,4.312,,,,
2025-10-13T15:09:54.189403+00:00,11.297,8.010,,-3.903,3.354,,,,
2025-10-13T15:09:54.795401+00:00,11.295,8.479,,0.233,2.094,,,,
2025-10-13T15:09:55.402278+00:00,11.292,9.491,,4.332,0.642,,,,
2025-10-13T15:09:56.014770+00:00,11.288,10.695,,7.687,-0.883,,,,
2025-10-13T15:09:56.623313+00:00,11.283,11.642,,9.643,-2.317,,,,
2025-10-13T15:09:57.226312+00:00,11.278,12.000,,9.882,-3.528,,,,
2025-10-13T15:09:57.829257+00:00,11.272,11.652,,8.386,-4.421,,,,
2025-10-13T15:09:58.445548+00:00,11.266,10.697,,5.339,-4.921,,,,
2025-10-13T15:09:59.054200+00:00,11.259,9.500,,1.367,-4.960,,,,
2025-10-13T15:09:59.656961+00:00,11.251,8.490,,-2.809,-4.549,,,,
2025-10-13T15:10:00.260339+00:00,11.243,8.012,,-6.496,-3.728,,,,
2025-10-13T15:10:00.871157+00:00,11.234,8.244,,-9.064,-2.553,,,,
2025-10-13T15:10:01.482398+00:00,11.225,9.111,,-10.000,-1.141,,,,
2025-10-13T15:10:02.087681+00:00,11.215,10.288,,-9.149,0.361,,,,
2025-10-13T15:10:02.694985+00:00,11.205,11.366,,-6.670,1.836,,,,
2025-10-13T15:10:03.304518+00:00,11.195,11.956,,-2.989,3.147,,,,
2025-10-13T15:10:03.912870+00:00,11.184,11.843,,1.220,4.166,,,,
2025-10-13T15:10:04.518577+00:00,11.172,11.072,,5.195,4.801,,,,
2025-10-13T15:10:05.126440+00:00,11.161,9.916,,8.259,4.999,,,,
2025-10-13T15:10:05.732073+00:00,11.149,8.794,,9.847,4.740,,,,
2025-10-13T15:10:06.344176+00:00,11.137,8.096,,9.681,4.041,,,,
2025-10-13T15:10:06.949730+00:00,11.125,8.086,,7.793,2.979,,,,
2025-10-13T15:10:07.557149+00:00,11.113,8.760,,4.514,1.641,,,,
2025-10-13T15:10:08.163528+00:00,11.101,9.875,,0.438,0.157,,,,
2025-10-13T15:10:08.769909+00:00,11.089,11.035,,-3.715,-1.343,,,,
2025-10-13T15:10:09.383445+00:00,11.077,11.831,,-7.244,-2.734,,,,
2025-10-13T15:10:09.991611+00:00,11.065,11.962,,-9.444,-3.862,,,,
2025-10-13T15:10:10.594768+00:00,11.053,11.397,,-9.962,-4.631,,,,
2025-10-13T15:10:11.201999+00:00,11.041,10.330,,-8.716,-4.983,,,,
2025-10-13T15:10:11.814746+00:00,11.030,9.135,,-5.888,-4.876,,,,
2025-10-13T15:10:12.422870+00:00,11.019,8.260,,-2.025,-4.320,,,,
2025-10-13T15:10:13.026170+00:00,11.008,8.008,,2.167,-3.377,,,,
2025-10-13T15:10:13.628641+00:00,10.997,8.458,,5.973,-2.131,,,,
2025-10-13T15:10:14.245091+00:00,10.987,9.478,,8.780,-0.659,,,,
2025-10-13T15:10:14.853713+00:00,10.977,10.675,,9.973,0.857,,,,
2025-10-13T15:10:15.456783+00:00,10.968,11.624,,9.397,2.281,,,,
2025-10-13T15:10:16.060711+00:00,10.959,12.000,,7.167,3.501,,,,
2025-10-13T15:10:16.671721+00:00,10.950,11.660,,3.628,4.413,,,,
2025-10-13T15:10:17.283737+00:00,10.943,10.718,,-0.571,4.916,,,,
2025-10-13T15:10:17.889208+00:00,10.935,9.528,,-4.626,4.965,,,,
2025-10-13T15:10:18.496437+00:00,10.929,8.503,,-7.871,4.560,,,,
2025-10-13T15:10:19.105758+00:00,10.923,8.013,,-9.718,3.734,,,,
2025-10-13T15:10:19.714992+00:00,10.918,8.238,,-9.823,2.565,,,,
2025-10-13T15:10:20.320156+00:00,10.913,9.090,,-8.186,1.170,,,,
2025-10-13T15:10:20.928385+00:00,10.909,10.271,,-5.083,-0.339,,,,
2025-10-13T15:10:21.534022+00:00,10.906,11.351,,-1.091,-1.812,,,,
2025-10-13T15:10:22.145918+00:00,10.903,11.953,,3.136,-3.131,,,,
2025-10-13T15:10:22.751799+00:00,10.901,11.851,,6.766,-4.151,,,,
2025-10-13T15:10:23.359353+00:00,10.900,11.087,,9.201,-4.795,,,,
2025-10-13T15:10:23.965410+00:00,10.900,9.937,,9.998,-4.999,,,,
2025-10-13T15:10:24.572576+00:00,10.900,8.808,,9.018,-4.747,,,,
2025-10-13T15:10:25.185331+00:00,10.902,8.101,,6.404,-4.053,,,,
2025-10-13T15:10:25.793624+00:00,10.903,8.083,,2.659,-2.990,,,,
2025-10-13T15:10:26.396685+00:00,10.906,8.744,,-1.524,-1.665,,,,
2025-10-13T15:10:27.002972+00:00,10.909,9.855,,-5.458,-0.182,,,,
2025-10-13T15:10:27.616202+00:00,10.913,11.029,,-8.451,1.335,,,,
2025-10-13T15:10:28.224522+00:00,10.918,11.825,,-9.905,2.717,,,,
2025-10-13T15:10:28.832127+00:00,10.924,11.966,,-9.591,3.848,,,,
2025-10-13T15:10:29.435317+00:00,10.930,11.409,,-7.589,4.623,,,,
2025-10-13T15:10:30.046069+00:00,10.936,10.341,,-4.205,4.982,,,,
2025-10-13T15:10:30.657415+00:00,10.944,9.148,,-0.061,4.879,,,,
2025-10-13T15:10:31.262420+00:00,10.951,8.270,,4.054,4.333,,,,
2025-10-13T15:10:31.869623+00:00,10.960,8.007,,7.463,3.389,,,,
2025-10-13T15:10:32.479553+00:00,10.969,8.459,,9.549,2.128,,,,
2025-10-13T15:10:33.088004+00:00,10.978,9.465,,9.923,0.675,,,,
2025-10-13T15:10:33.693572+00:00,10.988,10.657,,8.533,-0.833,,,,
2025-10-13T15:10:34.301312+00:00,10.998,11.618,,5.621,-2.270,,,,
2025-10-13T15:10:34.907113+00:00,11.009,11.999,,1.720,-3.495,,,,
2025-10-13T15:10:35.519494+00:00,11.020,11.662,,-2.530,-4.410,,,,
2025-10-13T15:10:36.125012+00:00,11.031,10.733,,-6.285,-4.912,,,,
2025-10-13T15:10:36.732531+00:00,11.043,9.540,,-8.934,-4.966,,,,
2025-10-13T15:10:37.338921+00:00,11.054,8.513,,-9.991,-4.567,,,,
2025-10-13T15:10:37.945504+00:00,11.066,8.016,,-9.275,-3.751,,,,
2025-10-13T15:10:38.558764+00:00,11.078,8.233,,-6.877,-2.578,,,,
2025-10-13T15:10:39.167130+00:00,11.091,9.085,,-3.264,-1.176,,,,
2025-10-13T15:10:39.770047+00:00,11.103,10.255,,0.895,0.320,,,,
2025-10-13T15:10:40.377005+00:00,11.115,11.341,,4.921,1.796,,,,
2025-10-13T15:10:40.989921+00:00,11.127,11.950,,8.096,3.120,,,,
2025-10-13T15:10:41.597667+00:00,11.139,11.854,,9.797,4.146,,,,
2025-10-13T15:10:42.200644+00:00,11.151,11.101,,9.759,4.789,,,,
2025-10-13T15:10:42.803170+00:00,11.162,9.961,,8.009,5.000,,,,
2025-10-13T15:10:43.419277+00:00,11.174,8.813,,4.773,4.750,,,,
2025-10-13T15:10:44.025609+00:00,11.185,8.107,,0.731,4.067,,,,
2025-10-13T15:10:44.631138+00:00,11.196,8.076,,-3.436,3.014,,,,
2025-10-13T15:10:45.238810+00:00,11.206,8.732,,-7.005,1.683,,,,
2025-10-13T15:10:45.848044+00:00,11.216,9.846,,-9.330,0.193,,,,
2025-10-13T15:10:46.456550+00:00,11.226,11.013,,-9.983,-1.313,,,,
2025-10-13T15:10:47.062357+00:00,11.235,11.815,,-8.862,-2.692,,,,
2025-10-13T15:10:47.669709+00:00,11.244,11.970,,-6.161,-3.829,,,,
2025-10-13T15:10:48.275856+00:00,11.252,11.422,,-2.373,-4.614,,,,
2025-10-13T15:10:48.887899+00:00,11.260,10.356,,1.878,-4.980,,,,
2025-10-13T15:10:49.493347+00:00,11.267,9.173,,5.751,-4.887,,,,
2025-10-13T15:10:50.101167+00:00,11.273,8.281,,8.615,-4.346,,,,
2025-10-13T15:10:50.706926+00:00,11.279,8.005,,9.941,-3.411,,,,
2025-10-13T15:10:51.313504+00:00,11.284,8.440,,9.505,-2.163,,,,
2025-10-13T15:10:51.926790+00:00,11.288,9.444,,7.349,-0.702,,,,
2025-10-13T15:10:52.534785+00:00,11.292,10.641,,3.893,0.812,,,,
2025-10-13T15:10:53.138146+00:00,11.295,11.603,,-0.225,2.241,,,,
2025-10-13T15:10:53.744747+00:00,11.297,11.999,,-4.323,3.474,,,,
2025-10-13T15:10:54.357219+00:00,11.299,11.675,,-7.681,4.396,,,,
2025-10-13T15:10:54.965585+00:00,11.300,10.750,,-9.640,4.908,,,,
2025-10-13T15:10:55.568137+00:00,11.300,9.567,,-9.884,4.970,,,,
2025-10-13T15:10:56.170975+00:00,11.299,8.536,,-8.394,4.585,,,,
2025-10-13T15:10:56.787361+00:00,11.298,8.018,,-5.351,3.763,,,,
2025-10-13T15:10:57.395587+00:00,11.296,8.221,,-1.385,2.605,,,,
2025-10-13T15:10:57.998902+00:00,11.293,9.054,,2.796,1.219,,,,
2025-10-13T15:10:58.606714+00:00,11.289,10.230,,6.510,-0.287,,,,
2025-10-13T15:10:59.216220+00:00,11.285,11.326,,9.068,-1.772,,,,
2025-10-13T15:10:59.825265+00:00,11.280,11.944,,10.000,-3.092,,,,
2025-10-13T15:11:00.430630+00:00,11.275,11.866,,9.152,-4.123,,,,
2025-10-13T15:11:01.038261+00:00,11.269,11.121,,6.673,-4.780,,,,
2025-10-13T15:11:01.647980+00:00,11.262,9.970,,2.992,-5.000,,,,
2025-10-13T15:11:02.256247+00:00,11.254,8.833,,-1.217,-4.759,,,,
2025-10-13T15:11:02.861658+00:00,11.246,8.116,,-5.191,-4.086,,,,
2025-10-13T15:11:03.469545+00:00,11.238,8.070,,-8.256,-3.036,,,,
2025-10-13T15:11:04.075411+00:00,11.229,8.712,,-9.847,-1.713,,,,
2025-10-13T15:11:04.687877+00:00,11.219,9.826,,-9.681,-0.217,,,,
2025-10-13T15:11:05.293423+00:00,11.209,10.991,,-7.793,1.282,,,,
2025-10-13T15:11:05.901219+00:00,11.199,11.806,,-4.512,2.669,,,,
2025-10-13T15:11:06.507406+00:00,11.188,11.974,,-0.438,3.810,,,,
2025-10-13T15:11:07.114044+00:00,11.177,11.438,,3.717,4.603,,,,
2025-10-13T15:11:07.726814+00:00,11.165,10.377,,7.241,4.978,,,,
2025-10-13T15:11:08.335151+00:00,11.154,9.187,,9.443,4.891,,,,
2025-10-13T15:11:08.938440+00:00,11.142,8.294,,9.962,4.361,,,,
2025-10-13T15:11:09.545204+00:00,11.130,8.003,,8.718,3.432,,,,
2025-10-13T15:11:10.157944+00:00,11.118,8.433,,5.892,2.175,,,,
2025-10-13T15:11:10.765720+00:00,11.106,9.424,,2.032,0.728,,,,
2025-10-13T15:11:11.369168+00:00,11.094,10.612,,-2.161,-0.775,,,,
2025-10-13T15:11:11.972257+00:00,11.082,11.584,,-5.972,-2.207,,,,
2025-10-13T15:11:12.583283+00:00,11.070,11.998,,-8.761,-3.454,,,,
2025-10-13T15:11:13.194486+00:00,11.058,11.688,,-9.972,-4.382,,,,
2025-10-13T15:11:13.799592+00:00,11.046,10.779,,-9.399,-4.900,,,,
2025-10-13T15:11:14.407418+00:00,11.034,9.587,,-7.153,-4.973,,,,
2025-10-13T15:11:15.016623+00:00,11.023,8.542,,-3.621,-4.589,,,,
2025-10-13T15:11:15.625299+00:00,11.012,8.021,,0.555,-3.783,,,,
2025-10-13T15:11:16.230919+00:00,11.001,8.208,,4.613,-2.635,,,,
2025-10-13T15:11:16.838617+00:00,10.991,9.037,,7.863,-1.243,,,,
2025-10-13T15:11:17.444578+00:00,10.981,10.206,,9.709,0.258,,,,
2025-10-13T15:11:18.056576+00:00,10.971,11.312,,9.826,1.751,,,,
2025-10-13T15:11:18.662338+00:00,10.962,11.938,,8.193,3.068,,,,
2025-10-13T15:11:19.270350+00:00,10.954,11.873,,5.094,4.109,,,,
2025-10-13T15:11:19.876098+00:00,10.946,11.140,,1.103,4.772,,,,
2025-10-13T15:11:20.482761+00:00,10.938,10.000,,-3.090,5.000,,,,
2025-10-13T15:11:21.095914+00:00,10.931,8.849,,-6.768,4.767,,,,
2025-10-13T15:11:21.704036+00:00,10.925,8.121,,-9.204,4.096,,,,
2025-10-13T15:11:22.307551+00:00,10.920,8.064,,-9.998,3.059,,,,
2025-10-13T15:11:22.914280+00:00,10.915,8.696,,-9.024,1.738,,,,
2025-10-13T15:11:23.526942+00:00,10.910,9.805,,-6.416,0.244,,,,
2025-10-13T15:11:24.135072+00:00,10.907,10.978,,-2.675,-1.263,,,,
2025-10-13T15:11:24.737553+00:00,10.904,11.794,,1.503,-2.641,,,,
2025-10-13T15:11:25.340349+00:00,10.902,11.979,,5.420,-3.783,,,,
2025-10-13T15:11:25.956601+00:00,10.901,11.448,,8.438,-4.596,,,,
2025-10-13T15:11:26.564698+00:00,10.900,10.400,,9.901,-4.975,,,,
2025-10-13T15:11:27.167804+00:00,10.900,9.218,,9.607,-4.899,,,,
2025-10-13T15:11:27.775463+00:00,10.901,8.307,,7.605,-4.376,,,,
2025-10-13T15:11:28.384980+00:00,10.903,8.002,,4.237,-3.449,,,,
2025-10-13T15:11:28.994175+00:00,10.905,8.417,,0.111,-2.205,,,,
2025-10-13T15:11:29.599082+00:00,10.908,9.393,,-4.008,-0.768,,,,
2025-10-13T15:11:30.206729+00:00,10.912,10.589,,-7.431,0.745,,,,
2025-10-13T15:11:30.818204+00:00,10.916,11.580,,-9.538,2.199,,,,
2025-10-13T15:11:31.426639+00:00,10.921,11.997,,-9.927,3.443,,,,
2025-10-13T15:11:32.032044+00:00,10.927,11.701,,-8.553,4.367,,,,
2025-10-13T15:11:32.640002+00:00,10.934,10.796,,-5.651,4.896,,,,
2025-10-13T15:11:33.246013+00:00,10.941,9.609,,-1.754,4.976,,,,
2025-10-13T15:11:33.857751+00:00,10.948,8.553,,2.492,4.597,,,,
2025-10-13T15:11:34.467867+00:00,10.956,8.023,,6.280,3.794,,,,
2025-10-13T15:11:35.073697+00:00,10.965,8.202,,8.926,2.650,,,,
2025-10-13T15:11:35.677074+00:00,10.974,9.017,,9.990,1.270,,,,
2025-10-13T15:11:36.283576+00:00,10.984,10.185,,9.290,-0.232,,,,
2025-10-13T15:11:36.896698+00:00,10.994,11.298,,6.907,-1.728,,,,
2025-10-13T15:11:37.504914+00:00,11.005,11.935,,3.304,-3.054,,,,
2025-10-13T15:11:38.108045+00:00,11.015,11.881,,-0.854,-4.092,,,,
2025-10-13T15:11:38.715197+00:00,11.027,11.157,,-4.886,-4.764,,,,
2025-10-13T15:11:39.327896+00:00,11.038,10.009,,-8.072,-5.000,,,,
2025-10-13T15:11:39.936427+00:00,11.050,8.864,,-9.790,-4.774,,,,
2025-10-13T15:11:40.539588+00:00,11.062,8.131,,-9.766,-4.116,,,,
2025-10-13T15:11:41.146819+00:00,11.074,8.059,,-8.010,-3.080,,,,
2025-10-13T15:11:41.761374+00:00,11.086,8.692,,-4.784,-1.744,,,,
2025-10-13T15:11:42.367219+00:00,11.098,9.787,,-0.746,-0.267,,,,
2025-10-13T15:11:42.970194+00:00,11.110,10.952,,3.404,1.228,,,,
2025-10-13T15:11:43.578420+00:00,11.122,11.786,,6.984,2.623,,,,
2025-10-13T15:11:44.187617+00:00,11.134,11.980,,9.319,3.779,,,,
2025-10-13T15:11:44.796135+00:00,11.146,11.461,,9.985,4.586,,,,
2025-10-13T15:11:45.401545+00:00,11.158,10.425,,8.877,4.971,,,,
2025-10-13T15:11:46.008730+00:00,11.169,9.234,,6.188,4.904,,,,
2025-10-13T15:11:46.618169+00:00,11.181,8.314,,2.383,4.385,,,,
2025-10-13T15:11:47.221381+00:00,11.191,8.001,,-1.806,3.473,,,,
2025-10-13T15:11:47.833683+00:00,11.202,8.405,,-5.731,2.227,,,,
2025-10-13T15:11:48.442438+00:00,11.212,9.381,,-8.606,0.783,,,,
2025-10-13T15:11:49.045420+00:00,11.222,10.569,,-9.937,-0.718,,,,
2025-10-13T15:11:49.648221+00:00,11.231,11.556,,-9.525,-2.155,,,,
2025-10-13T15:11:50.259278+00:00,11.240,11.995,,-7.403,-3.412,,,,
2025-10-13T15:11:50.870213+00:00,11.249,11.713,,-3.947,-4.353,,,,
2025-10-13T15:11:51.475450+00:00,11.257,10.821,,0.179,-4.888,,,,
2025-10-13T15:11:52.078465+00:00,11.264,9.642,,4.259,-4.980,,,,
2025-10-13T15:11:52.689580+00:00,11.271,8.578,,7.629,-4.614,,,,
2025-10-13T15:11:53.303597+00:00,11.277,8.027,,9.629,-3.816,,,,
2025-10-13T15:11:53.908908+00:00,11.282,8.190,,9.887,-2.680,,,,
2025-10-13T15:11:54.516795+00:00,11.287,9.000,,8.386,-1.294,,,,
2025-10-13T15:11:55.120133+00:00,11.291,10.159,,5.417,0.200,,,,
2025-10-13T15:11:55.734390+00:00,11.294,11.279,,1.420,1.701,,,,
2025-10-13T15:11:56.340006+00:00,11.297,11.927,,-2.778,3.025,,,,
2025-10-13T15:11:56.947599+00:00,11.298,11.888,,-6.494,4.078,,,,
2025-10-13T15:11:57.553295+00:00,11.300,11.176,,-9.047,4.755,,,,
2025-10-13T15:11:58.160351+00:00,11.300,10.043,,-9.999,5.000,,,,
2025-10-13T15:11:58.768646+00:00,11.300,8.893,,-9.168,4.786,,,,
2025-10-13T15:11:59.378383+00:00,11.299,8.138,,-6.693,4.132,,,,
2025-10-13T15:11:59.984778+00:00,11.297,8.054,,-3.039,3.102,,,,
2025-10-13T15:12:00.591152+00:00,11.294,8.663,,1.154,1.790,,,,
2025-10-13T15:12:01.199589+00:00,11.291,9.753,,5.155,0.310,,,,
2025-10-13T15:12:01.809528+00:00,11.287,10.934,,8.241,-1.203,,,,
2025-10-13T15:12:02.415161+00:00,11.282,11.775,,9.841,-2.596,,,,
2025-10-13T15:12:03.018571+00:00,11.277,11.985,,9.704,-3.748,,,,
2025-10-13T15:12:03.634558+00:00,11.271,11.477,,7.805,-4.575,,,,
2025-10-13T15:12:04.242579+00:00,11.264,10.441,,4.528,-4.969,,,,
2025-10-13T15:12:04.846050+00:00,11.257,9.256,,0.475,-4.910,,,,
2025-10-13T15:12:05.449119+00:00,11.249,8.335,,-3.660,-4.407,,,,
2025-10-13T15:12:06.060054+00:00,11.241,8.001,,-7.190,-3.493,,,,
2025-10-13T15:12:06.671755+00:00,11.232,8.391,,-9.427,-2.253,,,,
2025-10-13T15:12:07.276957+00:00,11.223,9.352,,-9.965,-0.821,,,,
2025-10-13T15:12:07.880462+00:00,11.213,10.541,,-8.748,0.682,,,,
2025-10-13T15:12:08.491467+00:00,11.203,11.548,,-5.950,2.141,,,,
2025-10-13T15:12:09.103054+00:00,11.192,11.994,,-2.076,3.402,,,,
2025-10-13T15:12:09.708407+00:00,11.181,11.725,,2.129,4.339,,,,
2025-10-13T15:12:10.315496+00:00,11.170,10.839,,5.968,4.883,,,,
2025-10-13T15:12:10.922199+00:00,11.158,9.654,,8.744,4.981,,,,
2025-10-13T15:12:11.534167+00:00,11.147,8.585,,9.969,4.619,,,,
2025-10-13T15:12:12.137240+00:00,11.135,8.033,,9.414,3.842,,,,
2025-10-13T15:12:12.747559+00:00,11.123,8.181,,7.171,2.703,,,,
2025-10-13T15:12:13.353438+00:00,11.111,8.978,,3.667,1.325,,,,
2025-10-13T15:12:13.959997+00:00,11.099,10.140,,-0.491,-0.175,,,,
2025-10-13T15:12:14.568674+00:00,11.086,11.256,,-4.575,-1.665,,,,
2025-10-13T15:12:15.178494+00:00,11.074,11.921,,-7.846,-3.003,,,,
2025-10-13T15:12:15.784327+00:00,11.062,11.896,,-9.702,-4.059,,,,
2025-10-13T15:12:16.387787+00:00,11.051,11.200,,-9.842,-4.743,,,,
2025-10-13T15:12:17.003988+00:00,11.039,10.055,,-8.202,-5.000,,,,
2025-10-13T15:12:17.612054+00:00,11.027,8.903,,-5.107,-4.791,,,,
2025-10-13T15:12:18.215056+00:00,11.016,8.148,,-1.137,-4.150,,,,
2025-10-13T15:12:18.818007+00:00,11.005,8.046,,3.033,-3.134,,,,
2025-10-13T15:12:19.429009+00:00,10.995,8.645,,6.712,-1.817,,,,
2025-10-13T15:12:20.040144+00:00,10.985,9.735,,9.182,-0.332,,,,
2025-10-13T15:12:20.645278+00:00,10.975,10.910,,9.999,1.170,,,,
2025-10-13T15:12:21.248573+00:00,10.966,11.760,,9.053,2.561,,,,
2025-10-13T15:12:21.859862+00:00,10.957,11.987,,6.474,3.735,,,,
2025-10-13T15:12:22.471558+00:00,10.949,11.493,,2.725,4.562,,,,
2025-10-13T15:12:23.077117+00:00,10.941,10.471,,-1.474,4.965,,,,
2025-10-13T15:12:23.684554+00:00,10.934,9.277,,-5.422,4.915,,,,
2025-10-13T15:12:24.290754+00:00,10.928,8.343,,-8.401,4.416,,,,
2025-10-13T15:12:24.902712+00:00,10.922,8.000,,-9.895,3.505,,,,
2025-10-13T15:12:25.508206+00:00,10.916,8.375,,-9.614,2.282,,,,
2025-10-13T15:12:26.115878+00:00,10.912,9.332,,-7.621,0.847,,,,
2025-10-13T15:12:26.721586+00:00,10.908,10.525,,-4.283,-0.661,,,,
2025-10-13T15:12:27.329169+00:00,10.905,11.532,,-0.173,-2.114,,,,
2025-10-13T15:12:27.937520+00:00,10.903,11.992,,3.973,-3.374,,,,
2025-10-13T15:12:28.547169+00:00,10.901,11.735,,7.415,-4.326,,,,
2025-10-13T15:12:29.153387+00:00,10.900,10.860,,9.520,-4.877,,,,
2025-10-13T15:12:29.759343+00:00,10.900,9.678,,9.936,-4.984,,,,
2025-10-13T15:12:30.372160+00:00,10.901,8.602,,8.567,-4.630,,,,
2025-10-13T15:12:30.980700+00:00,10.902,8.035,,5.669,-3.852,,,,
2025-10-13T15:12:31.583566+00:00,10.904,8.170,,1.798,-2.731,,,,
2025-10-13T15:12:32.186858+00:00,10.907,8.950,,-2.392,-1.364,,,,
2025-10-13T15:12:32.803115+00:00,10.910,10.127,,-6.233,0.159,,,,
2025-10-13T15:12:33.411948+00:00,10.914,11.246,,-8.908,1.650,,,,
2025-10-13T15:12:34.015116+00:00,10.919,11.914,,-9.988,2.977,,,,
2025-10-13T15:12:34.617526+00:00,10.925,11.906,,-9.315,4.035,,,,
2025-10-13T15:12:35.228666+00:00,10.931,11.214,,-6.967,4.736,,,,
2025-10-13T15:12:35.840046+00:00,10.938,10.082,,-3.362,4.999,,,,
2025-10-13T15:12:36.445046+00:00,10.945,8.931,,0.806,4.802,,,,
2025-10-13T15:12:37.053045+00:00,10.953,8.157,,4.849,4.166,,,,
2025-10-13T15:12:37.662419+00:00,10.962,8.044,,8.033,3.144,,,,
2025-10-13T15:12:38.271456+00:00,10.971,8.635,,9.777,1.834,,,,
2025-10-13T15:12:38.876809+00:00,10.980,9.709,,9.776,0.364,,,,
2025-10-13T15:12:39.483958+00:00,10.990,10.890,,8.038,-1.143,,,,
2025-10-13T15:12:40.090041+00:00,11.000,11.752,,4.877,-2.544,,,,
2025-10-13T15:12:40.701767+00:00,11.011,11.988,,0.811,-3.722,,,,
2025-10-13T15:12:41.307386+00:00,11.022,11.511,,-3.360,-4.548,,,,
2025-10-13T15:12:41.915304+00:00,11.033,10.493,,-6.949,-4.961,,,,
2025-10-13T15:12:42.520856+00:00,11.045,9.302,,-9.292,-4.921,,,,
2025-10-13T15:12:43.160340+00:00,11.057,8.321,,-9.976,-4.393,,,,
2025-10-13T15:12:43.773897+00:00,11.069,8.002,,-8.783,-3.466,,,,
2025-10-13T15:12:44.381782+00:00,11.082,8.404,,-6.026,-2.229,,,,
2025-10-13T15:12:44.984995+00:00,11.094,9.369,,-2.227,-0.799,,,,
2025-10-13T15:12:45.591629+00:00,11.106,10.564,,1.988,0.712,,,,
2025-10-13T15:12:46.204291+00:00,11.118,11.565,,5.883,2.171,,,,
2025-10-13T15:12:46.812359+00:00,11.130,11.996,,8.697,3.420,,,,
2025-10-13T15:12:47.415196+00:00,11.142,11.717,,9.956,4.349,,,,
2025-10-13T15:12:48.017916+00:00,11.154,10.833,,9.468,4.885,,,,
2025-10-13T15:12:48.634699+00:00,11.165,9.628,,7.252,4.978,,,,
2025-10-13T15:12:49.242962+00:00,11.177,8.571,,3.761,4.610,,,,
2025-10-13T15:12:49.845714+00:00,11.188,8.030,,-0.363,3.827,,,,
2025-10-13T15:12:50.453218+00:00,11.198,8.186,,-4.454,2.689,,,,
2025-10-13T15:12:51.062295+00:00,11.209,8.995,,-7.758,1.302,,,,
2025-10-13T15:12:51.671469+00:00,11.219,10.165,,-9.673,-0.206,,,,
2025-10-13T15:12:52.276341+00:00,11.228,11.269,,-9.861,-1.685,,,,
2025-10-13T15:12:52.883812+00:00,11.237,11.924,,-8.297,-3.016,,,,
2025-10-13T15:12:53.494019+00:00,11.246,11.889,,-5.239,-4.074,,,,
2025-10-13T15:12:54.102618+00:00,11.254,11.175,,-1.251,-4.756,,,,
2025-10-13T15:12:54.707903+00:00,11.262,10.045,,2.939,-5.000,,,,
2025-10-13T15:12:55.315814+00:00,11.268,8.895,,6.623,-4.787,,,,
2025-10-13T15:12:55.921675+00:00,11.275,8.142,,9.119,-4.139,,,,
2025-10-13T15:12:56.533913+00:00,11.280,8.054,,10.000,-3.102,,,,
2025-10-13T15:12:57.143963+00:00,11.285,8.669,,9.078,-1.781,,,,
2025-10-13T15:12:57.749909+00:00,11.289,9.756,,6.548,-0.306,,,,
2025-10-13T15:12:58.353439+00:00,11.293,10.926,,2.873,1.192,,,,
2025-10-13T15:12:58.960180+00:00,11.296,11.771,,-1.329,2.588,,,,
2025-10-13T15:12:59.574032+00:00,11.298,11.983,,-5.337,3.759,,,,
2025-10-13T15:13:00.182230+00:00,11.299,11.478,,-8.353,4.574,,,,
2025-10-13T15:13:00.785270+00:00,11.300,10.453,,-9.872,4.967,,,,
2025-10-13T15:13:01.392190+00:00,11.300,9.261,,-9.651,4.911,,,,
2025-10-13T15:13:02.005001+00:00,11.299,8.327,,-7.688,4.398,,,,
2025-10-13T15:13:02.613188+00:00,11.297,8.001,,-4.360,3.485,,,,
2025-10-13T15:13:03.216289+00:00,11.295,8.386,,-0.290,2.262,,,,
2025-10-13T15:13:03.823546+00:00,11.292,9.349,,3.858,0.826,,,,
2025-10-13T15:13:04.438382+00:00,11.288,10.559,,7.355,-0.705,,,,
2025-10-13T15:13:05.044305+00:00,11.284,11.553,,9.492,-2.150,,,,
2025-10-13T15:13:05.646973+00:00,11.279,11.994,,9.948,-3.393,,,,
2025-10-13T15:13:06.255005+00:00,11.273,11.727,,8.642,-4.337,,,,
2025-10-13T15:13:06.864153+00:00,11.267,10.839,,5.787,-4.883,,,,
2025-10-13T15:13:07.472752+00:00,11.260,9.650,,1.899,-4.981,,,,
2025-10-13T15:13:08.078529+00:00,11.252,8.591,,-2.309,-4.623,,,,
2025-10-13T15:13:08.685933+00:00,11.244,8.033,,-6.116,-3.842,,,,
2025-10-13T15:13:09.291859+00:00,11.235,8.177,,-8.830,-2.712,,,,
2025-10-13T15:13:09.903938+00:00,11.226,8.981,,-9.982,-1.321,,,,
2025-10-13T15:13:10.513775+00:00,11.216,10.150,,-9.335,0.188,,,,
2025-10-13T15:13:11.120184+00:00,11.206,11.260,,-7.029,1.671,,,,
2025-10-13T15:13:11.723254+00:00,11.196,11.919,,-3.498,2.995,,,,
2025-10-13T15:13:12.330245+00:00,11.185,11.898,,0.675,4.055,,,,
2025-10-13T15:13:12.943604+00:00,11.174,11.189,,4.767,4.749,,,,
2025-10-13T15:13:13.551908+00:00,11.162,10.056,,7.973,5.000,,,,
2025-10-13T15:13:14.154799+00:00,11.151,8.913,,9.746,4.795,,,,
2025-10-13T15:13:14.761364+00:00,11.139,8.150,,9.804,4.153,,,,
2025-10-13T15:13:15.374268+00:00,11.127,8.050,,8.094,3.119,,,,
2025-10-13T15:13:15.980537+00:00,11.115,8.650,,4.959,1.811,,,,
2025-10-13T15:13:16.583497+00:00,11.103,9.724,,0.966,0.345,,,,
2025-10-13T15:13:17.193639+00:00,11.091,10.909,,-3.244,-1.169,,,,
2025-10-13T15:13:17.799583+00:00,11.078,11.762,,-6.849,-2.566,,,,
2025-10-13T15:13:18.402535+00:00,11.067,11.988,,-9.233,-3.725,,,,
2025-10-13T15:13:19.014283+00:00,11.055,11.501,,-9.994,-4.556,,,,
2025-10-13T15:13:19.624592+00:00,11.043,10.473,,-8.955,-4.964,,,,
2025-10-13T15:13:20.230026+00:00,11.031,9.283,,-6.333,-4.916,,,,
2025-10-13T15:13:20.833684+00:00,11.020,8.350,,-2.602,-4.423,,,,
2025-10-13T15:13:21.440085+00:00,11.009,8.000,,1.606,-3.525,,,,
2025-10-13T15:13:22.052906+00:00,10.998,8.371,,5.566,-2.291,,,,
2025-10-13T15:13:22.661054+00:00,10.988,9.326,,8.500,-0.855,,,,
2025-10-13T15:13:23.264105+00:00,10.978,10.513,,9.912,0.646,,,,
2025-10-13T15:13:23.874858+00:00,10.969,11.529,,9.569,2.107,,,,
2025-10-13T15:13:24.486325+00:00,10.960,11.992,,7.499,3.374,,,,
2025-10-13T15:13:25.091664+00:00,10.951,11.740,,4.116,4.321,,,,
2025-10-13T15:13:25.694833+00:00,10.944,10.873,,0.020,4.873,,,,
2025-10-13T15:13:26.302261+00:00,10.936,9.690,,-4.107,4.985,,,,
2025-10-13T15:13:26.917024+00:00,10.930,8.607,,-7.536,4.633,,,,
2025-10-13T15:13:27.522989+00:00,10.924,8.038,,-9.574,3.862,,,,
2025-10-13T15:13:28.125687+00:00,10.918,8.164,,-9.917,2.745,,,,
2025-10-13T15:13:28.733582+00:00,10.914,8.947,,-8.503,1.369,,,,
2025-10-13T15:13:29.345683+00:00,10.909,10.115,,-5.547,-0.144,,,,
2025-10-13T15:13:29.954033+00:00,10.906,11.236,,-1.615,-1.634,,,,
2025-10-13T15:13:30.563893+00:00,10.903,11.914,,2.617,-2.978,,,,
2025-10-13T15:13:31.169960+00:00,10.902,11.904,,6.358,-4.041,,,,
2025-10-13T15:13:31.776761+00:00,10.900,11.215,,8.974,-4.736,,,,
2025-10-13T15:13:32.385355+00:00,10.900,10.089,,9.995,-4.999,,,,
2025-10-13T15:13:32.995287+00:00,10.900,8.928,,9.226,-4.801,,,,
2025-10-13T15:13:33.601256+00:00,10.901,8.157,,6.821,-4.166,,,,
2025-10-13T15:13:34.204499+00:00,10.903,8.041,,3.225,-3.157,,,,
2025-10-13T15:13:34.816097+00:00,10.906,8.629,,-0.995,-1.843,,,,
2025-10-13T15:13:35.426244+00:00,10.909,9.711,,-5.028,-0.362,,,,
2025-10-13T15:13:36.031744+00:00,10.913,10.889,,-8.138,1.141,,,,
2025-10-13T15:13:36.634562+00:00,10.917,11.748,,-9.804,2.535,,,,
2025-10-13T15:13:37.246049+00:00,10.923,11.989,,-9.737,3.714,,,,
2025-10-13T15:13:37.857165+00:00,10.929,11.510,,-7.914,4.549,,,,
2025-10-13T15:13:38.462612+00:00,10.935,10.495,,-4.700,4.961,,,,
2025-10-13T15:13:39.065606+00:00,10.942,9.309,,-0.672,4.922,,,,
2025-10-13T15:13:39.676269+00:00,10.950,8.358,,3.525,4.431,,,,
2025-10-13T15:13:40.287586+00:00,10.959,8.000,,7.090,3.529,,,,
2025-10-13T15:13:40.892978+00:00,10.967,8.360,,9.363,2.312,,,,
2025-10-13T15:13:41.495932+00:00,10.977,9.298,,9.980,0.892,,,,
2025-10-13T15:13:42.103755+00:00,10.987,10.493,,8.830,-0.622,,,,
2025-10-13T15:13:42.718203+00:00,10.997,11.521,,6.068,-2.093,,,,
2025-10-13T15:13:43.324039+00:00,11.007,11.990,,2.260,-3.352,,,,
2025-10-13T15:13:43.931775+00:00,11.018,11.749,,-1.962,-4.309,,,,
2025-10-13T15:13:44.537492+00:00,11.030,10.885,,-5.823,-4.869,,,,
2025-10-13T15:13:45.144805+00:00,11.041,9.704,,-8.657,-4.986,,,,
2025-10-13T15:13:45.753095+00:00,11.053,8.626,,-9.952,-4.646,,,,
2025-10-13T15:13:46.362931+00:00,11.065,8.041,,-9.465,-3.877,,,,
2025-10-13T15:13:46.969242+00:00,11.077,8.160,,-7.297,-2.758,,,,
2025-10-13T15:13:47.576051+00:00,11.089,8.935,,-3.831,-1.386,,,,
2025-10-13T15:13:48.184690+00:00,11.101,10.094,,0.329,0.118,,,,
2025-10-13T15:13:48.795039+00:00,11.113,11.222,,4.441,1.614,,,,
2025-10-13T15:13:49.401075+00:00,11.125,11.906,,7.735,2.953,,,,
2025-10-13T15:13:50.004632+00:00,11.137,11.913,,9.654,4.019,,,,
2025-10-13T15:13:50.620386+00:00,11.149,11.224,,9.861,4.731,,,,
2025-10-13T15:13:51.228317+00:00,11.161,10.102,,8.294,4.998,,,,
2025-10-13T15:13:51.831488+00:00,11.172,8.951,,5.277,4.811,,,,
2025-10-13T15:13:52.434224+00:00,11.183,8.170,,1.336,4.189,,,,
2025-10-13T15:13:53.045265+00:00,11.194,8.038,,-2.895,3.174,,,,
2025-10-13T15:13:53.656664+00:00,11.205,8.616,,-6.607,1.864,,,,
2025-10-13T15:13:54.261780+00:00,11.215,9.683,,-9.108,0.397,,,,
2025-10-13T15:13:54.865369+00:00,11.225,10.860,,-10.000,-1.102,,,,
2025-10-13T15:13:55.476221+00:00,11.234,11.740,,-9.112,-2.518,,,,
2025-10-13T15:13:56.087663+00:00,11.243,11.991,,-6.580,-3.701,,,,
2025-10-13T15:13:56.693020+00:00,11.251,11.528,,-2.902,-4.535,,,,
2025-10-13T15:13:57.300495+00:00,11.259,10.518,,1.304,-4.957,,,,
2025-10-13T15:13:57.906554+00:00,11.266,9.325,,5.270,-4.926,,,,
2025-10-13T15:13:58.518571+00:00,11.272,8.366,,8.324,-4.439,,,,
2025-10-13T15:13:59.124353+00:00,11.278,8.000,,9.867,-3.551,,,,
2025-10-13T15:13:59.732127+00:00,11.283,8.348,,9.658,-2.335,,,,
2025-10-13T15:14:00.338073+00:00,11.288,9.284,,7.736,-0.910,,,,
2025-10-13T15:14:00.944674+00:00,11.292,10.477,,4.438,0.600,,,,
2025-10-13T15:14:01.553531+00:00,11.295,11.502,,0.336,2.061,,,,
2025-10-13T15:14:02.163033+00:00,11.297,11.988,,-3.830,3.333,,,,
2025-10-13T15:14:02.768884+00:00,11.299,11.761,,-7.292,4.293,,,,
2025-10-13T15:14:03.376050+00:00,11.300,10.905,,-9.465,4.863,,,,
2025-10-13T15:14:03.988749+00:00,11.300,9.715,,-9.950,4.987,,,,
2025-10-13T15:14:04.597289+00:00,11.299,8.634,,-8.647,4.651,,,,
2025-10-13T15:14:05.200234+00:00,11.298,8.047,,-5.831,3.896,,,,
2025-10-13T15:14:05.803189+00:00,11.296,8.148,,-1.991,2.790,,,,
2025-10-13T15:14:06.419922+00:00,11.293,8.925,,2.292,1.399,,,,
2025-10-13T15:14:07.028552+00:00,11.290,10.083,,6.110,-0.103,,,,
2025-10-13T15:14:07.631477+00:00,11.286,11.201,,8.816,-1.583,,,,
2025-10-13T15:14:08.234754+00:00,11.281,11.896,,9.976,-2.921,,,,
2025-10-13T15:14:08.845577+00:00,11.276,11.918,,9.365,-4.006,,,,
2025-10-13T15:14:09.456929+00:00,11.269,11.245,,7.064,-4.721,,,,
2025-10-13T15:14:10.061977+00:00,11.263,10.134,,3.531,-4.997,,,,
2025-10-13T15:14:10.669314+00:00,11.255,8.971,,-0.642,-4.819,,,,
2025-10-13T15:14:11.278930+00:00,11.247,8.174,,-4.715,-4.196,,,,
2025-10-13T15:14:11.887253+00:00,11.239,8.035,,-7.936,-3.189,,,,
2025-10-13T15:14:12.492529+00:00,11.230,8.597,,-9.736,-1.896,,,,
2025-10-13T15:14:13.100104+00:00,11.220,9.661,,-9.811,-0.425,,,,
2025-10-13T15:14:13.705699+00:00,11.210,10.843,,-8.145,1.080,,,,
2025-10-13T15:14:14.318085+00:00,11.200,11.733,,-4.997,2.501,,,,
2025-10-13T15:14:14.923303+00:00,11.189,11.993,,-0.994,3.678,,,,
2025-10-13T15:14:15.530969+00:00,11.178,11.543,,3.200,4.523,,,,
2025-10-13T15:14:16.137133+00:00,11.167,10.543,,6.817,4.953,,,,
2025-10-13T15:14:16.743597+00:00,11.155,9.349,,9.225,4.931,,,,
2025-10-13T15:14:17.352566+00:00,11.144,8.384,,9.995,4.457,,,,
2025-10-13T15:14:17.962455+00:00,11.132,8.000,,8.974,3.571,,,,
2025-10-13T15:14:18.568078+00:00,11.120,8.333,,6.364,2.365,,,,
2025-10-13T15:14:19.175085+00:00,11.108,9.261,,2.618,0.941,,,,
2025-10-13T15:14:19.787397+00:00,11.095,10.463,,-1.630,-0.583,,,,
2025-10-13T15:14:20.395371+00:00,11.083,11.492,,-5.558,-2.043,,,,
2025-10-13T15:14:20.998616+00:00,11.071,11.984,,-8.476,-3.306,,,,
2025-10-13T15:14:21.601134+00:00,11.059,11.777,,-9.906,-4.270,,,,
2025-10-13T15:14:22.212098+00:00,11.047,10.929,,-9.582,-4.855,,,,
2025-10-13T15:14:22.823617+00:00,11.036,9.744,,-7.530,-4.990,,,,
2025-10-13T15:14:23.428574+00:00,11.024,8.661,,-4.160,-4.668,,,,
2025-10-13T15:14:24.031929+00:00,11.013,8.055,,-0.067,-3.924,,,,
2025-10-13T15:14:24.643020+00:00,11.003,8.141,,4.087,-2.810,,,,
2025-10-13T15:14:25.254431+00:00,10.992,8.900,,7.506,-1.435,,,,
2025-10-13T15:14:25.860115+00:00,10.982,10.047,,9.560,0.058,,,,
2025-10-13T15:14:26.467465+00:00,10.972,11.179,,9.919,1.551,,,,
2025-10-13T15:14:27.073185+00:00,10.963,11.889,,8.518,2.898,,,,
2025-10-13T15:14:27.685224+00:00,10.955,11.923,,5.572,3.991,,,,
2025-10-13T15:14:28.290433+00:00,10.947,11.270,,1.666,4.707,,,,
2025-10-13T15:14:28.898469+00:00,10.939,10.160,,-2.554,4.996,,,,
2025-10-13T15:14:29.504152+00:00,10.932,8.996,,-6.305,4.828,,,,
2025-10-13T15:14:30.110790+00:00,10.926,8.189,,-8.943,4.220,,,,
2025-10-13T15:14:30.719561+00:00,10.920,8.029,,-9.993,3.222,,,,
2025-10-13T15:14:31.328848+00:00,10.915,8.578,,-9.254,1.927,,,,
2025-10-13T15:14:31.934726+00:00,10.911,9.632,,-6.874,0.462,,,,
2025-10-13T15:14:32.541554+00:00,10.907,10.818,,-3.271,-1.046,,,,
2025-10-13T15:14:33.154143+00:00,10.904,11.719,,0.955,-2.472,,,,
2025-10-13T15:14:33.762563+00:00,10.902,11.995,,4.982,-3.660,,,,
2025-10-13T15:14:34.365453+00:00,10.901,11.562,,8.096,-4.506,,,,
2025-10-13T15:14:34.968569+00:00,10.900,10.578,,9.790,-4.946,,,,
2025-10-13T15:14:35.585282+00:00,10.900,9.364,,9.744,-4.935,,,,
2025-10-13T15:14:36.193645+00:00,10.901,8.394,,7.946,-4.467,,,,
2025-10-13T15:14:36.796732+00:00,10.902,8.001,,4.760,-3.598,,,,
2025-10-13T15:14:37.400117+00:00,10.905,8.314,,0.737,-2.404,,,,
2025-10-13T15:14:38.011101+00:00,10.908,9.236,,-3.466,-0.974,,,,
2025-10-13T15:14:38.622411+00:00,10.911,10.435,,-7.046,0.547,,,,
