ts_iso,batt_v,airspeed_ms,groundspeed_ms,roll_deg,pitch_deg,yaw_deg,lat,lon,alt_m
2025-10-13T11:03:08.157238+00:00,11.153,10.875,9.462,9.519,4.872,53.774,,,
2025-10-13T11:03:08.374474+00:00,11.157,10.467,9.490,8.946,4.965,58.119,56.162931,10.203866,60.83
2025-10-13T11:03:08.578174+00:00,11.161,10.064,9.500,8.220,4.999,62.193,56.162876,10.203892,58.72
2025-10-13T11:03:08.782692+00:00,11.165,9.657,9.494,7.323,4.981,66.283,56.162944,10.203915,59.87
2025-10-13T11:03:08.985977+00:00,11.169,9.266,9.474,6.283,4.912,70.349,56.162907,10.203926,59.16
2025-10-13T11:03:09.189147+00:00,11.173,8.906,9.438,5.117,4.792,74.412,56.162935,10.203917,59.75
2025-10-13T11:03:09.392805+00:00,11.176,8.590,9.387,3.844,4.622,78.485,56.162930,10.203880,60.63
2025-10-13T11:03:09.596351+00:00,11.180,8.332,9.321,2.495,4.404,82.556,56.162911,10.203872,58.15
2025-10-13T11:03:09.801153+00:00,11.184,8.143,9.242,1.085,4.139,86.652,56.162933,10.203918,60.17
2025-10-13T11:03:10.005642+00:00,11.188,8.031,9.149,-0.344,3.831,90.742,56.162859,10.203930,58.27
2025-10-13T11:03:10.208691+00:00,11.191,8.001,9.046,-1.756,3.486,94.803,56.162935,10.203911,61.16
2025-10-13T11:03:10.411834+00:00,11.195,8.053,8.931,-3.133,3.105,98.866,56.162903,10.203852,60.50
2025-10-13T11:03:10.617905+00:00,11.198,8.188,8.806,-4.466,2.685,102.987,56.162929,10.203948,57.75
2025-10-13T11:03:10.772255+00:00,11.201,8.340,8.706,-5.405,2.352,106.074,56.162929,10.203948,57.75
2025-10-13T11:03:10.975153+00:00,11.205,8.598,8.568,-6.541,1.893,110.132,56.162874,10.203862,61.75
2025-10-13T11:03:11.178070+00:00,11.208,8.915,8.424,-7.546,1.415,114.191,56.162892,10.203873,60.61
2025-10-13T11:03:11.379959+00:00,11.211,9.273,8.277,-8.395,0.924,118.228,56.162933,10.203937,59.12
2025-10-13T11:03:11.582798+00:00,11.215,9.664,8.127,-9.080,0.422,122.285,56.162896,10.203950,59.34
2025-10-13T11:03:11.786895+00:00,11.218,10.070,7.974,-9.584,-0.088,126.367,56.162895,10.203869,62.21
2025-10-13T11:03:11.989132+00:00,11.221,10.470,7.822,-9.891,-0.592,130.412,56.162865,10.203913,59.57
2025-10-13T11:03:12.191651+00:00,11.225,10.852,7.673,-10.000,-1.091,134.462,56.162864,10.203920,62.38
2025-10-13T11:03:12.395602+00:00,11.228,11.201,7.525,-9.907,-1.582,138.541,56.162942,10.203884,59.61
2025-10-13T11:03:12.597446+00:00,11.231,11.497,7.384,-9.616,-2.052,142.578,56.162926,10.203895,58.38
2025-10-13T11:03:12.800299+00:00,11.234,11.733,7.249,-9.132,-2.503,146.635,56.162935,10.203936,59.86
2025-10-13T11:03:13.003223+00:00,11.237,11.899,7.121,-8.462,-2.929,150.694,56.162874,10.203878,58.36
2025-10-13T11:03:13.204549+00:00,11.240,11.986,7.004,-7.630,-3.321,154.720,56.162850,10.203947,61.24
2025-10-13T11:03:13.407381+00:00,11.243,11.993,6.895,-6.639,-3.682,158.777,56.162906,10.203921,61.28
2025-10-13T11:03:13.609170+00:00,11.245,11.918,6.799,-5.520,-4.004,162.813,56.162877,10.203864,59.74
2025-10-13T11:03:13.811876+00:00,11.248,11.765,6.714,-4.285,-4.287,166.867,56.162857,10.203938,57.92
2025-10-13T11:03:14.014927+00:00,11.251,11.539,6.642,-2.962,-4.525,170.928,56.162883,10.203915,62.10
2025-10-13T11:03:14.217178+00:00,11.253,11.252,6.585,-1.585,-4.717,174.973,56.162883,10.203874,60.30
2025-10-13T11:03:14.419216+00:00,11.256,10.913,6.542,-0.177,-4.860,179.014,56.162906,10.203868,59.73
2025-10-13T11:03:14.621703+00:00,11.259,10.537,6.514,1.237,-4.954,183.063,56.162888,10.203851,59.69
2025-10-13T11:03:14.823586+00:00,11.261,10.139,6.501,2.622,-4.997,187.101,56.162912,10.203917,57.58
2025-10-13T11:03:15.026483+00:00,11.263,9.734,6.503,3.962,-4.989,191.159,56.162858,10.203903,58.14
2025-10-13T11:03:15.228601+00:00,11.266,9.342,6.521,5.217,-4.930,195.201,56.162906,10.203933,58.94
2025-10-13T11:03:15.430504+00:00,11.268,8.977,6.554,6.367,-4.821,199.239,56.162886,10.203948,62.29
2025-10-13T11:03:15.633411+00:00,11.270,8.651,6.602,7.394,-4.662,203.298,56.162938,10.203897,58.65
2025-10-13T11:03:15.835249+00:00,11.272,8.383,6.663,8.269,-4.456,207.334,56.162928,10.203932,58.31
2025-10-13T11:03:16.037312+00:00,11.274,8.179,6.739,8.979,-4.204,211.376,56.162876,10.203906,57.56
2025-10-13T11:03:16.239525+00:00,11.276,8.050,6.827,9.510,-3.909,215.420,56.162878,10.203925,59.26
2025-10-13T11:03:16.441490+00:00,11.278,8.001,6.927,9.851,-3.575,219.459,56.162912,10.203878,60.93
2025-10-13T11:03:16.643317+00:00,11.280,8.032,7.039,9.995,-3.205,223.496,56.162872,10.203898,61.04
2025-10-13T11:03:16.845055+00:00,11.282,8.143,7.159,9.940,-2.802,227.530,56.162894,10.203891,58.94
2025-10-13T11:03:17.046955+00:00,11.283,8.330,7.289,9.687,-2.371,231.568,56.162878,10.203912,60.87
2025-10-13T11:03:17.199527+00:00,11.284,8.517,7.392,9.367,-2.028,234.620,56.162878,10.203912,60.87
2025-10-13T11:03:17.403684+00:00,11.286,8.820,7.534,8.773,-1.552,238.703,56.162863,10.203915,61.37
2025-10-13T11:03:17.605586+00:00,11.287,9.167,7.680,8.009,-1.065,242.741,56.162932,10.203878,62.03
2025-10-13T11:03:17.808348+00:00,11.289,9.551,7.830,7.082,-0.565,246.796,56.162941,10.203883,59.69
2025-10-13T11:03:18.010225+00:00,11.290,9.951,7.981,6.017,-0.062,250.834,56.162868,10.203936,59.75
2025-10-13T11:03:18.220482+00:00,11.291,10.369,8.139,4.780,0.463,255.039,56.162880,10.203907,58.11
2025-10-13T11:03:18.423367+00:00,11.292,10.758,8.290,3.489,0.965,259.097,56.162948,10.203919,61.24
2025-10-13T11:03:18.625379+00:00,11.294,11.114,8.436,2.133,1.455,263.137,56.162933,10.203860,58.58
2025-10-13T11:03:18.827196+00:00,11.295,11.424,8.579,0.736,1.929,267.173,56.162860,10.203893,61.75
2025-10-13T11:03:19.030120+00:00,11.295,11.678,8.716,-0.683,2.387,271.232,56.162865,10.203918,59.76
2025-10-13T11:03:19.232069+00:00,11.296,11.862,8.845,-2.082,2.817,275.271,56.162890,10.203869,58.32
2025-10-13T11:03:19.434078+00:00,11.297,11.971,8.966,-3.439,3.220,279.311,56.162939,10.203872,57.81
2025-10-13T11:03:19.637477+00:00,11.298,11.999,9.077,-4.737,3.591,283.379,56.162899,10.203932,60.58
2025-10-13T11:03:19.839669+00:00,11.298,11.946,9.177,-5.932,3.924,287.423,56.162926,10.203861,62.16
2025-10-13T11:03:20.042110+00:00,11.299,11.813,9.265,-7.009,4.217,291.472,56.162878,10.203950,60.81
2025-10-13T11:03:20.244696+00:00,11.299,11.605,9.340,-7.947,4.467,295.523,56.162860,10.203948,61.47
2025-10-13T11:03:20.446726+00:00,11.299,11.333,9.401,-8.723,4.671,299.564,56.162898,10.203943,62.17
2025-10-13T11:03:20.648651+00:00,11.300,11.007,9.448,-9.325,4.827,303.602,56.162905,10.203911,58.98
2025-10-13T11:03:20.850340+00:00,11.300,10.641,9.480,-9.741,4.934,307.636,56.162884,10.203904,57.58
2025-10-13T11:03:21.052903+00:00,11.300,10.247,9.497,-9.963,4.990,311.687,56.162863,10.203868,59.50
2025-10-13T11:03:21.255769+00:00,11.300,9.842,9.499,-9.985,4.996,315.745,56.162919,10.203874,58.50
2025-10-13T11:03:21.457811+00:00,11.300,9.445,9.485,-9.807,4.951,319.786,56.162903,10.203905,61.18
2025-10-13T11:03:21.659643+00:00,11.300,9.071,9.456,-9.434,4.855,323.822,56.162948,10.203906,57.83
2025-10-13T11:03:21.861358+00:00,11.300,8.735,9.413,-8.873,4.710,327.856,56.162879,10.203925,61.03
2025-10-13T11:03:22.064991+00:00,11.299,8.448,9.354,-8.127,4.515,331.929,56.162873,10.203940,57.58
2025-10-13T11:03:37.302833+00:00,11.092,10.813,7.689,-2.887,-1.038,276.686,56.162874,10.203938,59.46
2025-10-13T11:03:37.504889+00:00,11.088,11.163,7.542,-4.208,-1.526,280.727,56.162914,10.203939,57.91
2025-10-13T11:03:37.707121+00:00,11.084,11.466,7.400,-5.446,-1.999,284.772,56.162878,10.203885,59.48
2025-10-13T11:03:37.908978+00:00,11.080,11.709,7.265,-6.572,-2.451,288.809,56.162865,10.203935,58.43
2025-10-13T11:03:38.111248+00:00,11.076,11.883,7.137,-7.570,-2.878,292.854,56.162861,10.203950,58.56
2025-10-13T11:03:38.263155+00:00,11.073,11.963,7.046,-8.221,-3.180,295.892,56.162861,10.203950,58.56
2025-10-13T11:03:38.465218+00:00,11.069,12.000,6.934,-8.942,-3.553,299.934,56.162905,10.203886,58.08
2025-10-13T11:03:38.667158+00:00,11.065,11.955,6.833,-9.483,-3.890,303.972,56.162942,10.203947,59.42
2025-10-13T11:03:38.868696+00:00,11.061,11.831,6.744,-9.835,-4.186,308.003,56.162894,10.203910,58.99
2025-10-13T11:03:39.070571+00:00,11.057,11.633,6.668,-9.992,-4.440,312.041,56.162938,10.203907,61.71
2025-10-13T11:03:39.273668+00:00,11.053,11.367,6.605,-9.948,-4.650,316.103,56.162905,10.203932,59.42
2025-10-13T11:03:39.475607+00:00,11.049,11.046,6.556,-9.706,-4.812,320.141,56.162875,10.203893,62.03
2025-10-13T11:03:39.677459+00:00,11.045,10.683,6.523,-9.271,-4.924,324.178,56.162887,10.203894,61.45
2025-10-13T11:03:39.880070+00:00,11.041,10.291,6.504,-8.648,-4.987,328.231,56.162900,10.203882,61.37
2025-10-13T11:03:40.081957+00:00,11.037,9.888,6.501,-7.854,-4.998,332.268,56.162865,10.203887,60.95
2025-10-13T11:03:40.284875+00:00,11.033,9.488,6.513,-6.899,-4.958,336.327,56.162935,10.203911,61.30
2025-10-13T11:03:40.488150+00:00,11.029,9.108,6.540,-5.802,-4.867,340.392,56.162860,10.203932,60.88
2025-10-13T11:03:40.690039+00:00,11.026,8.767,6.582,-4.597,-4.727,344.430,56.162934,10.203915,60.35
2025-10-13T11:03:40.893789+00:00,11.022,8.474,6.639,-3.288,-4.537,348.505,56.162868,10.203889,60.39
2025-10-13T11:03:41.096526+00:00,11.018,8.245,6.710,-1.919,-4.301,352.560,56.162894,10.203927,62.27
2025-10-13T11:03:41.301004+00:00,11.015,8.087,6.795,-0.500,-4.018,356.649,56.162937,10.203861,59.08
2025-10-13T11:03:41.502964+00:00,11.011,8.009,6.891,0.912,-3.698,0.689,56.162920,10.203917,62.23
2025-10-13T11:03:41.704946+00:00,11.007,8.012,6.998,2.307,-3.339,4.728,56.162880,10.203920,61.73
2025-10-13T11:03:41.906647+00:00,11.004,8.095,7.116,3.653,-2.948,8.762,56.162896,10.203888,62.38
2025-10-13T11:03:42.108460+00:00,11.000,8.256,7.242,4.927,-2.526,12.799,56.162879,10.203903,61.28
2025-10-13T11:03:42.310551+00:00,10.997,8.488,7.377,6.105,-2.078,16.840,56.162903,10.203927,62.44
2025-10-13T11:03:42.514917+00:00,10.993,8.785,7.519,7.172,-1.603,20.928,56.162941,10.203934,59.76
2025-10-13T11:03:42.716832+00:00,10.990,9.129,7.665,8.082,-1.118,24.966,56.162899,10.203934,58.94
2025-10-13T11:03:42.918569+00:00,10.987,9.507,7.814,8.830,-0.621,29.001,56.162871,10.203904,60.10
2025-10-13T11:03:43.121794+00:00,10.983,9.908,7.966,9.407,-0.115,33.065,56.162909,10.203920,61.02
2025-10-13T11:03:43.323364+00:00,10.980,10.310,8.117,9.790,0.389,37.097,56.162942,10.203903,61.51
2025-10-13T11:03:43.525249+00:00,10.977,10.700,8.267,9.980,0.889,41.134,56.162870,10.203870,57.96
2025-10-13T11:03:43.726990+00:00,10.974,11.061,8.414,9.970,1.380,45.169,56.162888,10.203906,57.56
2025-10-13T11:03:43.928872+00:00,10.970,11.380,8.557,9.762,1.857,49.207,56.162925,10.203937,59.50
2025-10-13T11:03:44.130933+00:00,10.967,11.642,8.695,9.358,2.316,53.248,56.162941,10.203869,59.27
2025-10-13T11:03:44.333030+00:00,10.964,11.838,8.825,8.768,2.751,57.290,56.162929,10.203893,60.07
2025-10-13T11:03:44.535170+00:00,10.961,11.959,8.948,8.002,3.159,61.333,56.162906,10.203931,59.58
2025-10-13T11:03:44.737062+00:00,10.959,12.000,9.060,7.078,3.533,65.371,56.162907,10.203895,60.33
2025-10-13T11:03:44.938971+00:00,10.956,11.960,9.162,6.012,3.872,69.409,56.162944,10.203854,58.40
2025-10-13T11:03:45.141367+00:00,10.953,11.840,9.251,4.824,4.171,73.457,56.162879,10.203913,61.53
2025-10-13T11:03:45.343369+00:00,10.950,11.645,9.328,3.541,4.428,77.497,56.162913,10.203908,62.44
2025-10-13T11:03:45.546664+00:00,10.948,11.382,9.392,2.179,4.641,81.563,56.162880,10.203871,60.46
2025-10-13T11:03:45.748299+00:00,10.945,11.064,9.441,0.784,4.805,85.595,56.162866,10.203898,60.63
2025-10-13T11:03:45.950186+00:00,10.943,10.703,9.476,-0.628,4.920,89.633,56.162941,10.203857,62.05
2025-10-13T11:03:46.152151+00:00,10.940,10.313,9.495,-2.028,4.985,93.672,56.162897,10.203922,62.18
2025-10-13T11:03:46.304416+00:00,10.938,10.010,9.500,-3.058,5.000,96.718,56.162897,10.203922,62.18
2025-10-13T11:03:46.506342+00:00,10.936,9.608,9.493,-4.369,4.976,100.756,56.162903,10.203896,58.11
2025-10-13T11:03:46.708252+00:00,10.934,9.223,9.470,-5.592,4.901,104.794,56.162894,10.203931,62.33
2025-10-13T11:03:46.909804+00:00,10.931,8.870,9.433,-6.703,4.776,108.825,56.162873,10.203939,61.93
2025-10-13T11:03:47.111688+00:00,10.929,8.562,9.381,-7.681,4.603,112.863,56.162909,10.203861,61.44
2025-10-13T11:03:47.313760+00:00,10.927,8.312,9.315,-8.507,4.382,116.905,56.162945,10.203864,59.66
2025-10-13T11:03:47.515639+00:00,10.925,8.131,9.235,-9.163,4.118,120.942,56.162883,10.203855,59.72
2025-10-13T11:03:47.717586+00:00,10.923,8.026,9.143,-9.636,3.811,124.981,56.162866,10.203943,61.09
2025-10-13T11:03:47.919532+00:00,10.921,8.002,9.040,-9.916,3.465,129.020,56.162902,10.203850,62.43
2025-10-13T11:03:48.122460+00:00,10.920,8.058,8.925,-9.999,3.082,133.079,56.162934,10.203922,61.85
2025-10-13T11:03:48.328904+00:00,10.918,8.198,8.798,-9.877,2.660,137.207,56.162890,10.203931,59.66
2025-10-13T11:03:48.531880+00:00,10.916,8.410,8.665,-9.556,2.217,141.267,56.162911,10.203939,57.69
2025-10-13T11:03:48.733560+00:00,10.915,8.685,8.526,-9.046,1.755,145.301,56.162865,10.203904,58.32
2025-10-13T11:03:48.935432+00:00,10.913,9.014,8.382,-8.355,1.274,149.338,56.162857,10.203923,60.35
2025-10-13T11:03:49.138603+00:00,10.912,9.386,8.233,-7.492,0.777,153.401,56.162945,10.203920,59.72
2025-10-13T11:03:49.340583+00:00,10.910,9.780,8.083,-6.484,0.275,157.441,56.162930,10.203861,58.87
2025-10-13T11:03:49.542414+00:00,10.909,10.183,7.931,-5.347,-0.229,161.478,56.162870,10.203885,61.28
2025-10-13T11:03:49.744115+00:00,10.908,10.578,7.781,-4.105,-0.731,165.512,56.162859,10.203917,61.22
2025-10-13T11:03:49.947020+00:00,10.907,10.952,7.632,-2.773,-1.228,169.570,56.162927,10.203902,57.72
2025-10-13T11:03:50.148913+00:00,10.906,11.285,7.487,-1.392,-1.710,173.608,56.162866,10.203886,59.78
2025-10-13T11:03:50.352938+00:00,10.905,11.569,7.346,0.032,-2.180,177.688,56.162929,10.203857,57.94
2025-10-13T11:03:50.555046+00:00,10.904,11.786,7.213,1.441,-2.622,181.730,56.162867,10.203892,58.55
2025-10-13T11:03:50.757922+00:00,10.903,11.931,7.088,2.827,-3.040,185.788,56.162902,10.203930,62.36
2025-10-13T11:03:50.960550+00:00,10.903,11.996,6.972,4.155,-3.426,189.840,56.162857,10.203925,62.45
2025-10-13T11:03:51.162977+00:00,10.902,11.980,6.867,5.398,-3.776,193.889,56.162943,10.203896,59.13
2025-10-13T11:03:51.366098+00:00,10.902,11.883,6.773,6.536,-4.089,197.951,56.162868,10.203928,58.97
2025-10-13T11:03:51.569316+00:00,10.901,11.707,6.692,7.543,-4.360,202.016,56.162910,10.203898,60.39
2025-10-13T11:03:51.772881+00:00,10.901,11.462,6.624,8.399,-4.586,206.087,56.162886,10.203877,59.50
2025-10-13T11:03:51.974790+00:00,10.900,11.158,6.571,9.080,-4.763,210.125,56.162920,10.203912,57.58
2025-10-13T11:03:52.177099+00:00,10.900,10.807,6.532,9.580,-4.893,214.171,56.162877,10.203897,61.56
2025-10-13T11:03:52.380063+00:00,10.900,10.422,6.508,9.890,-4.972,218.231,56.162866,10.203884,58.98
2025-10-13T11:03:52.582110+00:00,10.900,10.021,6.500,10.000,-5.000,222.272,56.162910,10.203881,61.31
2025-10-13T11:03:52.784699+00:00,10.900,9.618,6.507,9.910,-4.977,226.323,56.162860,10.203883,57.68
2025-10-13T11:03:52.935840+00:00,10.900,9.327,6.522,9.712,-4.926,229.346,56.162860,10.203883,57.68
2025-10-13T11:03:53.137748+00:00,10.900,8.963,6.555,9.280,-4.815,233.384,56.162861,10.203948,61.94
2025-10-13T11:03:53.345192+00:00,10.901,8.633,6.605,8.644,-4.650,237.533,56.162906,10.203888,60.79
2025-10-13T11:03:53.547040+00:00,10.901,8.368,6.668,7.849,-4.441,241.570,56.162916,10.203946,59.61
2025-10-13T11:03:53.749834+00:00,10.901,8.168,6.744,6.894,-4.186,245.626,56.162902,10.203936,57.81
2025-10-13T11:03:53.951667+00:00,10.902,8.045,6.833,5.805,-3.889,249.663,56.162884,10.203868,61.74
2025-10-13T11:03:54.154539+00:00,10.902,8.000,6.935,4.594,-3.551,253.720,56.162869,10.203929,61.07
2025-10-13T11:03:54.357403+00:00,10.903,8.038,7.047,3.291,-3.176,257.777,56.162934,10.203853,62.13
2025-10-13T11:03:54.560382+00:00,10.904,8.156,7.169,1.920,-2.769,261.837,56.162924,10.203873,57.66
2025-10-13T11:03:54.762092+00:00,10.905,8.348,7.299,0.520,-2.335,265.871,56.162924,10.203908,60.35
2025-10-13T11:03:54.964952+00:00,10.906,8.609,7.437,-0.899,-1.876,269.928,56.162854,10.203936,61.37
2025-10-13T11:03:55.168152+00:00,10.907,8.928,7.581,-2.301,-1.396,273.992,56.162875,10.203944,62.29
2025-10-13T11:03:55.370099+00:00,10.908,9.288,7.729,-3.649,-0.905,278.031,56.162940,10.203860,58.75
2025-10-13T11:03:55.572309+00:00,10.909,9.678,7.879,-4.926,-0.404,282.075,56.162897,10.203873,57.95
2025-10-13T11:03:55.775198+00:00,10.910,10.082,8.031,-6.109,0.103,286.133,56.162885,10.203915,59.35
2025-10-13T11:03:55.978322+00:00,10.911,10.484,8.183,-7.169,0.609,290.196,56.162855,10.203898,57.74
2025-10-13T11:03:56.181167+00:00,10.913,10.865,8.333,-8.083,1.109,294.253,56.162912,10.203942,59.20
2025-10-13T11:03:56.384845+00:00,10.914,11.212,8.480,-8.838,1.599,298.326,56.162920,10.203880,61.60
2025-10-13T11:03:56.587738+00:00,10.916,11.507,8.621,-9.411,2.070,302.384,56.162906,10.203873,62.27
2025-10-13T11:03:56.791683+00:00,10.917,11.742,8.757,-9.796,2.523,306.463,56.162896,10.203918,59.03
2025-10-13T11:03:56.994488+00:00,10.919,11.904,8.884,-9.982,2.947,310.519,56.162923,10.203934,60.05
2025-10-13T11:03:57.198366+00:00,10.921,11.989,9.003,-9.966,3.342,314.597,56.162940,10.203865,61.65
2025-10-13T11:03:57.401207+00:00,10.923,11.991,9.111,-9.749,3.702,318.653,56.162852,10.203854,61.56
2025-10-13T11:03:57.604072+00:00,10.925,11.911,9.207,-9.336,4.023,322.711,56.162900,10.203904,61.09
2025-10-13T11:03:57.807194+00:00,10.927,11.753,9.291,-8.734,4.303,326.773,56.162920,10.203917,60.63
2025-10-13T11:03:57.959168+00:00,10.928,11.587,9.345,-8.167,4.484,329.813,56.162920,10.203917,60.63
2025-10-13T11:03:58.160888+00:00,10.930,11.311,9.405,-7.274,4.684,333.847,56.162867,10.203942,58.26
2025-10-13T11:03:58.368259+00:00,10.932,10.972,9.452,-6.204,4.840,337.994,56.162863,10.203880,59.14
2025-10-13T11:03:58.571104+00:00,10.935,10.600,9.483,-5.032,4.942,342.051,56.162903,10.203870,58.94
2025-10-13T11:03:58.775308+00:00,10.937,10.200,9.498,-3.750,4.994,346.135,56.162945,10.203903,60.11
2025-10-13T11:03:58.978164+00:00,10.939,9.795,9.498,-2.400,4.993,350.193,56.162882,10.203936,61.79
2025-10-13T11:03:59.182087+00:00,10.942,9.397,9.482,-0.995,4.941,354.271,56.162895,10.203881,57.51
2025-10-13T11:03:59.387088+00:00,10.944,9.021,9.451,0.439,4.837,358.371,56.162870,10.203938,60.56
2025-10-13T11:03:59.589895+00:00,10.947,8.690,9.405,1.848,4.684,2.427,56.162943,10.203884,60.39
2025-10-13T11:03:59.792938+00:00,10.950,8.412,9.345,3.221,4.483,6.488,56.162930,10.203911,60.77
2025-10-13T11:03:59.995775+00:00,10.952,8.200,9.271,4.528,4.236,10.545,56.162874,10.203907,59.18
2025-10-13T11:04:00.198511+00:00,10.955,8.061,9.184,5.744,3.946,14.600,56.162886,10.203869,57.60
2025-10-13T11:04:00.401033+00:00,10.958,8.002,9.084,6.843,3.615,18.650,56.162893,10.203925,59.60
2025-10-13T11:04:00.603858+00:00,10.961,8.025,8.974,7.806,3.247,22.706,56.162942,10.203887,58.28
2025-10-13T11:04:00.806767+00:00,10.964,8.128,8.853,8.612,2.845,26.765,56.162930,10.203908,61.00
2025-10-13T11:04:01.009459+00:00,10.967,8.309,8.724,9.244,2.414,30.818,56.162898,10.203918,62.46
2025-10-13T11:04:01.212656+00:00,10.970,8.559,8.587,9.692,1.958,34.882,56.162886,10.203937,58.25
2025-10-13T11:04:01.415232+00:00,10.973,8.867,8.445,9.943,1.482,38.934,56.162922,10.203947,57.60
2025-10-13T11:04:01.618093+00:00,10.976,9.223,8.297,9.994,0.991,42.991,56.162897,10.203891,61.55
2025-10-13T11:04:01.822060+00:00,10.979,9.612,8.146,9.843,0.487,47.071,56.162934,10.203869,60.96
2025-10-13T11:04:02.024888+00:00,10.983,10.015,7.994,9.494,-0.019,51.127,56.162928,10.203892,58.64
2025-10-13T11:04:02.227686+00:00,10.986,10.418,7.842,8.954,-0.525,55.183,56.162945,10.203857,60.56
2025-10-13T11:04:02.430889+00:00,10.989,10.804,7.692,8.232,-1.027,59.247,56.162946,10.203942,57.99
2025-10-13T11:04:02.583143+00:00,10.992,11.072,7.581,7.582,-1.396,62.292,56.162946,10.203942,57.99
2025-10-13T11:04:02.785135+00:00,10.995,11.389,7.438,6.587,-1.873,66.332,56.162893,10.203933,58.25
2025-10-13T11:04:02.986892+00:00,10.999,11.649,7.301,5.462,-2.330,70.367,56.162921,10.203924,57.88
2025-10-13T11:04:03.188748+00:00,11.002,11.843,7.171,4.228,-2.764,74.404,56.162880,10.203888,58.32
2025-10-13T11:04:03.394243+00:00,11.006,11.963,7.047,2.885,-3.177,78.514,56.162891,10.203925,57.90
2025-10-13T11:04:03.597152+00:00,11.009,12.000,6.934,1.501,-3.552,82.572,56.162892,10.203937,59.38
2025-10-13T11:04:03.800245+00:00,11.013,11.955,6.833,0.085,-3.890,86.634,56.162887,10.203903,60.91
2025-10-13T11:04:04.004083+00:00,11.017,11.829,6.743,-1.338,-4.190,90.711,56.162868,10.203868,58.19
2025-10-13T11:04:04.206937+00:00,11.020,11.629,6.667,-2.727,-4.444,94.768,56.162904,10.203919,60.33
2025-10-13T11:04:04.410721+00:00,11.024,11.360,6.604,-4.067,-4.654,98.844,56.162866,10.203915,61.53
2025-10-13T11:04:04.613542+00:00,11.028,11.037,6.555,-5.319,-4.815,102.900,56.162856,10.203896,60.66
2025-10-13T11:04:04.817635+00:00,11.032,10.669,6.522,-6.470,-4.927,106.982,56.162861,10.203942,60.66
2025-10-13T11:04:05.020402+00:00,11.036,10.276,6.504,-7.484,-4.988,111.037,56.162904,10.203874,58.64
2025-10-13T11:04:05.223143+00:00,11.039,9.871,6.501,-8.347,-4.997,115.092,56.162874,10.203875,60.36
2025-10-13T11:04:05.425845+00:00,11.043,9.472,6.513,-9.042,-4.955,119.146,56.162885,10.203879,58.60
2025-10-13T11:04:05.628675+00:00,11.047,9.094,6.541,-9.555,-4.863,123.203,56.162896,10.203949,61.48
2025-10-13T11:04:05.831591+00:00,11.051,8.754,6.584,-9.876,-4.720,127.261,56.162865,10.203850,58.55
2025-10-13T11:04:06.034327+00:00,11.055,8.464,6.641,-9.999,-4.529,131.316,56.162875,10.203930,57.51
2025-10-13T11:04:06.238638+00:00,11.059,8.236,6.713,-9.919,-4.289,135.402,56.162880,10.203941,59.78
2025-10-13T11:04:06.442535+00:00,11.063,8.082,6.799,-9.637,-4.005,139.480,56.162944,10.203907,60.06
2025-10-13T11:04:06.645352+00:00,11.067,8.007,6.896,-9.162,-3.681,143.536,56.162868,10.203889,61.97
2025-10-13T11:04:06.848242+00:00,11.071,8.014,7.004,-8.503,-3.320,147.594,56.162914,10.203935,57.65
2025-10-13T11:04:07.051237+00:00,11.075,8.103,7.123,-7.672,-2.924,151.654,56.162945,10.203948,57.94
2025-10-13T11:04:07.203407+00:00,11.078,8.220,7.218,-6.946,-2.607,154.697,56.162945,10.203948,57.94
2025-10-13T11:04:07.405734+00:00,11.082,8.440,7.351,-5.861,-2.163,158.744,56.162901,10.203857,61.53
2025-10-13T11:04:07.607325+00:00,11.086,8.722,7.491,-4.663,-1.698,162.776,56.162916,10.203927,59.22
2025-10-13T11:04:07.809775+00:00,11.090,9.058,7.636,-3.367,-1.214,166.825,56.162944,10.203942,60.57
2025-10-13T11:04:08.011752+00:00,11.094,9.431,7.784,-2.007,-0.719,170.864,56.162896,10.203896,58.68
2025-10-13T11:04:08.214013+00:00,11.098,9.827,7.935,-0.604,-0.216,174.910,56.162867,10.203912,58.88
2025-10-13T11:04:08.424725+00:00,11.102,10.248,8.093,0.869,0.311,179.124,56.162922,10.203928,59.56
2025-10-13T11:04:08.627934+00:00,11.107,10.643,8.245,2.273,0.815,183.188,56.162898,10.203868,58.01
2025-10-13T11:04:08.832900+00:00,11.111,11.015,8.395,3.642,1.316,187.287,56.162877,10.203937,57.51
2025-10-13T11:04:09.035734+00:00,11.115,11.342,8.539,4.923,1.797,191.344,56.162883,10.203927,61.10
2025-10-13T11:04:09.239493+00:00,11.119,11.614,8.679,6.110,2.262,195.419,56.162944,10.203865,59.64
2025-10-13T11:04:09.442930+00:00,11.123,11.819,8.811,7.172,2.704,199.488,56.162924,10.203919,58.76
2025-10-13T11:04:09.646055+00:00,11.127,11.950,8.935,8.087,3.116,203.550,56.162899,10.203883,59.12
2025-10-13T11:04:09.849147+00:00,11.131,12.000,9.049,8.839,3.496,207.612,56.162891,10.203937,59.73
2025-10-13T11:04:10.052170+00:00,11.135,11.967,9.152,9.412,3.841,211.673,56.162922,10.203886,60.40
2025-10-13T11:04:10.255058+00:00,11.139,11.854,9.244,9.796,4.145,215.730,56.162908,10.203862,62.03
2025-10-13T11:04:10.457841+00:00,11.143,11.666,9.322,9.982,4.407,219.786,56.162936,10.203856,57.95
2025-10-13T11:04:10.662095+00:00,11.147,11.406,9.387,9.966,4.625,223.871,56.162898,10.203923,61.43
2025-10-13T11:04:10.866035+00:00,11.151,11.089,9.438,9.748,4.794,227.950,56.162925,10.203944,58.76
2025-10-13T11:04:11.068891+00:00,11.155,10.729,9.474,9.334,4.913,232.007,56.162915,10.203903,59.48
2025-10-13T11:04:11.273217+00:00,11.159,10.336,9.495,8.727,4.982,236.094,56.162926,10.203881,60.65
2025-10-13T11:04:11.475823+00:00,11.162,9.932,9.500,7.949,4.999,240.146,56.162944,10.203861,59.97
2025-10-13T11:04:11.627734+00:00,11.165,9.631,9.494,7.260,4.978,243.184,56.162944,10.203861,59.97
2025-10-13T11:04:11.830497+00:00,11.169,9.242,9.472,6.214,4.906,247.239,56.162852,10.203932,57.97
2025-10-13T11:04:12.032281+00:00,11.173,8.887,9.435,5.049,4.784,251.275,56.162853,10.203899,60.62
2025-10-13T11:04:12.234001+00:00,11.177,8.576,9.384,3.784,4.613,255.309,56.162939,10.203876,60.94
2025-10-13T11:04:12.436690+00:00,11.180,8.323,9.318,2.437,4.394,259.363,56.162874,10.203862,60.09
2025-10-13T11:04:12.639706+00:00,11.184,8.138,9.239,1.039,4.130,263.423,56.162867,10.203885,58.81
2025-10-13T11:04:12.843900+00:00,11.188,8.028,9.146,-0.389,3.821,267.507,56.162930,10.203866,62.43
2025-10-13T11:04:13.047002+00:00,11.191,8.001,9.042,-1.800,3.475,271.569,56.162874,10.203913,58.32
2025-10-13T11:04:13.249341+00:00,11.195,8.056,8.928,-3.171,3.094,275.616,56.162934,10.203949,60.53
2025-10-13T11:04:13.451861+00:00,11.199,8.190,8.804,-4.479,2.681,279.667,56.162934,10.203865,59.72
2025-10-13T11:04:13.655046+00:00,11.202,8.399,8.672,-5.701,2.239,283.730,56.162923,10.203908,57.83
2025-10-13T11:04:13.858506+00:00,11.206,8.674,8.532,-6.810,1.773,287.799,56.162857,10.203926,58.78
2025-10-13T11:04:14.061428+00:00,11.209,9.003,8.387,-7.778,1.291,291.858,56.162909,10.203892,62.46
2025-10-13T11:04:14.264666+00:00,11.212,9.373,8.238,-8.590,0.794,295.923,56.162865,10.203862,60.65
2025-10-13T11:04:14.466820+00:00,11.216,9.767,8.088,-9.227,0.292,299.966,56.162938,10.203860,57.99
2025-10-13T11:04:14.669702+00:00,11.219,10.172,7.935,-9.679,-0.215,304.023,56.162918,10.203889,61.22
2025-10-13T11:04:14.872685+00:00,11.222,10.570,7.784,-9.938,-0.720,308.083,56.162918,10.203916,62.46
2025-10-13T11:04:15.075650+00:00,11.225,10.945,7.635,-9.995,-1.218,312.142,56.162901,10.203945,58.52
2025-10-13T11:04:15.279922+00:00,11.229,11.283,7.488,-9.850,-1.706,316.228,56.162901,10.203887,60.95
2025-10-13T11:04:15.482142+00:00,11.232,11.565,7.349,-9.508,-2.172,320.272,56.162893,10.203943,61.45
2025-10-13T11:04:15.686405+00:00,11.235,11.785,7.214,-8.970,-2.619,324.357,56.162939,10.203874,60.24
2025-10-13T11:04:15.889534+00:00,11.238,11.930,7.089,-8.253,-3.038,328.420,56.162850,10.203915,59.80
2025-10-13T11:04:16.093541+00:00,11.241,11.996,6.972,-7.366,-3.426,332.500,56.162923,10.203890,58.31
2025-10-13T11:04:16.296630+00:00,11.243,11.980,6.867,-6.333,-3.778,336.562,56.162885,10.203947,60.27
2025-10-13T11:04:16.499621+00:00,11.246,11.882,6.773,-5.173,-4.090,340.622,56.162878,10.203883,58.53
2025-10-13T11:04:16.702494+00:00,11.249,11.707,6.692,-3.910,-4.360,344.679,56.162900,10.203926,57.75
2025-10-13T11:04:16.854815+00:00,11.251,11.529,6.640,-2.908,-4.534,347.726,56.162900,10.203926,57.75
2025-10-13T11:04:17.056803+00:00,11.254,11.239,6.583,-1.531,-4.723,351.765,56.162907,10.203864,61.77
2025-10-13T11:04:17.258844+00:00,11.256,10.899,6.541,-0.123,-4.865,355.806,56.162949,10.203932,61.79
2025-10-13T11:04:17.461485+00:00,11.259,10.521,6.513,1.292,-4.957,359.859,56.162937,10.203857,59.55
2025-10-13T11:04:17.663506+00:00,11.261,10.123,6.501,2.677,-4.998,3.899,56.162931,10.203925,59.65
2025-10-13T11:04:17.866301+00:00,11.263,9.719,6.504,4.013,-4.988,7.955,56.162949,10.203896,58.11
2025-10-13T11:04:18.069336+00:00,11.266,9.325,6.522,5.270,-4.926,12.016,56.162917,10.203910,59.57
2025-10-13T11:04:18.273496+00:00,11.268,8.957,6.556,6.427,-4.813,16.099,56.162851,10.203924,58.75
2025-10-13T11:04:18.475828+00:00,11.270,8.636,6.604,7.444,-4.652,20.146,56.162863,10.203924,58.78
2025-10-13T11:04:18.679989+00:00,11.272,8.368,6.668,8.319,-4.441,24.229,56.162866,10.203890,59.79
2025-10-13T11:04:18.883140+00:00,11.274,8.168,6.744,9.022,-4.185,28.292,56.162888,10.203902,62.30
2025-10-13T11:04:19.087304+00:00,11.276,8.043,6.835,9.544,-3.885,32.375,56.162929,10.203901,59.97
2025-10-13T11:04:19.290249+00:00,11.278,8.000,6.936,9.871,-3.546,36.434,56.162931,10.203866,59.49
2025-10-13T11:04:19.493078+00:00,11.280,8.039,7.049,9.998,-3.170,40.491,56.162937,10.203891,62.36
2025-10-13T11:04:19.696107+00:00,11.282,8.158,7.171,9.924,-2.762,44.551,56.162885,10.203859,60.05
2025-10-13T11:04:19.899093+00:00,11.283,8.353,7.302,9.651,-2.326,48.611,56.162931,10.203920,61.04
2025-10-13T11:04:20.102051+00:00,11.285,8.615,7.440,9.182,-1.866,52.670,56.162878,10.203903,58.42
2025-10-13T11:04:20.304895+00:00,11.286,8.934,7.584,8.530,-1.386,56.727,56.162885,10.203916,60.10
2025-10-13T11:04:20.508083+00:00,11.288,9.298,7.732,7.704,-0.892,60.791,56.162859,10.203876,60.81
2025-10-13T11:04:20.711391+00:00,11.289,9.691,7.884,6.721,-0.388,64.857,56.162853,10.203916,60.45
2025-10-13T11:04:20.914485+00:00,11.291,10.095,8.036,5.604,0.119,68.919,56.162895,10.203888,57.70
2025-10-13T11:04:21.117865+00:00,11.292,10.497,8.188,4.373,0.626,72.987,56.162904,10.203934,61.46
2025-10-13T11:04:21.320749+00:00,11.293,10.877,8.338,3.056,1.125,77.044,56.162855,10.203941,59.95
2025-10-13T11:04:21.523615+00:00,11.294,11.221,8.484,1.677,1.613,81.102,56.162852,10.203919,58.39
2025-10-13T11:04:21.727199+00:00,11.295,11.516,8.626,0.260,2.085,85.173,56.162904,10.203945,61.45
2025-10-13T11:04:21.879149+00:00,11.295,11.696,8.727,-0.803,2.424,88.212,56.162904,10.203945,61.45
2025-10-13T11:04:22.081103+00:00,11.296,11.874,8.856,-2.199,2.853,92.251,56.162872,10.203872,59.04
2025-10-13T11:04:22.283336+00:00,11.297,11.976,8.976,-3.553,3.253,96.296,56.162877,10.203931,59.13
2025-10-13T11:04:22.485086+00:00,11.298,11.998,9.086,-4.834,3.619,100.331,56.162935,10.203935,61.40
2025-10-13T11:04:22.687247+00:00,11.298,11.938,9.184,-6.020,3.948,104.374,56.162852,10.203903,61.64
2025-10-13T11:04:22.891700+00:00,11.299,11.797,9.272,-7.097,4.241,108.463,56.162887,10.203944,60.35
2025-10-13T11:04:23.094523+00:00,11.299,11.584,9.346,-8.023,4.487,112.520,56.162918,10.203920,59.65
2025-10-13T11:04:23.297184+00:00,11.299,11.305,9.406,-8.786,4.687,116.573,56.162889,10.203909,61.80
2025-10-13T11:04:23.488331+00:00,11.300,10.994,9.450,-9.345,4.832,120.396,56.162889,10.203909,61.80
2025-10-13T11:04:23.690662+00:00,11.300,10.625,9.481,-9.754,4.937,124.443,56.162908,10.203912,62.13
2025-10-13T11:04:23.894048+00:00,11.300,10.228,9.498,-9.968,4.992,128.510,56.162898,10.203920,61.72
2025-10-13T11:04:24.097099+00:00,11.300,9.823,9.499,-9.981,4.995,132.571,56.162896,10.203910,60.49
2025-10-13T11:04:24.299432+00:00,11.300,9.426,9.484,-9.793,4.947,136.618,56.162893,10.203936,59.38
2025-10-13T11:04:24.502088+00:00,11.300,9.052,9.455,-9.409,4.848,140.671,56.162903,10.203915,58.35
2025-10-13T11:04:24.705779+00:00,11.300,8.716,9.410,-8.832,4.699,144.745,56.162945,10.203881,58.39
2025-10-13T11:04:24.910767+00:00,11.299,8.430,9.350,-8.070,4.500,148.845,56.162892,10.203870,58.61
2025-10-13T11:04:25.113713+00:00,11.299,8.213,9.277,-7.153,4.256,152.904,56.162882,10.203853,60.71
2025-10-13T11:04:25.316719+00:00,11.298,8.068,9.190,-6.091,3.968,156.964,56.162908,10.203931,60.13
2025-10-13T11:04:25.519668+00:00,11.298,8.004,9.092,-4.907,3.639,161.023,56.162874,10.203861,61.78
2025-10-13T11:04:25.723624+00:00,11.297,8.021,8.981,-3.617,3.271,165.102,56.162891,10.203895,61.73
2025-10-13T11:04:25.927025+00:00,11.296,8.120,8.861,-2.258,2.870,169.170,56.162883,10.203906,60.68
2025-10-13T11:04:26.129990+00:00,11.296,8.296,8.732,-0.855,2.441,173.229,56.162902,10.203937,57.96
2025-10-13T11:04:26.332324+00:00,11.295,8.541,8.596,0.560,1.988,177.276,56.162864,10.203885,61.98
2025-10-13T11:04:26.536565+00:00,11.294,8.849,8.453,1.976,1.510,181.361,56.162897,10.203940,60.54
2025-10-13T11:04:26.740449+00:00,11.293,9.204,8.305,3.351,1.017,185.438,56.162873,10.203938,60.52
2025-10-13T11:04:26.944398+00:00,11.291,9.592,8.154,4.657,0.513,189.517,56.162913,10.203940,58.10
2025-10-13T11:04:27.147597+00:00,11.290,9.995,8.002,5.865,0.006,193.581,56.162886,10.203901,61.82
2025-10-13T11:04:27.350939+00:00,11.289,10.399,7.850,6.954,-0.502,197.648,56.162931,10.203873,61.98
2025-10-13T11:04:27.554703+00:00,11.288,10.788,7.698,7.905,-1.005,201.723,56.162914,10.203916,62.22
2025-10-13T11:04:27.758480+00:00,11.286,11.143,7.551,8.696,-1.498,205.799,56.162943,10.203920,60.19
2025-10-13T11:04:27.910412+00:00,11.285,11.379,7.443,9.171,-1.856,208.838,56.162943,10.203920,60.19
2025-10-13T11:04:28.113017+00:00,11.283,11.642,7.305,9.642,-2.316,212.890,56.162852,10.203938,61.29
2025-10-13T11:04:28.316239+00:00,11.282,11.839,7.174,9.921,-2.753,216.954,56.162916,10.203869,61.19
2025-10-13T11:04:28.540339+00:00,11.280,11.968,7.039,9.995,-3.203,221.436,56.162893,10.203880,62.33
2025-10-13T11:04:28.743163+00:00,11.278,11.999,6.928,9.851,-3.575,225.493,56.162929,10.203894,59.88
2025-10-13T11:04:28.946399+00:00,11.276,11.949,6.827,9.508,-3.911,229.557,56.162919,10.203928,62.27
2025-10-13T11:04:29.150051+00:00,11.274,11.819,6.738,8.971,-4.207,233.630,56.162865,10.203896,61.21
2025-10-13T11:04:29.352956+00:00,11.272,11.613,6.662,8.255,-4.459,237.688,56.162867,10.203869,62.00
2025-10-13T11:04:29.557635+00:00,11.270,11.340,6.600,7.365,-4.667,241.782,56.162940,10.203892,60.03
2025-10-13T11:04:29.762401+00:00,11.268,11.010,6.552,6.323,-4.826,245.877,56.162907,10.203885,57.76
2025-10-13T11:04:29.965511+00:00,11.266,10.641,6.520,5.162,-4.934,249.940,56.162938,10.203884,58.95
2025-10-13T11:04:30.169075+00:00,11.263,10.244,6.503,3.893,-4.991,254.011,56.162930,10.203890,62.44
2025-10-13T11:04:30.321994+00:00,11.261,9.939,6.500,2.887,-4.999,257.069,56.162930,10.203890,62.44
2025-10-13T11:04:30.524578+00:00,11.259,9.538,6.510,1.505,-4.966,261.121,56.162891,10.203906,57.75
2025-10-13T11:04:30.726456+00:00,11.257,9.157,6.535,0.097,-4.882,265.158,56.162906,10.203949,58.61
2025-10-13T11:04:30.928254+00:00,11.254,8.811,6.575,-1.312,-4.749,269.194,56.162867,10.203855,59.56
2025-10-13T11:04:31.130007+00:00,11.251,8.513,6.630,-2.694,-4.567,273.229,56.162924,10.203911,58.77
2025-10-13T11:04:31.332332+00:00,11.249,8.274,6.699,-4.026,-4.338,277.276,56.162916,10.203917,61.53
2025-10-13T11:04:31.535573+00:00,11.246,8.106,6.781,-5.284,-4.064,281.341,56.162903,10.203909,57.77
2025-10-13T11:04:31.739410+00:00,11.243,8.015,6.876,-6.437,-3.746,285.418,56.162936,10.203947,61.73
2025-10-13T11:04:31.943343+00:00,11.240,8.007,6.983,-7.460,-3.389,289.496,56.162884,10.203891,57.69
2025-10-13T11:04:32.145886+00:00,11.237,8.080,7.100,-8.327,-3.000,293.547,56.162887,10.203917,59.05
2025-10-13T11:04:32.349694+00:00,11.234,8.233,7.227,-9.029,-2.578,297.623,56.162943,10.203899,59.53
2025-10-13T11:04:32.554235+00:00,11.231,8.460,7.362,-9.550,-2.127,301.714,56.162880,10.203856,60.14
2025-10-13T11:04:32.756188+00:00,11.228,8.747,7.502,-9.873,-1.660,305.753,56.162910,10.203911,57.54
2025-10-13T11:04:32.957880+00:00,11.225,9.085,7.647,-9.998,-1.177,309.787,56.162897,10.203895,61.62
2025-10-13T11:04:33.160696+00:00,11.222,9.462,7.796,-9.924,-0.679,313.843,56.162868,10.203903,60.66
2025-10-13T11:04:33.362299+00:00,11.219,9.858,7.947,-9.652,-0.177,317.875,56.162891,10.203904,57.91
2025-10-13T11:04:33.564158+00:00,11.215,10.261,8.098,-9.188,0.327,321.912,56.162922,10.203923,61.71
2025-10-13T11:04:33.766029+00:00,11.212,10.654,8.249,-8.540,0.828,325.950,56.162866,10.203938,60.50
2025-10-13T11:04:33.967611+00:00,11.209,11.019,8.396,-7.723,1.320,329.982,56.162912,10.203929,60.44
2025-10-13T11:04:34.169416+00:00,11.205,11.343,8.540,-6.752,1.799,334.018,56.162949,10.203938,59.31
2025-10-13T11:04:34.371664+00:00,11.202,11.613,8.678,-5.644,2.261,338.063,56.162865,10.203937,62.36
2025-10-13T11:04:34.574549+00:00,11.198,11.818,8.810,-4.418,2.701,342.120,56.162938,10.203883,57.52
2025-10-13T11:04:34.776392+00:00,11.195,11.948,8.933,-3.111,3.111,346.157,56.162915,10.203905,59.73
2025-10-13T11:04:34.979099+00:00,11.191,11.999,9.047,-1.736,3.491,350.211,56.162869,10.203868,59.49
2025-10-13T11:04:35.181988+00:00,11.188,11.968,9.151,-0.324,3.836,354.269,56.162855,10.203855,61.86
2025-10-13T11:04:35.383972+00:00,11.184,11.857,9.242,1.087,4.140,358.309,56.162895,10.203903,62.49
2025-10-13T11:04:35.586509+00:00,11.180,11.670,9.321,2.481,4.402,2.359,56.162853,10.203852,61.63
2025-10-13T11:04:35.789399+00:00,11.177,11.414,9.386,3.827,4.619,6.417,56.162904,10.203927,60.73
2025-10-13T11:04:35.992516+00:00,11.173,11.100,9.437,5.098,4.790,10.480,56.162863,10.203858,59.65
2025-10-13T11:04:36.195274+00:00,11.169,10.741,9.473,6.264,4.910,14.535,56.162949,10.203883,58.51
2025-10-13T11:04:36.398890+00:00,11.165,10.350,9.494,7.307,4.981,18.607,56.162909,10.203917,58.78
2025-10-13T11:04:36.550892+00:00,11.162,10.048,9.500,7.991,5.000,21.647,56.162909,10.203917,58.78
2025-10-13T11:04:36.752659+00:00,11.158,9.646,9.494,8.758,4.980,25.682,56.162929,10.203861,61.16
2025-10-13T11:04:36.954573+00:00,11.155,9.258,9.473,9.350,4.910,29.721,56.162870,10.203938,61.34
2025-10-13T11:04:37.156818+00:00,11.151,8.900,9.437,9.757,4.790,33.766,56.162937,10.203878,59.48
2025-10-13T11:04:37.359304+00:00,11.147,8.587,9.386,9.969,4.620,37.815,56.162919,10.203935,61.75
2025-10-13T11:04:37.561060+00:00,11.143,8.332,9.321,9.981,4.404,41.851,56.162859,10.203895,57.56
2025-10-13T11:04:37.763278+00:00,11.139,8.144,9.243,9.793,4.143,45.895,56.162945,10.203905,62.40
2025-10-13T11:04:37.966664+00:00,11.135,8.032,9.151,9.407,3.837,49.963,56.162934,10.203908,57.75
2025-10-13T11:04:38.169647+00:00,11.131,8.001,9.048,8.832,3.493,54.022,56.162913,10.203915,57.98
2025-10-13T11:04:38.373698+00:00,11.127,8.052,8.933,8.075,3.110,58.103,56.162862,10.203901,59.58
2025-10-13T11:04:38.577971+00:00,11.123,8.184,8.808,7.152,2.695,62.189,56.162853,10.203850,62.33
2025-10-13T11:04:38.782947+00:00,11.119,8.393,8.675,6.079,2.250,66.288,56.162896,10.203916,62.41
2025-10-13T11:04:38.984953+00:00,11.115,8.664,8.536,4.899,1.788,70.328,56.162872,10.203913,61.79
2025-10-13T11:04:39.187907+00:00,11.111,8.992,8.392,3.615,1.306,74.387,56.162908,10.203851,59.09
2025-10-13T11:04:39.390819+00:00,11.107,9.360,8.243,2.259,0.810,78.446,56.162878,10.203925,60.13
2025-10-13T11:04:39.593704+00:00,11.102,9.755,8.092,0.857,0.306,82.503,56.162854,10.203881,57.86
2025-10-13T11:04:39.796536+00:00,11.098,10.160,7.940,-0.561,-0.200,86.560,56.162869,10.203920,60.98
2025-10-13T11:04:39.998628+00:00,11.094,10.557,7.789,-1.963,-0.703,90.602,56.162874,10.203932,57.79
2025-10-13T11:04:40.201496+00:00,11.090,10.933,7.640,-3.331,-1.201,94.659,56.162878,10.203915,59.67
2025-10-13T11:04:40.405175+00:00,11.086,11.271,7.494,-4.637,-1.688,98.733,56.162896,10.203903,60.41
2025-10-13T11:04:40.609015+00:00,11.082,11.558,7.352,-5.850,-2.158,102.810,56.162915,10.203895,59.12
2025-10-13T11:04:40.811831+00:00,11.078,11.778,7.219,-6.939,-2.604,106.866,56.162870,10.203870,60.20
2025-10-13T11:04:41.014526+00:00,11.074,11.926,7.093,-7.887,-3.022,110.920,56.162940,10.203943,61.85
2025-10-13T11:04:41.218310+00:00,11.070,11.995,6.976,-8.681,-3.412,114.996,56.162871,10.203942,60.23
2025-10-13T11:04:41.421944+00:00,11.066,11.982,6.870,-9.298,-3.766,119.068,56.162911,10.203914,60.23
2025-10-13T11:04:41.573981+00:00,11.063,11.918,6.799,-9.637,-4.005,122.109,56.162911,10.203914,60.23
2025-10-13T11:04:41.775840+00:00,11.059,11.766,6.714,-9.917,-4.286,126.146,56.162864,10.203898,61.33
2025-10-13T11:04:41.977766+00:00,11.055,11.542,6.643,-9.999,-4.524,130.185,56.162903,10.203940,62.37
2025-10-13T11:04:42.179494+00:00,11.051,11.255,6.585,-9.883,-4.715,134.219,56.162878,10.203922,60.14
2025-10-13T11:04:42.381635+00:00,11.047,10.917,6.542,-9.568,-4.859,138.262,56.162902,10.203857,60.80
2025-10-13T11:04:42.583513+00:00,11.043,10.542,6.514,-9.063,-4.953,142.300,56.162897,10.203908,60.68
2025-10-13T11:04:42.785435+00:00,11.040,10.145,6.501,-8.378,-4.997,146.338,56.162938,10.203880,61.07
2025-10-13T11:04:42.987635+00:00,11.036,9.741,6.503,-7.524,-4.989,150.382,56.162859,10.203870,59.61
2025-10-13T11:04:43.190106+00:00,11.032,9.348,6.521,-6.518,-4.931,154.431,56.162900,10.203903,60.99
2025-10-13T11:04:43.395142+00:00,11.028,8.976,6.554,-5.366,-4.821,158.532,56.162896,10.203884,58.16
2025-10-13T11:04:43.597718+00:00,11.024,8.652,6.601,-4.120,-4.662,162.584,56.162919,10.203897,62.11
2025-10-13T11:04:43.800564+00:00,11.021,8.382,6.664,-2.789,-4.455,166.641,56.162911,10.203892,57.71
2025-10-13T11:04:44.003590+00:00,11.017,8.178,6.739,-1.400,-4.202,170.701,56.162851,10.203948,59.32
2025-10-13T11:04:44.206338+00:00,11.013,8.049,6.828,0.014,-3.906,174.756,56.162904,10.203946,60.06
2025-10-13T11:04:44.410101+00:00,11.010,8.000,6.930,1.436,-3.568,178.831,56.162860,10.203942,62.41
2025-10-13T11:04:44.612915+00:00,11.006,8.034,7.041,2.821,-3.195,182.888,56.162888,10.203906,59.04
2025-10-13T11:04:44.815783+00:00,11.002,8.148,7.163,4.151,-2.790,186.945,56.162881,10.203870,59.11
2025-10-13T11:04:45.018688+00:00,10.999,8.338,7.294,5.397,-2.355,191.003,56.162890,10.203924,61.45
2025-10-13T11:04:45.221538+00:00,10.995,8.596,7.431,6.534,-1.896,195.060,56.162868,10.203874,62.26
2025-10-13T11:04:45.426463+00:00,10.992,8.916,7.576,7.549,-1.413,199.159,56.162867,10.203904,57.85
2025-10-13T11:04:45.629256+00:00,10.989,9.276,7.724,8.401,-0.920,203.214,56.162894,10.203931,60.16
2025-10-13T11:04:45.833065+00:00,10.985,9.669,7.875,9.087,-0.416,207.291,56.162854,10.203916,59.53
2025-10-13T11:04:46.036035+00:00,10.982,10.073,8.027,9.586,0.091,211.350,56.162898,10.203882,61.97
2025-10-13T11:04:46.238789+00:00,10.979,10.474,8.179,9.893,0.597,215.405,56.162916,10.203923,59.47
2025-10-13T11:04:46.442450+00:00,10.975,10.857,8.330,10.000,1.098,219.478,56.162897,10.203851,58.46
2025-10-13T11:04:46.645350+00:00,10.972,11.204,8.476,9.905,1.587,223.536,56.162904,10.203935,58.24
2025-10-13T11:04:46.848222+00:00,10.969,11.501,8.618,9.611,2.059,227.594,56.162873,10.203940,61.77
2025-10-13T11:04:47.000141+00:00,10.967,11.684,8.720,9.263,2.399,230.632,56.162873,10.203940,61.77
2025-10-13T11:04:47.202089+00:00,10.964,11.866,8.849,8.640,2.829,234.671,56.162880,10.203876,58.89
2025-10-13T11:04:47.404216+00:00,10.961,11.972,8.969,7.844,3.230,238.714,56.162868,10.203872,62.13
2025-10-13T11:04:47.606150+00:00,10.958,11.999,9.080,6.891,3.598,242.752,56.162862,10.203902,59.48
2025-10-13T11:04:47.807954+00:00,10.955,11.944,9.179,5.803,3.930,246.788,56.162918,10.203925,57.61
2025-10-13T11:04:48.010046+00:00,10.952,11.810,9.266,4.596,4.222,250.830,56.162943,10.203950,59.95
2025-10-13T11:04:48.212922+00:00,10.950,11.601,9.341,3.293,4.471,254.888,56.162878,10.203920,57.51
2025-10-13T11:04:48.415108+00:00,10.947,11.328,9.402,1.928,4.674,258.931,56.162907,10.203943,61.48
2025-10-13T11:04:48.618951+00:00,10.945,10.997,9.449,0.513,4.831,263.008,56.162877,10.203905,58.56
2025-10-13T11:04:48.821814+00:00,10.942,10.628,9.481,-0.905,4.936,267.066,56.162887,10.203901,58.14
2025-10-13T11:04:49.024935+00:00,10.940,10.232,9.497,-2.308,4.992,271.128,56.162943,10.203868,59.36
2025-10-13T11:04:49.228196+00:00,10.937,9.826,9.499,-3.664,4.995,275.193,56.162889,10.203865,57.82
2025-10-13T11:04:49.433912+00:00,10.935,9.423,9.484,-4.961,4.947,279.308,56.162903,10.203881,60.41
2025-10-13T11:04:49.636684+00:00,10.933,9.049,9.454,-6.140,4.847,283.363,56.162886,10.203881,59.93
2025-10-13T11:04:49.839614+00:00,10.930,8.714,9.409,-7.195,4.698,287.422,56.162922,10.203890,62.23
2025-10-13T11:04:50.042399+00:00,10.928,8.432,9.350,-8.105,4.501,291.477,56.162868,10.203903,61.25
2025-10-13T11:04:50.245126+00:00,10.926,8.214,9.277,-8.852,4.257,295.532,56.162868,10.203943,57.98
2025-10-13T11:04:50.448922+00:00,10.924,8.069,9.191,-9.424,3.969,299.608,56.162889,10.203929,61.81
2025-10-13T11:04:50.651827+00:00,10.922,8.004,9.092,-9.802,3.640,303.666,56.162864,10.203925,58.08
2025-10-13T11:04:50.855899+00:00,10.921,8.021,8.982,-9.984,3.272,307.747,56.162866,10.203903,60.11
2025-10-13T11:04:51.058711+00:00,10.919,8.119,8.862,-9.963,2.872,311.804,56.162853,10.203903,62.03
2025-10-13T11:04:51.261107+00:00,10.917,8.294,8.733,-9.743,2.444,315.851,56.162918,10.203885,59.20
2025-10-13T11:04:51.463923+00:00,10.915,8.539,8.597,-9.326,1.990,319.908,56.162915,10.203855,57.65
2025-10-13T11:04:51.667804+00:00,10.914,8.846,8.454,-8.717,1.513,323.985,56.162895,10.203885,61.68
2025-10-13T11:04:51.870852+00:00,10.912,9.199,8.307,-7.935,1.022,328.046,56.162903,10.203938,58.55
2025-10-13T11:04:52.073919+00:00,10.911,9.585,8.156,-6.993,0.521,332.108,56.162887,10.203917,62.13
2025-10-13T11:04:52.226090+00:00,10.910,9.887,8.042,-6.194,0.141,335.151,56.162887,10.203917,62.13
2025-10-13T11:04:52.428406+00:00,10.909,10.290,7.891,-5.023,-0.364,339.197,56.162856,10.203924,59.31
2025-10-13T11:04:52.630127+00:00,10.908,10.681,7.741,-3.757,-0.864,343.232,56.162901,10.203868,60.28
2025-10-13T11:04:52.832181+00:00,10.907,11.045,7.593,-2.413,-1.357,347.273,56.162857,10.203859,61.21
2025-10-13T11:04:53.034138+00:00,10.906,11.365,7.450,-1.021,-1.835,351.312,56.162910,10.203851,57.66
2025-10-13T11:04:53.237031+00:00,10.905,11.632,7.311,0.397,-2.296,355.370,56.162883,10.203857,62.01
2025-10-13T11:04:53.440358+00:00,10.904,11.832,7.179,1.810,-2.735,359.436,56.162929,10.203863,61.34
2025-10-13T11:04:53.647274+00:00,10.903,11.958,7.054,3.211,-3.153,3.575,56.162911,10.203887,58.16
2025-10-13T11:04:53.850163+00:00,10.902,12.000,6.941,4.519,-3.530,7.633,56.162879,10.203943,59.92
2025-10-13T11:04:54.052923+00:00,10.902,11.960,6.839,5.736,-3.870,11.688,56.162891,10.203933,59.77
2025-10-13T11:04:54.255774+00:00,10.901,11.840,6.749,6.837,-4.171,15.745,56.162925,10.203949,60.89
2025-10-13T11:04:54.459428+00:00,10.901,11.644,6.671,7.805,-4.429,19.818,56.162949,10.203876,62.16
2025-10-13T11:04:54.662370+00:00,10.901,11.381,6.608,8.611,-4.642,23.877,56.162922,10.203864,59.75
2025-10-13T11:04:54.865292+00:00,10.900,11.061,6.558,9.244,-4.806,27.935,56.162856,10.203931,59.93
2025-10-13T11:04:55.068879+00:00,10.900,10.696,6.524,9.692,-4.921,32.007,56.162908,10.203888,59.96
2025-10-13T11:04:55.271890+00:00,10.900,10.304,6.504,9.943,-4.985,36.067,56.162870,10.203890,57.81
2025-10-13T11:04:55.476349+00:00,10.900,9.896,6.501,9.993,-4.998,40.156,56.162925,10.203879,58.61
2025-10-13T11:04:55.679163+00:00,10.900,9.496,6.512,9.841,-4.959,44.213,56.162914,10.203852,60.42
2025-10-13T11:04:55.883106+00:00,10.900,9.114,6.539,9.489,-4.869,48.291,56.162918,10.203919,57.72
2025-10-13T11:04:56.085926+00:00,10.900,8.771,6.581,8.946,-4.729,52.348,56.162933,10.203914,61.91
2025-10-13T11:04:56.289671+00:00,10.901,8.477,6.638,8.221,-4.539,56.423,56.162897,10.203881,58.04
2025-10-13T11:04:56.493217+00:00,10.901,8.247,6.709,7.329,-4.303,60.494,56.162867,10.203932,62.50
2025-10-13T11:04:56.695998+00:00,10.902,8.089,6.793,6.293,-4.023,64.549,56.162902,10.203856,58.09
2025-10-13T11:04:56.898986+00:00,10.902,8.009,6.890,5.128,-3.701,68.609,56.162899,10.203902,59.57
2025-10-13T11:04:57.050685+00:00,10.903,8.003,6.969,4.190,-3.436,71.643,56.162899,10.203902,59.57
2025-10-13T11:04:57.252415+00:00,10.903,8.066,7.084,2.870,-3.053,75.678,56.162878,10.203907,62.12
2025-10-13T11:04:57.455450+00:00,10.904,8.208,7.209,1.484,-2.636,79.738,56.162935,10.203863,61.42
2025-10-13T11:04:57.658050+00:00,10.905,8.424,7.342,0.072,-2.192,83.790,56.162901,10.203889,60.57
2025-10-13T11:04:57.861190+00:00,10.906,8.704,7.482,-1.346,-1.725,87.853,56.162947,10.203903,62.09
2025-10-13T11:04:58.063949+00:00,10.907,9.038,7.627,-2.734,-1.242,91.908,56.162851,10.203924,57.77
2025-10-13T11:04:58.268011+00:00,10.908,9.413,7.777,-4.076,-0.742,95.990,56.162904,10.203882,62.26
2025-10-13T11:04:58.472696+00:00,10.909,9.814,7.930,-5.338,-0.233,100.083,56.162877,10.203865,59.70
2025-10-13T11:04:58.675384+00:00,10.910,10.219,8.082,-6.480,0.274,104.137,56.162910,10.203944,58.04
2025-10-13T11:04:58.878499+00:00,10.912,10.615,8.234,-7.494,0.778,108.199,56.162857,10.203882,58.46
2025-10-13T11:04:59.081416+00:00,10.913,10.986,8.382,-8.356,1.275,112.258,56.162893,10.203931,59.16
2025-10-13T11:04:59.285236+00:00,10.915,11.318,8.528,-9.052,1.760,116.334,56.162935,10.203908,60.39
2025-10-13T11:04:59.489872+00:00,10.916,11.596,8.669,-9.566,2.229,120.427,56.162911,10.203900,57.76
2025-10-13T11:04:59.692692+00:00,10.918,11.806,8.801,-9.882,2.670,124.483,56.162889,10.203939,59.32
2025-10-13T11:04:59.895936+00:00,10.920,11.942,8.926,-9.999,3.085,128.548,56.162850,10.203920,61.79
2025-10-13T11:05:00.098730+00:00,10.921,11.999,9.040,-9.915,3.468,132.604,56.162915,10.203900,61.45
2025-10-13T11:05:00.301487+00:00,10.923,11.973,9.144,-9.631,3.815,136.659,56.162884,10.203863,58.58
2025-10-13T11:05:00.504936+00:00,10.925,11.866,9.237,-9.152,4.123,140.728,56.162901,10.203863,61.03
2025-10-13T11:05:00.708836+00:00,10.927,11.681,9.317,-8.485,4.390,144.806,56.162856,10.203902,62.14
2025-10-13T11:05:00.911952+00:00,10.929,11.428,9.383,-7.650,4.610,148.868,56.162945,10.203916,58.60
2025-10-13T11:05:01.115042+00:00,10.932,11.117,9.435,-6.660,4.782,152.930,56.162882,10.203894,61.76
2025-10-13T11:05:01.318188+00:00,10.934,10.759,9.472,-5.536,4.906,156.993,56.162924,10.203902,60.07
2025-10-13T11:05:01.520997+00:00,10.936,10.371,9.493,-4.302,4.978,161.049,56.162933,10.203930,59.56
2025-10-13T11:05:01.672746+00:00,10.938,10.069,9.500,-3.320,4.999,164.084,56.162933,10.203930,59.56
2025-10-13T11:05:01.874826+00:00,10.940,9.667,9.495,-1.957,4.983,168.126,56.162858,10.203900,62.32
2025-10-13T11:05:02.076599+00:00,10.943,9.278,9.475,-0.557,4.915,172.161,56.162934,10.203902,61.53
2025-10-13T11:05:02.278260+00:00,10.945,8.919,9.439,0.853,4.798,176.194,56.162865,10.203878,61.92
2025-10-13T11:05:02.481480+00:00,10.948,8.602,9.389,2.257,4.630,180.259,56.162930,10.203908,60.70
2025-10-13T11:05:02.684399+00:00,10.950,8.342,9.325,3.613,4.415,184.317,56.162869,10.203934,61.54
2025-10-13T11:05:02.888324+00:00,10.953,8.150,9.246,4.903,4.154,188.396,56.162906,10.203863,60.18
2025-10-13T11:05:03.091166+00:00,10.956,8.035,9.155,6.087,3.850,192.453,56.162916,10.203874,61.91
2025-10-13T11:05:03.296253+00:00,10.959,8.000,9.051,7.160,3.504,196.554,56.162893,10.203863,60.52
2025-10-13T11:05:03.500257+00:00,10.962,8.049,8.937,8.080,3.122,200.634,56.162854,10.203941,61.83
2025-10-13T11:05:03.702998+00:00,10.965,8.178,8.813,8.832,2.711,204.689,56.162852,10.203872,61.47
2025-10-13T11:05:03.906059+00:00,10.968,8.381,8.681,9.408,2.271,208.750,56.162908,10.203873,58.03
2025-10-13T11:05:04.108905+00:00,10.971,8.651,8.543,9.793,1.808,212.807,56.162922,10.203870,60.23
2025-10-13T11:05:04.311688+00:00,10.974,8.976,8.398,9.981,1.327,216.863,56.162883,10.203932,59.35
2025-10-13T11:05:04.516475+00:00,10.977,9.347,8.248,9.967,0.828,220.959,56.162938,10.203853,61.21
2025-10-13T11:05:04.719400+00:00,10.980,9.741,8.097,9.751,0.324,225.017,56.162915,10.203861,59.78
2025-10-13T11:05:04.922576+00:00,10.984,10.147,7.945,9.339,-0.184,229.081,56.162881,10.203897,59.16
2025-10-13T11:05:05.125365+00:00,10.987,10.546,7.793,8.739,-0.689,233.137,56.162867,10.203949,59.47
2025-10-13T11:05:05.330131+00:00,10.990,10.925,7.643,7.955,-1.191,237.232,56.162902,10.203866,61.87
2025-10-13T11:05:05.532928+00:00,10.994,11.264,7.497,7.018,-1.677,241.288,56.162852,10.203939,60.24
2025-10-13T11:05:05.735763+00:00,10.997,11.550,7.357,5.939,-2.145,245.345,56.162882,10.203873,60.28
2025-10-13T11:05:05.938924+00:00,11.001,11.773,7.222,4.739,-2.592,249.408,56.162932,10.203899,60.73
2025-10-13T11:05:06.141674+00:00,11.004,11.923,7.097,3.446,-3.011,253.463,56.162921,10.203924,57.99
2025-10-13T11:05:06.344499+00:00,11.008,11.994,6.980,2.083,-3.400,257.519,56.162854,10.203897,58.10
2025-10-13T11:05:06.496205+00:00,11.011,11.994,6.900,1.034,-3.668,260.553,56.162854,10.203897,58.10
2025-10-13T11:05:06.697969+00:00,11.014,11.923,6.803,-0.376,-3.991,264.589,56.162887,10.203871,59.03
2025-10-13T11:05:06.900525+00:00,11.018,11.773,6.717,-1.784,-4.275,268.640,56.162855,10.203917,59.46
2025-10-13T11:05:07.103753+00:00,11.022,11.550,6.645,-3.161,-4.516,272.704,56.162919,10.203899,58.78
2025-10-13T11:05:07.306593+00:00,11.025,11.264,6.587,-4.472,-4.710,276.761,56.162885,10.203884,59.64
2025-10-13T11:05:07.510269+00:00,11.029,10.924,6.543,-5.698,-4.856,280.835,56.162937,10.203918,61.02
2025-10-13T11:05:07.713398+00:00,11.033,10.547,6.514,-6.805,-4.952,284.897,56.162867,10.203917,59.18
2025-10-13T11:05:07.917631+00:00,11.037,10.146,6.501,-7.779,-4.997,288.982,56.162933,10.203865,58.34
2025-10-13T11:05:08.121511+00:00,11.041,9.739,6.503,-8.594,-4.989,293.060,56.162860,10.203878,60.19
2025-10-13T11:05:08.325327+00:00,11.045,9.343,6.521,-9.234,-4.930,297.136,56.162895,10.203863,60.20
2025-10-13T11:05:08.527916+00:00,11.049,8.976,6.554,-9.684,-4.821,301.188,56.162864,10.203899,59.03
2025-10-13T11:05:08.730321+00:00,11.052,8.652,6.601,-9.939,-4.662,305.236,56.162935,10.203933,58.89
2025-10-13T11:05:08.933396+00:00,11.056,8.382,6.664,-9.995,-4.455,309.297,56.162912,10.203864,59.69
2025-10-13T11:05:09.136252+00:00,11.060,8.178,6.739,-9.850,-4.202,313.354,56.162866,10.203920,60.05
2025-10-13T11:05:09.339002+00:00,11.064,8.049,6.828,-9.506,-3.906,317.409,56.162861,10.203942,61.54
2025-10-13T11:05:09.541773+00:00,11.068,8.000,6.929,-8.972,-3.570,321.465,56.162928,10.203891,61.69
2025-10-13T11:05:09.744660+00:00,11.072,8.033,7.041,-8.256,-3.197,325.523,56.162876,10.203905,59.70
2025-10-13T11:05:09.947852+00:00,11.076,8.147,7.163,-7.373,-2.791,329.586,56.162870,10.203916,59.13
2025-10-13T11:05:10.152713+00:00,11.080,8.340,7.294,-6.332,-2.352,333.684,56.162857,10.203943,60.58
2025-10-13T11:05:10.355579+00:00,11.084,8.598,7.432,-5.173,-1.893,337.741,56.162929,10.203932,57.61
2025-10-13T11:05:10.558214+00:00,11.089,8.914,7.575,-3.911,-1.415,341.794,56.162885,10.203908,58.57
2025-10-13T11:05:10.761155+00:00,11.093,9.275,7.723,-2.568,-0.922,345.852,56.162863,10.203940,61.80
2025-10-13T11:05:10.965330+00:00,11.097,9.668,7.875,-1.166,-0.417,349.936,56.162898,10.203876,58.92
2025-10-13T11:05:11.117246+00:00,11.100,9.970,7.989,-0.105,-0.037,352.974,56.162898,10.203876,58.92
2025-10-13T11:05:11.318958+00:00,11.104,10.371,8.140,1.303,0.466,357.008,56.162883,10.203887,62.27
2025-10-13T11:05:11.521773+00:00,11.108,10.760,8.290,2.693,0.968,1.065,56.162925,10.203925,59.01
2025-10-13T11:05:11.723852+00:00,11.112,11.115,8.437,4.024,1.458,5.106,56.162871,10.203935,57.84
2025-10-13T11:05:11.926771+00:00,11.116,11.427,8.580,5.279,1.934,9.165,56.162851,10.203948,58.21
2025-10-13T11:05:12.129569+00:00,11.120,11.680,8.717,6.428,2.391,13.221,56.162877,10.203888,59.42
2025-10-13T11:05:12.333313+00:00,11.124,11.865,8.848,7.451,2.825,17.296,56.162944,10.203885,57.85
2025-10-13T11:05:12.535945+00:00,11.128,11.972,8.968,8.319,3.228,21.348,56.162899,10.203877,59.62
2025-10-13T11:05:12.740801+00:00,11.132,11.999,9.080,9.027,3.602,25.445,56.162886,10.203884,61.73
2025-10-13T11:05:12.943868+00:00,11.136,11.942,9.180,9.545,3.935,29.507,56.162862,10.203942,59.50
2025-10-13T11:05:13.147948+00:00,11.140,11.805,9.269,9.873,4.228,33.588,56.162889,10.203918,58.87
2025-10-13T11:05:13.353148+00:00,11.144,11.592,9.344,9.999,4.480,37.692,56.162911,10.203939,58.81
2025-10-13T11:05:13.555688+00:00,11.148,11.316,9.404,9.921,4.681,41.743,56.162869,10.203932,58.10
2025-10-13T11:05:13.758737+00:00,11.152,10.985,9.451,9.644,4.835,45.804,56.162931,10.203862,60.08
2025-10-13T11:05:13.961768+00:00,11.156,10.614,9.482,9.172,4.939,49.865,56.162874,10.203919,59.83
2025-10-13T11:05:14.164687+00:00,11.160,10.218,9.498,8.515,4.993,53.923,56.162903,10.203855,61.34
2025-10-13T11:05:14.367664+00:00,11.164,9.813,9.498,7.687,4.994,57.983,56.162898,10.203866,61.73
2025-10-13T11:05:14.570733+00:00,11.167,9.415,9.484,6.703,4.945,62.044,56.162895,10.203901,59.70
2025-10-13T11:05:14.774524+00:00,11.171,9.040,9.453,5.580,4.844,66.120,56.162923,10.203854,61.64
2025-10-13T11:05:14.977455+00:00,11.175,8.706,9.408,4.349,4.694,70.178,56.162864,10.203895,61.54
2025-10-13T11:05:15.180340+00:00,11.179,8.425,9.349,3.031,4.495,74.236,56.162885,10.203897,60.15
2025-10-13T11:05:15.383113+00:00,11.182,8.209,9.275,1.652,4.250,78.292,56.162920,10.203933,59.79
2025-10-13T11:05:15.586165+00:00,11.186,8.066,9.189,0.238,3.962,82.353,56.162885,10.203884,61.76
2025-10-13T11:05:15.789207+00:00,11.190,8.003,9.090,-1.180,3.632,86.413,56.162921,10.203864,61.37
2025-10-13T11:05:15.941825+00:00,11.193,8.009,9.008,-2.232,3.360,89.466,56.162891,10.203878,62.24
2025-10-13T11:05:16.144453+00:00,11.196,8.089,8.890,-3.588,2.968,93.518,56.162864,10.203894,61.62
2025-10-13T11:05:16.347281+00:00,11.200,8.247,8.764,-4.872,2.545,97.575,56.162878,10.203915,60.52
2025-10-13T11:05:16.550116+00:00,11.203,8.477,8.629,-6.059,2.096,101.632,56.162933,10.203885,60.51
2025-10-13T11:05:16.752941+00:00,11.207,8.770,8.488,-7.124,1.626,105.688,56.162888,10.203884,58.94
2025-10-13T11:05:16.956094+00:00,11.210,9.113,8.341,-8.047,1.138,109.751,56.162856,10.203886,58.87
2025-10-13T11:05:17.158933+00:00,11.213,9.493,8.192,-8.806,0.639,113.808,56.162883,10.203858,60.40
2025-10-13T11:05:17.362635+00:00,11.217,9.894,8.040,-9.390,0.132,117.882,56.162854,10.203856,58.65
2025-10-13T11:05:17.565519+00:00,11.220,10.299,7.888,-9.782,-0.375,121.940,56.162935,10.203941,62.23
2025-10-13T11:05:17.769326+00:00,11.223,10.693,7.736,-9.978,-0.880,126.016,56.162910,10.203866,62.44
2025-10-13T11:05:17.972183+00:00,11.226,11.057,7.588,-9.971,-1.374,130.073,56.162863,10.203884,62.48
2025-10-13T11:05:18.175110+00:00,11.229,11.377,7.444,-9.764,-1.854,134.132,56.162900,10.203896,59.87
2025-10-13T11:05:18.377845+00:00,11.233,11.641,7.306,-9.361,-2.314,138.186,56.162875,10.203883,61.83
2025-10-13T11:05:18.580964+00:00,11.236,11.838,7.174,-8.768,-2.752,142.249,56.162915,10.203887,61.97
2025-10-13T11:05:18.783181+00:00,11.239,11.959,7.052,-8.001,-3.159,146.293,56.162854,10.203881,62.13
2025-10-13T11:05:18.986156+00:00,11.241,12.000,6.939,-7.071,-3.535,150.352,56.162888,10.203859,58.39
2025-10-13T11:05:19.189266+00:00,11.244,11.959,6.837,-5.998,-3.876,154.415,56.162920,10.203916,61.22
2025-10-13T11:05:19.392196+00:00,11.247,11.837,6.747,-4.805,-4.176,158.473,56.162865,10.203851,59.22
2025-10-13T11:05:19.596033+00:00,11.250,11.640,6.670,-3.509,-4.434,162.550,56.162862,10.203913,61.57
2025-10-13T11:05:19.799295+00:00,11.252,11.375,6.606,-2.146,-4.645,166.615,56.162855,10.203936,61.22
2025-10-13T11:05:20.002213+00:00,11.255,11.054,6.557,-0.741,-4.809,170.674,56.162892,10.203892,59.52
2025-10-13T11:05:20.204992+00:00,11.258,10.690,6.523,0.677,-4.923,174.729,56.162930,10.203867,58.51
2025-10-13T11:05:20.407637+00:00,11.260,10.298,6.504,2.081,-4.986,178.782,56.162905,10.203899,59.64
2025-10-13T11:05:20.610524+00:00,11.262,9.893,6.501,3.444,-4.998,182.840,56.162925,10.203919,60.96
2025-10-13T11:05:20.813387+00:00,11.265,9.493,6.512,4.738,-4.959,186.897,56.162923,10.203886,62.48
2025-10-13T11:05:20.965283+00:00,11.266,9.206,6.531,5.646,-4.896,189.935,56.162923,10.203886,62.48
2025-10-13T11:05:21.167829+00:00,11.269,8.853,6.569,6.756,-4.769,193.986,56.162924,10.203941,60.17
2025-10-13T11:05:21.370611+00:00,11.271,8.546,6.622,7.731,-4.592,198.042,56.162896,10.203883,61.98
2025-10-13T11:05:21.573236+00:00,11.273,8.300,6.690,8.550,-4.368,202.094,56.162873,10.203912,62.45
2025-10-13T11:05:21.776030+00:00,11.275,8.122,6.770,9.198,-4.100,206.150,56.162886,10.203943,62.39
2025-10-13T11:05:21.980078+00:00,11.277,8.022,6.864,9.663,-3.787,210.231,56.162921,10.203941,61.40
2025-10-13T11:05:22.185314+00:00,11.279,8.003,6.970,9.932,-3.432,214.336,56.162926,10.203876,58.95
2025-10-13T11:05:22.388094+00:00,11.281,8.067,7.086,9.997,-3.047,218.391,56.162880,10.203863,58.61
2025-10-13T11:05:22.590368+00:00,11.282,8.210,7.211,9.861,-2.631,222.437,56.162881,10.203919,57.92
2025-10-13T11:05:22.793393+00:00,11.284,8.427,7.344,9.527,-2.187,226.497,56.162890,10.203932,60.36
2025-10-13T11:05:22.997396+00:00,11.285,8.710,7.485,8.997,-1.717,230.577,56.162946,10.203868,58.98
