ts_iso,batt_v,airspeed_ms,groundspeed_ms,roll_deg,pitch_deg,yaw_deg,lat,lon,alt_m
2025-10-13T11:05:59.686231+00:00,11.157,10.480,9.489,8.966,4.963,57.986,,,
2025-10-13T11:05:59.905016+00:00,11.161,10.047,9.500,8.186,5.000,62.362,56.162927,10.203888,58.09
2025-10-13T11:06:00.109534+00:00,11.165,9.640,9.494,7.283,4.980,66.452,56.162908,10.203877,59.09
2025-10-13T11:06:00.313209+00:00,11.169,9.249,9.472,6.235,4.908,70.526,56.162867,10.203947,57.69
2025-10-13T11:06:00.517993+00:00,11.173,8.888,9.435,5.054,4.784,74.621,56.162854,10.203928,57.99
2025-10-13T11:06:00.720224+00:00,11.177,8.577,9.384,3.786,4.613,78.666,56.162945,10.203901,60.47
2025-10-13T11:06:00.923909+00:00,11.180,8.322,9.318,2.432,4.393,82.740,56.162939,10.203859,60.90
2025-10-13T11:06:01.128734+00:00,11.184,8.136,9.238,1.022,4.126,86.836,56.162857,10.203929,61.79
2025-10-13T11:06:01.333458+00:00,11.188,8.027,9.145,-0.410,3.816,90.931,56.162883,10.203858,57.98
2025-10-13T11:06:01.536869+00:00,11.191,8.001,9.041,-1.823,3.469,94.999,56.162870,10.203890,61.57
2025-10-13T11:06:01.741572+00:00,11.195,8.058,8.925,-3.209,3.082,99.093,56.162937,10.203886,62.05
2025-10-13T11:06:01.944652+00:00,11.199,8.195,8.800,-4.518,2.667,103.154,56.162911,10.203921,58.89
2025-10-13T11:06:02.097113+00:00,11.201,8.347,8.701,-5.443,2.338,106.204,56.162911,10.203921,58.89
2025-10-13T11:06:02.301257+00:00,11.205,8.609,8.563,-6.582,1.875,110.287,56.162854,10.203914,59.86
2025-10-13T11:06:02.503854+00:00,11.208,8.927,8.419,-7.580,1.397,114.338,56.162889,10.203915,62.00
2025-10-13T11:06:02.707581+00:00,11.212,9.291,8.270,-8.430,0.901,118.413,56.162918,10.203884,59.46
2025-10-13T11:06:02.911042+00:00,11.215,9.683,8.119,-9.108,0.397,122.482,56.162913,10.203878,62.12
2025-10-13T11:06:03.113423+00:00,11.218,10.087,7.968,-9.600,-0.108,126.530,56.162864,10.203859,57.95
2025-10-13T11:06:03.317333+00:00,11.222,10.489,7.815,-9.901,-0.616,130.608,56.162895,10.203932,57.57
2025-10-13T11:06:03.519729+00:00,11.225,10.869,7.666,-10.000,-1.115,134.656,56.162871,10.203911,58.31
2025-10-13T11:06:03.721932+00:00,11.228,11.213,7.520,-9.899,-1.601,138.700,56.162917,10.203948,61.20
2025-10-13T11:06:03.924798+00:00,11.231,11.509,7.378,-9.599,-2.072,142.757,56.162858,10.203885,58.28
2025-10-13T11:06:04.127011+00:00,11.234,11.742,7.244,-9.108,-2.521,146.802,56.162892,10.203881,61.87
2025-10-13T11:06:04.330944+00:00,11.237,11.905,7.116,-8.428,-2.947,150.880,56.162920,10.203909,61.21
2025-10-13T11:06:04.532831+00:00,11.240,11.988,6.998,-7.585,-3.339,154.918,56.162939,10.203860,57.92
2025-10-13T11:06:04.734644+00:00,11.243,11.991,6.891,-6.592,-3.697,158.954,56.162863,10.203928,60.35
2025-10-13T11:06:04.936562+00:00,11.246,11.913,6.795,-5.467,-4.018,162.993,56.162864,10.203891,61.35
2025-10-13T11:06:05.138397+00:00,11.248,11.758,6.711,-4.234,-4.297,167.029,56.162883,10.203878,58.35
2025-10-13T11:06:05.340915+00:00,11.251,11.530,6.640,-2.911,-4.534,171.080,56.162898,10.203881,59.52
2025-10-13T11:06:05.542736+00:00,11.254,11.240,6.583,-1.535,-4.723,175.116,56.162911,10.203929,58.17
2025-10-13T11:06:05.744627+00:00,11.256,10.901,6.541,-0.128,-4.864,179.154,56.162921,10.203871,61.20
2025-10-13T11:06:05.946494+00:00,11.259,10.524,6.513,1.282,-4.956,183.191,56.162860,10.203868,61.24
2025-10-13T11:06:06.148767+00:00,11.261,10.126,6.501,2.668,-4.998,187.237,56.162905,10.203873,60.98
2025-10-13T11:06:06.351676+00:00,11.263,9.721,6.504,4.006,-4.988,191.295,56.162904,10.203898,57.62
2025-10-13T11:06:06.554316+00:00,11.266,9.328,6.522,5.261,-4.927,195.348,56.162889,10.203869,59.49
2025-10-13T11:06:06.757234+00:00,11.268,8.962,6.555,6.412,-4.815,199.406,56.162919,10.203880,60.23
2025-10-13T11:06:06.959168+00:00,11.270,8.640,6.604,7.429,-4.655,203.445,56.162931,10.203863,61.25
2025-10-13T11:06:07.161530+00:00,11.272,8.373,6.666,8.300,-4.447,207.492,56.162915,10.203885,59.81
2025-10-13T11:06:07.363268+00:00,11.274,8.173,6.742,9.002,-4.194,211.527,56.162872,10.203857,60.25
2025-10-13T11:06:07.565143+00:00,11.276,8.047,6.831,9.526,-3.898,215.564,56.162871,10.203907,57.95
2025-10-13T11:06:07.767253+00:00,11.278,8.000,6.931,9.860,-3.562,219.606,56.162878,10.203919,60.99
2025-10-13T11:06:07.969204+00:00,11.280,8.035,7.043,9.997,-3.191,223.646,56.162927,10.203938,58.16
2025-10-13T11:06:08.171378+00:00,11.282,8.149,7.164,9.934,-2.786,227.689,56.162885,10.203868,57.61
2025-10-13T11:06:08.373110+00:00,11.283,8.339,7.294,9.673,-2.354,231.724,56.162930,10.203913,61.23
2025-10-13T11:06:08.574966+00:00,11.285,8.596,7.431,9.220,-1.897,235.761,56.162935,10.203886,61.40
2025-10-13T11:06:08.777529+00:00,11.286,8.911,7.574,8.580,-1.420,239.812,56.162854,10.203923,58.31
2025-10-13T11:06:08.980029+00:00,11.288,9.271,7.722,7.768,-0.928,243.862,56.162898,10.203924,59.00
2025-10-13T11:06:09.183295+00:00,11.289,9.662,7.873,6.797,-0.424,247.927,56.162881,10.203937,59.24
2025-10-13T11:06:09.385033+00:00,11.290,10.063,8.024,5.697,0.079,251.962,56.162905,10.203906,61.42
2025-10-13T11:06:09.586859+00:00,11.292,10.463,8.175,4.483,0.583,255.999,56.162904,10.203877,60.02
2025-10-13T11:06:09.789211+00:00,11.293,10.844,8.324,3.176,1.081,260.046,56.162850,10.203881,61.08
2025-10-13T11:06:09.940442+00:00,11.294,11.108,8.434,2.156,1.447,263.070,56.162850,10.203881,61.08
2025-10-13T11:06:10.142448+00:00,11.294,11.420,8.577,0.758,1.922,267.110,56.162894,10.203903,62.13
2025-10-13T11:06:10.345213+00:00,11.295,11.674,8.714,-0.660,2.379,271.166,56.162912,10.203903,59.89
2025-10-13T11:06:10.547077+00:00,11.296,11.860,8.843,-2.058,2.810,275.203,56.162863,10.203874,58.01
2025-10-13T11:06:10.749091+00:00,11.297,11.969,8.964,-3.417,3.213,279.243,56.162914,10.203892,58.72
2025-10-13T11:06:10.950987+00:00,11.298,11.999,9.075,-4.707,3.583,283.281,56.162895,10.203886,62.37
2025-10-13T11:06:11.152795+00:00,11.298,11.948,9.175,-5.902,3.916,287.317,56.162899,10.203936,57.70
2025-10-13T11:06:11.355335+00:00,11.299,11.817,9.263,-6.984,4.210,291.368,56.162944,10.203920,59.87
2025-10-13T11:06:11.557585+00:00,11.299,11.612,9.338,-7.924,4.461,295.413,56.162899,10.203858,57.78
2025-10-13T11:06:11.760690+00:00,11.299,11.340,9.400,-8.708,4.667,299.475,56.162860,10.203912,62.04
2025-10-13T11:06:11.964234+00:00,11.300,11.012,9.448,-9.318,4.825,303.546,56.162885,10.203916,61.58
2025-10-13T11:06:12.166782+00:00,11.300,10.645,9.480,-9.737,4.933,307.597,56.162944,10.203881,60.24
2025-10-13T11:06:12.368656+00:00,11.300,10.252,9.497,-9.961,4.990,311.635,56.162936,10.203854,60.91
2025-10-13T11:06:12.570953+00:00,11.300,9.848,9.499,-9.986,4.996,315.680,56.162873,10.203937,61.18
2025-10-13T11:06:12.773778+00:00,11.300,9.449,9.485,-9.810,4.951,319.737,56.162912,10.203928,62.18
2025-10-13T11:06:12.976737+00:00,11.300,9.073,9.457,-9.437,4.856,323.796,56.162902,10.203906,58.45
2025-10-13T11:06:13.178668+00:00,11.300,8.737,9.413,-8.876,4.711,327.835,56.162898,10.203885,62.16
2025-10-13T11:06:13.380496+00:00,11.299,8.451,9.355,-8.139,4.518,331.871,56.162865,10.203869,61.39
2025-10-13T11:06:13.582414+00:00,11.299,8.229,9.284,-7.240,4.279,335.910,56.162922,10.203896,62.15
2025-10-13T11:06:28.215766+00:00,11.100,10.026,7.990,-0.090,-0.032,268.577,56.162922,10.203916,58.97
2025-10-13T11:06:28.417800+00:00,11.096,10.427,7.839,-1.499,-0.536,272.617,56.162853,10.203871,59.69
2025-10-13T11:06:28.620101+00:00,11.092,10.810,7.689,-2.879,-1.036,276.663,56.162918,10.203920,58.80
2025-10-13T11:06:28.821757+00:00,11.088,11.160,7.543,-4.198,-1.523,280.697,56.162868,10.203899,59.44
2025-10-13T11:06:29.023700+00:00,11.084,11.463,7.402,-5.435,-1.995,284.735,56.162906,10.203871,59.50
2025-10-13T11:06:29.226089+00:00,11.080,11.708,7.266,-6.566,-2.448,288.783,56.162852,10.203877,59.59
2025-10-13T11:06:29.428988+00:00,11.076,11.882,7.137,-7.567,-2.877,292.841,56.162922,10.203852,61.35
2025-10-13T11:06:29.630883+00:00,11.072,11.980,7.018,-8.413,-3.274,296.879,56.162919,10.203926,60.67
2025-10-13T11:06:29.832561+00:00,11.068,11.997,6.909,-9.090,-3.638,300.913,56.162930,10.203881,59.98
2025-10-13T11:06:30.034373+00:00,11.064,11.932,6.810,-9.586,-3.965,304.949,56.162889,10.203868,61.14
2025-10-13T11:06:30.236328+00:00,11.060,11.790,6.724,-9.892,-4.252,308.988,56.162924,10.203872,59.05
2025-10-13T11:06:30.438236+00:00,11.056,11.574,6.651,-10.000,-4.495,313.026,56.162894,10.203935,59.01
2025-10-13T11:06:30.640182+00:00,11.052,11.295,6.592,-9.909,-4.693,317.065,56.162933,10.203895,61.97
2025-10-13T11:06:30.841858+00:00,11.048,10.963,6.547,-9.620,-4.843,321.099,56.162902,10.203860,61.37
2025-10-13T11:06:31.043718+00:00,11.044,10.592,6.517,-9.140,-4.944,325.136,56.162852,10.203924,61.81
2025-10-13T11:06:31.246581+00:00,11.040,10.195,6.502,-8.474,-4.994,329.193,56.162902,10.203874,61.95
2025-10-13T11:06:31.448456+00:00,11.036,9.792,6.502,-7.641,-4.993,333.231,56.162868,10.203942,58.95
2025-10-13T11:06:31.650146+00:00,11.032,9.398,6.517,-6.657,-4.942,337.264,56.162881,10.203866,61.44
2025-10-13T11:06:31.853309+00:00,11.029,9.026,6.548,-5.533,-4.839,341.328,56.162873,10.203945,58.52
2025-10-13T11:06:32.004598+00:00,11.026,8.774,6.581,-4.621,-4.730,344.353,56.162873,10.203945,58.52
2025-10-13T11:06:32.207303+00:00,11.022,8.481,6.637,-3.321,-4.542,348.407,56.162894,10.203883,57.53
2025-10-13T11:06:32.408439+00:00,11.018,8.251,6.707,-1.964,-4.309,352.430,56.162930,10.203890,62.46
2025-10-13T11:06:32.610459+00:00,11.015,8.092,6.791,-0.562,-4.031,356.471,56.162911,10.203871,61.94
2025-10-13T11:06:32.812111+00:00,11.011,8.011,6.886,0.848,-3.713,0.504,56.162929,10.203944,59.47
2025-10-13T11:06:33.014008+00:00,11.007,8.010,6.993,2.243,-3.357,4.542,56.162859,10.203902,58.34
2025-10-13T11:06:33.217108+00:00,11.004,8.090,7.111,3.601,-2.964,8.604,56.162890,10.203923,60.92
2025-10-13T11:06:33.419204+00:00,11.000,8.249,7.237,4.880,-2.542,12.646,56.162858,10.203932,60.72
2025-10-13T11:06:33.621124+00:00,10.997,8.478,7.371,6.061,-2.096,16.684,56.162912,10.203943,62.45
2025-10-13T11:06:33.822854+00:00,10.993,8.769,7.512,7.120,-1.628,20.719,56.162866,10.203948,60.76
2025-10-13T11:06:34.024691+00:00,10.990,9.110,7.657,8.038,-1.143,24.755,56.162879,10.203937,62.40
2025-10-13T11:06:34.240234+00:00,10.986,9.513,7.816,8.841,-0.613,29.066,56.162907,10.203924,57.69
2025-10-13T11:06:34.442087+00:00,10.983,9.912,7.967,9.411,-0.110,33.103,56.162906,10.203885,57.66
2025-10-13T11:06:34.644348+00:00,10.980,10.315,8.119,9.794,0.395,37.148,56.162950,10.203947,61.42
2025-10-13T11:06:34.847062+00:00,10.977,10.706,8.269,9.981,0.898,41.203,56.162865,10.203858,59.03
2025-10-13T11:06:35.049914+00:00,10.974,11.069,8.417,9.968,1.391,45.260,56.162874,10.203898,58.69
2025-10-13T11:06:35.251796+00:00,10.970,11.386,8.560,9.755,1.868,49.297,56.162907,10.203917,61.80
2025-10-13T11:06:35.454045+00:00,10.967,11.648,8.698,9.347,2.327,53.342,56.162904,10.203886,61.72
2025-10-13T11:06:35.655796+00:00,10.964,11.841,8.828,8.753,2.760,57.377,56.162874,10.203867,61.04
2025-10-13T11:06:35.858344+00:00,10.961,11.961,8.950,7.982,3.168,61.428,56.162884,10.203935,60.49
2025-10-13T11:06:36.060310+00:00,10.959,12.000,9.063,7.054,3.542,65.468,56.162875,10.203925,60.07
2025-10-13T11:06:36.263141+00:00,10.956,11.958,9.164,5.980,3.881,69.524,56.162899,10.203896,61.57
2025-10-13T11:06:36.466035+00:00,10.953,11.835,9.254,4.785,4.180,73.582,56.162883,10.203909,62.44
2025-10-13T11:06:36.667643+00:00,10.950,11.638,9.330,3.502,4.435,77.614,56.162871,10.203937,60.17
2025-10-13T11:06:36.869615+00:00,10.948,11.375,9.394,2.148,4.645,81.654,56.162866,10.203884,59.02
2025-10-13T11:06:37.071629+00:00,10.945,11.056,9.442,0.750,4.808,85.694,56.162889,10.203866,61.49
2025-10-13T11:06:37.274594+00:00,10.942,10.692,9.477,-0.670,4.922,89.753,56.162875,10.203901,57.95
2025-10-13T11:06:37.476458+00:00,10.940,10.301,9.496,-2.068,4.986,93.791,56.162869,10.203903,61.38
2025-10-13T11:06:37.678138+00:00,10.938,9.899,9.500,-3.424,4.998,97.824,56.162888,10.203896,61.93
2025-10-13T11:06:37.880030+00:00,10.935,9.501,9.488,-4.714,4.960,101.862,56.162932,10.203851,59.08
2025-10-13T11:06:38.081867+00:00,10.933,9.122,9.461,-5.909,4.872,105.899,56.162943,10.203879,58.19
2025-10-13T11:06:38.284000+00:00,10.931,8.780,9.420,-6.987,4.733,109.941,56.162862,10.203950,60.74
2025-10-13T11:06:38.485968+00:00,10.929,8.486,9.364,-7.926,4.547,113.981,56.162940,10.203856,61.25
2025-10-13T11:06:38.687958+00:00,10.927,8.255,9.294,-8.706,4.314,118.021,56.162870,10.203921,58.15
2025-10-13T11:06:38.839254+00:00,10.925,8.128,9.233,-9.177,4.110,121.047,56.162870,10.203921,58.15
2025-10-13T11:06:39.040946+00:00,10.923,8.025,9.141,-9.645,3.803,125.080,56.162851,10.203872,61.99
2025-10-13T11:06:39.257076+00:00,10.921,8.003,9.029,-9.933,3.430,129.403,56.162945,10.203868,58.64
2025-10-13T11:06:39.459359+00:00,10.919,8.068,8.914,-9.997,3.046,133.449,56.162904,10.203940,60.92
2025-10-13T11:06:39.661163+00:00,10.918,8.210,8.789,-9.861,2.631,137.485,56.162939,10.203911,60.18
2025-10-13T11:06:39.864105+00:00,10.916,8.427,8.656,-9.527,2.186,141.544,56.162865,10.203910,62.29
2025-10-13T11:06:40.065972+00:00,10.915,8.707,8.517,-9.004,1.722,145.581,56.162907,10.203902,59.40
2025-10-13T11:06:40.267991+00:00,10.913,9.039,8.372,-8.300,1.240,149.621,56.162919,10.203862,60.73
2025-10-13T11:06:40.469949+00:00,10.912,9.410,8.224,-7.432,0.745,153.660,56.162922,10.203853,61.52
2025-10-13T11:06:40.672092+00:00,10.910,9.806,8.073,-6.414,0.243,157.703,56.162859,10.203868,57.94
2025-10-13T11:06:40.874008+00:00,10.909,10.209,7.921,-5.269,-0.262,161.742,56.162862,10.203925,58.17
2025-10-13T11:06:41.076888+00:00,10.908,10.606,7.770,-4.013,-0.766,165.799,56.162931,10.203885,60.82
2025-10-13T11:06:41.278787+00:00,10.907,10.976,7.622,-2.683,-1.260,169.837,56.162904,10.203943,59.38
2025-10-13T11:06:41.482648+00:00,10.906,11.309,7.476,-1.286,-1.746,173.914,56.162884,10.203882,62.47
2025-10-13T11:06:41.684419+00:00,10.905,11.585,7.337,0.123,-2.209,177.950,56.162854,10.203874,58.58
2025-10-13T11:06:41.886326+00:00,10.904,11.798,7.205,1.530,-2.650,181.988,56.162869,10.203888,58.28
2025-10-13T11:06:42.088415+00:00,10.903,11.937,7.081,2.908,-3.064,186.030,56.162852,10.203923,62.01
2025-10-13T11:06:42.291121+00:00,10.903,11.998,6.966,4.232,-3.448,190.084,56.162924,10.203868,57.70
2025-10-13T11:06:42.493844+00:00,10.902,11.976,6.861,5.471,-3.797,194.138,56.162880,10.203875,60.26
2025-10-13T11:06:42.695843+00:00,10.901,11.875,6.768,6.596,-4.105,198.178,56.162938,10.203917,58.78
2025-10-13T11:06:42.898734+00:00,10.901,11.696,6.688,7.594,-4.373,202.236,56.162864,10.203854,59.17
2025-10-13T11:06:43.100585+00:00,10.901,11.449,6.621,8.434,-4.595,206.273,56.162871,10.203853,60.65
2025-10-13T11:06:43.303622+00:00,10.900,11.141,6.569,9.110,-4.771,210.334,56.162922,10.203912,58.65
2025-10-13T11:06:43.505984+00:00,10.900,10.788,6.531,9.601,-4.898,214.381,56.162907,10.203892,62.34
2025-10-13T11:06:43.708778+00:00,10.900,10.401,6.508,9.900,-4.975,218.437,56.162918,10.203920,60.68
2025-10-13T11:06:43.910662+00:00,10.900,10.000,6.500,10.000,-5.000,222.475,56.162914,10.203868,60.76
2025-10-13T11:06:44.112548+00:00,10.900,9.599,6.508,9.900,-4.975,226.512,56.162859,10.203925,58.46
2025-10-13T11:06:44.314909+00:00,10.900,9.214,6.531,9.603,-4.898,230.560,56.162855,10.203914,59.41
2025-10-13T11:06:44.516829+00:00,10.900,8.861,6.568,9.114,-4.772,234.598,56.162898,10.203870,59.56
2025-10-13T11:06:44.668981+00:00,10.901,8.625,6.606,8.624,-4.645,237.641,56.162898,10.203870,59.56
2025-10-13T11:06:44.870893+00:00,10.901,8.362,6.670,7.825,-4.435,241.679,56.162916,10.203882,59.82
2025-10-13T11:06:45.072768+00:00,10.901,8.165,6.746,6.871,-4.180,245.717,56.162868,10.203854,61.73
2025-10-13T11:06:45.274786+00:00,10.902,8.043,6.836,5.778,-3.882,249.757,56.162880,10.203933,61.06
2025-10-13T11:06:45.476702+00:00,10.902,8.000,6.937,4.571,-3.544,253.795,56.162909,10.203907,57.52
2025-10-13T11:06:45.680428+00:00,10.903,8.039,7.050,3.260,-3.167,257.870,56.162890,10.203944,58.27
2025-10-13T11:06:45.882264+00:00,10.904,8.158,7.172,1.896,-2.761,261.907,56.162898,10.203872,62.31
2025-10-13T11:06:46.085154+00:00,10.905,8.353,7.303,0.487,-2.325,265.965,56.162939,10.203895,61.15
2025-10-13T11:06:46.287193+00:00,10.906,8.615,7.440,-0.925,-1.867,270.005,56.162928,10.203942,58.04
2025-10-13T11:06:46.489289+00:00,10.907,8.932,7.583,-2.320,-1.389,274.047,56.162884,10.203944,62.44
2025-10-13T11:06:46.692264+00:00,10.908,9.295,7.731,-3.674,-0.896,278.107,56.162890,10.203863,60.40
2025-10-13T11:06:46.894260+00:00,10.909,9.685,7.882,-4.948,-0.395,282.147,56.162870,10.203864,62.31
2025-10-13T11:06:47.095883+00:00,10.910,10.087,8.033,-6.121,0.109,286.179,56.162947,10.203914,58.80
2025-10-13T11:06:47.297688+00:00,10.911,10.486,8.183,-7.174,0.612,290.215,56.162855,10.203917,59.37
2025-10-13T11:06:47.500976+00:00,10.913,10.867,8.334,-8.089,1.112,294.281,56.162899,10.203860,62.03
2025-10-13T11:06:47.704273+00:00,10.914,11.213,8.480,-8.841,1.601,298.347,56.162921,10.203871,60.41
2025-10-13T11:06:47.907172+00:00,10.916,11.509,8.622,-9.414,2.072,302.405,56.162922,10.203948,60.39
2025-10-13T11:06:48.109951+00:00,10.917,11.742,8.757,-9.796,2.522,306.460,56.162944,10.203851,58.89
2025-10-13T11:06:48.314240+00:00,10.919,11.905,8.885,-9.982,2.949,310.546,56.162950,10.203920,61.76
2025-10-13T11:06:48.517182+00:00,10.921,11.989,9.003,-9.966,3.343,314.605,56.162865,10.203894,61.51
2025-10-13T11:06:48.721093+00:00,10.923,11.990,9.111,-9.747,3.704,318.683,56.162903,10.203920,60.36
2025-10-13T11:06:48.925935+00:00,10.925,11.909,9.208,-9.327,4.028,322.780,56.162932,10.203946,58.22
2025-10-13T11:06:49.128782+00:00,10.927,11.750,9.292,-8.723,4.307,326.837,56.162932,10.203937,59.81
2025-10-13T11:06:49.332679+00:00,10.929,11.517,9.363,-7.938,4.543,330.915,56.162873,10.203882,57.95
2025-10-13T11:06:49.535606+00:00,10.931,11.224,9.419,-6.997,4.732,334.974,56.162892,10.203923,59.92
2025-10-13T11:06:49.738851+00:00,10.933,10.879,9.461,-5.914,4.871,339.038,56.162897,10.203936,59.65
2025-10-13T11:06:49.890834+00:00,10.935,10.597,9.483,-5.024,4.943,342.078,56.162897,10.203936,59.65
2025-10-13T11:06:50.092535+00:00,10.937,10.203,9.498,-3.757,4.994,346.112,56.162945,10.203871,61.52
2025-10-13T11:06:50.295283+00:00,10.939,9.798,9.498,-2.409,4.994,350.167,56.162933,10.203880,59.14
2025-10-13T11:06:50.497122+00:00,10.942,9.403,9.483,-1.018,4.943,354.204,56.162887,10.203870,59.33
2025-10-13T11:06:50.700331+00:00,10.944,9.030,9.452,0.403,4.841,358.268,56.162939,10.203862,62.05
2025-10-13T11:06:50.902250+00:00,10.947,8.699,9.407,1.806,4.690,2.306,56.162887,10.203877,60.38
2025-10-13T11:06:51.104095+00:00,10.950,8.421,9.347,3.173,4.491,6.343,56.162888,10.203906,60.09
2025-10-13T11:06:51.306129+00:00,10.952,8.207,9.274,4.478,4.247,10.384,56.162866,10.203923,57.53
2025-10-13T11:06:51.508019+00:00,10.955,8.066,9.188,5.693,3.959,14.422,56.162859,10.203940,58.04
2025-10-13T11:06:51.709856+00:00,10.958,8.003,9.089,6.794,3.631,18.459,56.162878,10.203889,60.30
2025-10-13T11:06:51.911677+00:00,10.961,8.022,8.980,7.759,3.267,22.495,56.162948,10.203920,62.40
2025-10-13T11:06:52.113409+00:00,10.964,8.120,8.861,8.570,2.869,26.530,56.162923,10.203903,61.31
2025-10-13T11:06:52.316071+00:00,10.967,8.296,8.732,9.213,2.440,30.583,56.162869,10.203941,61.64
2025-10-13T11:06:52.518294+00:00,10.970,8.541,8.596,9.669,1.987,34.627,56.162874,10.203893,61.21
2025-10-13T11:06:52.720371+00:00,10.973,8.846,8.454,9.932,1.514,38.669,56.162910,10.203867,57.61
2025-10-13T11:06:52.922235+00:00,10.976,9.197,8.308,9.997,1.026,42.706,56.162888,10.203910,59.62
2025-10-13T11:06:53.124059+00:00,10.979,9.580,8.158,9.862,0.528,46.743,56.162892,10.203937,59.93
2025-10-13T11:06:53.326921+00:00,10.982,9.983,8.007,9.529,0.022,50.800,56.162938,10.203865,58.66
2025-10-13T11:06:53.528830+00:00,10.986,10.384,7.855,9.007,-0.482,54.838,56.162858,10.203949,60.72
2025-10-13T11:06:53.730975+00:00,10.989,10.770,7.705,8.304,-0.982,58.881,56.162881,10.203950,59.28
2025-10-13T11:06:53.932844+00:00,10.992,11.125,7.559,7.437,-1.471,62.918,56.162946,10.203873,60.17
2025-10-13T11:06:54.135664+00:00,10.996,11.435,7.416,6.416,-1.947,66.975,56.162921,10.203850,58.16
2025-10-13T11:06:54.338340+00:00,10.999,11.686,7.279,5.267,-2.403,71.028,56.162920,10.203854,62.20
2025-10-13T11:06:54.540578+00:00,11.003,11.868,7.150,4.015,-2.833,75.073,56.162948,10.203940,62.47
2025-10-13T11:06:54.744794+00:00,11.006,11.974,7.028,2.669,-3.239,79.157,56.162892,10.203935,60.57
2025-10-13T11:06:54.948525+00:00,11.010,11.998,6.917,1.272,-3.609,83.232,56.162860,10.203883,58.71
2025-10-13T11:06:55.151324+00:00,11.014,11.940,6.818,-0.144,-3.941,87.288,56.162854,10.203880,62.03
2025-10-13T11:06:55.354089+00:00,11.017,11.803,6.730,-1.557,-4.232,91.343,56.162887,10.203913,59.37
2025-10-13T11:06:55.556946+00:00,11.021,11.591,6.656,-2.939,-4.480,95.400,56.162925,10.203938,58.51
2025-10-13T11:06:55.761090+00:00,11.025,11.313,6.595,-4.270,-4.683,99.483,56.162942,10.203907,59.84
2025-10-13T11:06:55.963882+00:00,11.029,10.982,6.549,-5.507,-4.836,103.539,56.162924,10.203934,61.38
2025-10-13T11:06:56.167741+00:00,11.032,10.609,6.518,-6.638,-4.940,107.616,56.162851,10.203896,59.24
2025-10-13T11:06:56.371795+00:00,11.036,10.210,6.502,-7.635,-4.993,111.697,56.162853,10.203860,58.07
2025-10-13T11:06:56.574788+00:00,11.040,9.805,6.502,-8.473,-4.994,115.757,56.162945,10.203858,59.62
2025-10-13T11:06:56.777852+00:00,11.044,9.408,6.517,-9.140,-4.944,119.818,56.162889,10.203887,57.53
2025-10-13T11:06:56.929518+00:00,11.047,9.126,6.538,-9.518,-4.873,122.852,56.162889,10.203887,57.53
2025-10-13T11:06:57.131323+00:00,11.051,8.783,6.580,-9.855,-4.735,126.888,56.162939,10.203927,57.52
2025-10-13T11:06:57.333869+00:00,11.055,8.489,6.636,-9.996,-4.548,130.939,56.162908,10.203872,61.37
2025-10-13T11:06:57.535697+00:00,11.059,8.257,6.705,-9.937,-4.316,134.975,56.162945,10.203936,57.53
2025-10-13T11:06:57.737644+00:00,11.063,8.096,6.788,-9.679,-4.039,139.014,56.162924,10.203921,59.91
2025-10-13T11:06:57.939537+00:00,11.067,8.012,6.883,-9.229,-3.722,143.052,56.162897,10.203870,61.81
2025-10-13T11:06:58.141651+00:00,11.071,8.009,6.990,-8.593,-3.366,147.094,56.162902,10.203933,58.85
2025-10-13T11:06:58.343838+00:00,11.075,8.087,7.107,-7.786,-2.976,151.138,56.162909,10.203877,60.25
2025-10-13T11:06:58.545797+00:00,11.079,8.243,7.233,-6.824,-2.556,155.177,56.162912,10.203895,61.93
2025-10-13T11:06:58.748003+00:00,11.083,8.470,7.367,-5.725,-2.109,159.221,56.162888,10.203911,60.89
2025-10-13T11:06:58.949826+00:00,11.087,8.760,7.508,-4.513,-1.641,163.258,56.162895,10.203871,58.21
2025-10-13T11:06:59.153617+00:00,11.091,9.103,7.654,-3.199,-1.152,167.334,56.162858,10.203859,61.68
2025-10-13T11:06:59.355445+00:00,11.095,9.479,7.803,-1.833,-0.656,171.370,56.162912,10.203854,58.15
2025-10-13T11:06:59.558339+00:00,11.099,9.879,7.955,-0.423,-0.151,175.428,56.162890,10.203922,61.07
2025-10-13T11:06:59.760370+00:00,11.103,10.282,8.106,0.989,0.354,179.469,56.162894,10.203950,62.07
2025-10-13T11:06:59.962122+00:00,11.107,10.673,8.256,2.380,0.854,183.504,56.162858,10.203940,60.82
2025-10-13T11:07:00.163988+00:00,11.111,11.037,8.404,3.724,1.346,187.541,56.162880,10.203914,59.74
2025-10-13T11:07:00.366091+00:00,11.115,11.359,8.548,4.996,1.825,191.583,56.162866,10.203896,60.50
2025-10-13T11:07:00.568164+00:00,11.119,11.626,8.686,6.167,2.285,195.625,56.162852,10.203940,61.67
2025-10-13T11:07:00.770066+00:00,11.123,11.827,8.817,7.215,2.722,199.663,56.162909,10.203947,59.66
2025-10-13T11:07:00.972079+00:00,11.127,11.953,8.939,8.118,3.131,203.703,56.162931,10.203888,61.48
2025-10-13T11:07:01.173851+00:00,11.131,12.000,9.052,8.860,3.508,207.738,56.162912,10.203899,62.44
2025-10-13T11:07:01.375620+00:00,11.135,11.965,9.155,9.424,3.849,211.774,56.162880,10.203851,59.82
2025-10-13T11:07:01.577454+00:00,11.139,11.851,9.245,9.801,4.151,215.811,56.162944,10.203892,62.37
2025-10-13T11:07:01.780628+00:00,11.143,11.661,9.324,9.983,4.412,219.874,56.162930,10.203940,59.65
2025-10-13T11:07:01.983325+00:00,11.147,11.402,9.388,9.964,4.627,223.928,56.162940,10.203905,57.74
2025-10-13T11:07:02.185498+00:00,11.151,11.087,9.438,9.746,4.795,227.971,56.162895,10.203916,61.96
2025-10-13T11:07:02.387277+00:00,11.155,10.729,9.474,9.334,4.913,232.007,56.162872,10.203921,61.89
2025-10-13T11:07:02.589230+00:00,11.159,10.341,9.495,8.735,4.982,236.046,56.162925,10.203935,59.94
2025-10-13T11:07:02.791299+00:00,11.162,9.938,9.500,7.961,4.999,240.087,56.162928,10.203922,60.02
2025-10-13T11:07:02.993019+00:00,11.166,9.539,9.490,7.030,4.966,244.122,56.162932,10.203903,58.43
2025-10-13T11:07:03.194880+00:00,11.170,9.158,9.465,5.959,4.882,248.159,56.162939,10.203900,61.26
2025-10-13T11:07:03.397129+00:00,11.174,8.811,9.425,4.766,4.749,252.204,56.162912,10.203868,62.18
2025-10-13T11:07:03.599114+00:00,11.178,8.512,9.370,3.479,4.567,256.244,56.162950,10.203908,61.43
2025-10-13T11:07:03.802654+00:00,11.181,8.273,9.301,2.113,4.336,260.315,56.162915,10.203882,60.77
2025-10-13T11:07:04.005383+00:00,11.185,8.105,9.219,0.709,4.062,264.369,56.162898,10.203943,60.80
2025-10-13T11:07:04.208509+00:00,11.189,8.015,9.124,-0.712,3.746,268.432,56.162898,10.203910,61.52
2025-10-13T11:07:04.410995+00:00,11.192,8.006,9.017,-2.114,3.392,272.481,56.162851,10.203882,61.46
2025-10-13T11:07:04.615257+00:00,11.196,8.080,8.900,-3.485,2.999,276.567,56.162916,10.203877,58.46
2025-10-13T11:07:04.818219+00:00,11.199,8.233,8.774,-4.777,2.579,280.626,56.162881,10.203881,61.68
2025-10-13T11:07:04.970289+00:00,11.202,8.395,8.674,-5.683,2.246,283.667,56.162881,10.203881,61.68
2025-10-13T11:07:05.172044+00:00,11.205,8.666,8.535,-6.785,1.785,287.702,56.162908,10.203932,60.41
2025-10-13T11:07:05.373799+00:00,11.209,8.992,8.392,-7.751,1.305,291.737,56.162942,10.203919,59.13
2025-10-13T11:07:05.575631+00:00,11.212,9.359,8.244,-8.564,0.812,295.774,56.162856,10.203856,59.39
2025-10-13T11:07:05.777659+00:00,11.216,9.752,8.093,-9.206,0.311,299.815,56.162872,10.203923,60.25
2025-10-13T11:07:05.979498+00:00,11.219,10.155,7.942,-9.664,-0.194,303.851,56.162919,10.203897,62.29
2025-10-13T11:07:06.181656+00:00,11.222,10.552,7.791,-9.930,-0.697,307.895,56.162885,10.203949,60.14
2025-10-13T11:07:06.383257+00:00,11.225,10.926,7.643,-9.997,-1.192,311.927,56.162939,10.203913,58.67
2025-10-13T11:07:06.585207+00:00,11.228,11.263,7.497,-9.866,-1.675,315.966,56.162866,10.203882,61.60
2025-10-13T11:07:06.787113+00:00,11.231,11.548,7.358,-9.537,-2.141,320.004,56.162903,10.203908,60.30
2025-10-13T11:07:06.989948+00:00,11.234,11.771,7.224,-9.016,-2.588,324.060,56.162939,10.203915,57.53
2025-10-13T11:07:07.191670+00:00,11.237,11.922,7.098,-8.317,-3.005,328.095,56.162917,10.203875,60.43
2025-10-13T11:07:07.393456+00:00,11.240,11.994,6.982,-7.453,-3.393,332.131,56.162887,10.203873,58.81
2025-10-13T11:07:07.596272+00:00,11.243,11.985,6.876,-6.434,-3.747,336.187,56.162897,10.203923,58.50
2025-10-13T11:07:07.798228+00:00,11.246,11.895,6.782,-5.291,-4.062,340.226,56.162943,10.203858,60.79
2025-10-13T11:07:08.000048+00:00,11.249,11.728,6.700,-4.044,-4.335,344.262,56.162873,10.203894,58.55
2025-10-13T11:07:08.201962+00:00,11.251,11.491,6.631,-2.715,-4.564,348.301,56.162896,10.203902,59.55
2025-10-13T11:07:08.404925+00:00,11.254,11.192,6.576,-1.325,-4.747,352.360,56.162880,10.203940,59.43
2025-10-13T11:07:08.606820+00:00,11.257,10.846,6.536,0.084,-4.881,356.398,56.162927,10.203927,59.07
2025-10-13T11:07:08.808931+00:00,11.259,10.465,6.510,1.494,-4.966,0.440,56.162904,10.203862,60.82
2025-10-13T11:07:09.010722+00:00,11.261,10.066,6.500,2.871,-4.999,4.476,56.162931,10.203870,58.04
2025-10-13T11:07:09.214893+00:00,11.264,9.659,6.506,4.206,-4.982,8.559,56.162850,10.203903,60.28
2025-10-13T11:07:09.417384+00:00,11.266,9.270,6.526,5.445,-4.913,12.609,56.162923,10.203897,60.43
2025-10-13T11:07:09.619397+00:00,11.268,8.911,6.562,6.573,-4.794,16.649,56.162862,10.203924,58.03
2025-10-13T11:07:09.821429+00:00,11.270,8.596,6.612,7.570,-4.627,20.690,56.162910,10.203901,57.81
2025-10-13T11:07:10.023274+00:00,11.273,8.339,6.676,8.414,-4.412,24.727,56.162948,10.203901,57.91
2025-10-13T11:07:10.225919+00:00,11.275,8.149,6.755,9.094,-4.151,28.780,56.162927,10.203851,58.33
2025-10-13T11:07:10.427730+00:00,11.276,8.035,6.845,9.589,-3.850,32.816,56.162937,10.203893,58.58
2025-10-13T11:07:10.629879+00:00,11.278,8.000,6.948,9.893,-3.508,36.859,56.162941,10.203937,62.21
2025-10-13T11:07:10.831787+00:00,11.280,8.047,7.061,10.000,-3.131,40.897,56.162908,10.203872,59.23
2025-10-13T11:07:11.033595+00:00,11.282,8.173,7.183,9.907,-2.722,44.933,56.162939,10.203888,59.57
2025-10-13T11:07:11.236200+00:00,11.283,8.374,7.315,9.615,-2.284,48.985,56.162949,10.203946,60.80
2025-10-13T11:07:11.438029+00:00,11.285,8.641,7.453,9.133,-1.825,53.022,56.162949,10.203921,59.08
2025-10-13T11:07:11.640083+00:00,11.287,8.963,7.596,8.468,-1.346,57.063,56.162868,10.203921,57.55
2025-10-13T11:07:11.841935+00:00,11.288,9.327,7.744,7.634,-0.854,61.100,56.162940,10.203884,59.75
2025-10-13T11:07:12.043699+00:00,11.289,9.718,7.894,6.649,-0.353,65.135,56.162872,10.203900,61.96
2025-10-13T11:07:12.247236+00:00,11.291,10.124,8.047,5.521,0.155,69.206,56.162870,10.203919,57.98
2025-10-13T11:07:12.449198+00:00,11.292,10.522,8.197,4.291,0.658,73.245,56.162922,10.203906,60.28
2025-10-13T11:07:12.651733+00:00,11.293,10.900,8.347,2.972,1.156,77.296,56.162945,10.203873,62.41
2025-10-13T11:07:12.854577+00:00,11.294,11.241,8.493,1.590,1.642,81.353,56.162933,10.203851,58.01
2025-10-13T11:07:13.057471+00:00,11.295,11.532,8.634,0.177,2.112,85.411,56.162890,10.203885,58.69
2025-10-13T11:07:13.261016+00:00,11.296,11.760,8.769,-1.245,2.562,89.482,56.162943,10.203907,58.39
2025-10-13T11:07:13.412972+00:00,11.296,11.884,8.864,-2.291,2.880,92.521,56.162943,10.203907,58.39
2025-10-13T11:07:13.615759+00:00,11.297,11.980,8.984,-3.645,3.279,96.577,56.162913,10.203911,57.70
2025-10-13T11:07:13.818228+00:00,11.298,11.996,9.093,-4.924,3.644,100.626,56.162904,10.203929,57.84
2025-10-13T11:07:14.020174+00:00,11.298,11.931,9.191,-6.101,3.970,104.665,56.162945,10.203852,62.49
2025-10-13T11:07:14.223896+00:00,11.299,11.785,9.278,-7.165,4.259,108.739,56.162912,10.203854,62.12
2025-10-13T11:07:14.427235+00:00,11.299,11.566,9.351,-8.082,4.503,112.806,56.162922,10.203886,61.72
2025-10-13T11:07:14.630283+00:00,11.300,11.283,9.410,-8.835,4.700,116.867,56.162925,10.203943,60.30
2025-10-13T11:07:14.832300+00:00,11.300,10.949,9.454,-9.407,4.848,120.907,56.162863,10.203925,61.27
2025-10-13T11:07:15.034121+00:00,11.300,10.577,9.484,-9.791,4.947,124.944,56.162950,10.203913,60.28
2025-10-13T11:07:15.237669+00:00,11.300,10.178,9.499,-9.981,4.995,129.015,56.162907,10.203855,60.32
2025-10-13T11:07:15.439652+00:00,11.300,9.775,9.498,-9.969,4.992,133.054,56.162893,10.203932,61.21
2025-10-13T11:07:15.641806+00:00,11.300,9.380,9.481,-9.758,4.938,137.098,56.162857,10.203900,60.97
2025-10-13T11:07:15.845095+00:00,11.300,9.009,9.450,-9.349,4.833,141.163,56.162864,10.203895,58.38
2025-10-13T11:07:16.046925+00:00,11.299,8.681,9.404,-8.756,4.679,145.200,56.162938,10.203873,60.28
2025-10-13T11:07:16.249640+00:00,11.299,8.405,9.343,-7.985,4.477,149.254,56.162933,10.203915,62.26
2025-10-13T11:07:16.451617+00:00,11.299,8.196,9.269,-7.057,4.230,153.294,56.162950,10.203927,59.03
2025-10-13T11:07:16.653835+00:00,11.298,8.059,9.182,-5.987,3.939,157.338,56.162932,10.203907,61.38
2025-10-13T11:07:16.856871+00:00,11.298,8.002,9.082,-4.792,3.607,161.399,56.162934,10.203871,61.05
2025-10-13T11:07:17.058586+00:00,11.297,8.026,8.972,-3.509,3.240,165.433,56.162876,10.203864,60.81
2025-10-13T11:07:17.260296+00:00,11.296,8.130,8.852,-2.156,2.840,169.467,56.162921,10.203867,58.82
2025-10-13T11:07:17.462264+00:00,11.295,8.311,8.723,-0.759,2.410,173.507,56.162931,10.203859,57.65
2025-10-13T11:07:17.664141+00:00,11.295,8.559,8.587,0.653,1.957,177.544,56.162941,10.203909,59.12
2025-10-13T11:07:17.866314+00:00,11.294,8.867,8.445,2.054,1.482,181.588,56.162866,10.203921,61.77
2025-10-13T11:07:18.068107+00:00,11.293,9.221,8.298,3.412,0.994,185.624,56.162916,10.203893,60.02
2025-10-13T11:07:18.270654+00:00,11.291,9.607,8.148,4.706,0.493,189.674,56.162892,10.203886,60.27
2025-10-13T11:07:18.473593+00:00,11.290,10.011,7.996,5.908,-0.013,193.733,56.162855,10.203865,57.85
2025-10-13T11:07:18.675476+00:00,11.289,10.411,7.845,6.985,-0.517,197.771,56.162908,10.203919,58.01
2025-10-13T11:07:18.877218+00:00,11.288,10.795,7.695,7.923,-1.015,201.806,56.162914,10.203870,60.25
2025-10-13T11:07:19.079034+00:00,11.286,11.147,7.549,8.703,-1.503,205.842,56.162850,10.203942,57.64
2025-10-13T11:07:19.282576+00:00,11.285,11.454,7.406,9.314,-1.980,209.913,56.162918,10.203928,61.04
2025-10-13T11:07:19.484894+00:00,11.283,11.701,7.270,9.735,-2.433,213.959,56.162857,10.203922,61.09
2025-10-13T11:07:19.686737+00:00,11.281,11.877,7.142,9.960,-2.861,217.996,56.162859,10.203901,58.43
2025-10-13T11:07:19.888630+00:00,11.280,11.977,7.022,9.987,-3.260,222.034,56.162927,10.203919,57.93
2025-10-13T11:07:20.090252+00:00,11.278,11.997,6.913,9.815,-3.625,226.066,56.162875,10.203901,61.06
2025-10-13T11:07:20.293437+00:00,11.276,11.936,6.813,9.444,-3.955,230.130,56.162863,10.203856,61.56
2025-10-13T11:07:20.495168+00:00,11.274,11.796,6.727,8.887,-4.243,234.165,56.162918,10.203860,61.80
2025-10-13T11:07:20.647337+00:00,11.272,11.641,6.670,8.349,-4.432,237.208,56.162890,10.203871,61.47
2025-10-13T11:07:20.849247+00:00,11.270,11.379,6.607,7.491,-4.643,241.246,56.162876,10.203935,57.68
2025-10-13T11:07:21.050873+00:00,11.268,11.061,6.558,6.484,-4.806,245.279,56.162929,10.203934,60.63
2025-10-13T11:07:21.253054+00:00,11.266,10.699,6.524,5.345,-4.921,249.322,56.162939,10.203892,61.70
2025-10-13T11:07:21.454749+00:00,11.264,10.309,6.505,4.103,-4.985,253.356,56.162855,10.203914,59.60
2025-10-13T11:07:21.656298+00:00,11.261,9.907,6.500,2.780,-4.999,257.387,56.162893,10.203879,62.27
2025-10-13T11:07:21.857915+00:00,11.259,9.509,6.512,1.401,-4.962,261.420,56.162921,10.203877,59.66
2025-10-13T11:07:22.059549+00:00,11.256,9.131,6.538,-0.006,-4.874,265.452,56.162915,10.203929,60.53
2025-10-13T11:07:22.261975+00:00,11.254,8.786,6.579,-1.418,-4.737,269.501,56.162858,10.203939,60.92
2025-10-13T11:07:22.463797+00:00,11.251,8.492,6.635,-2.798,-4.551,273.537,56.162896,10.203871,59.88
2025-10-13T11:07:22.665976+00:00,11.249,8.259,6.704,-4.124,-4.319,277.581,56.162901,10.203881,58.71
2025-10-13T11:07:22.867987+00:00,11.246,8.097,6.787,-5.367,-4.043,281.621,56.162892,10.203897,61.68
2025-10-13T11:07:23.069599+00:00,11.243,8.012,6.882,-6.500,-3.726,285.653,56.162871,10.203912,58.43
2025-10-13T11:07:23.272122+00:00,11.240,8.008,6.989,-7.509,-3.370,289.704,56.162874,10.203873,60.44
2025-10-13T11:07:23.473928+00:00,11.237,8.085,7.106,-8.364,-2.981,293.740,56.162902,10.203891,60.08
2025-10-13T11:07:23.675828+00:00,11.234,8.240,7.232,-9.053,-2.561,297.778,56.162882,10.203949,59.08
2025-10-13T11:07:23.877586+00:00,11.231,8.466,7.365,-9.560,-2.116,301.813,56.162898,10.203859,61.85
2025-10-13T11:07:24.079283+00:00,11.228,8.755,7.505,-9.878,-1.649,305.847,56.162854,10.203872,60.82
2025-10-13T11:07:24.284100+00:00,11.225,9.099,7.653,-9.999,-1.158,309.943,56.162854,10.203922,59.50
2025-10-13T11:07:24.486942+00:00,11.222,9.477,7.802,-9.917,-0.660,314.000,56.162911,10.203911,61.04
2025-10-13T11:07:24.688723+00:00,11.219,9.874,7.953,-9.637,-0.157,318.036,56.162909,10.203870,60.20
2025-10-13T11:07:24.890538+00:00,11.215,10.277,8.104,-9.165,0.347,322.072,56.162920,10.203911,59.39
2025-10-13T11:07:25.093143+00:00,11.212,10.670,8.255,-8.508,0.850,326.124,56.162879,10.203920,60.33
2025-10-13T11:07:25.295681+00:00,11.209,11.035,8.403,-7.680,1.344,330.175,56.162850,10.203930,60.67
2025-10-13T11:07:25.497347+00:00,11.205,11.357,8.546,-6.703,1.822,334.208,56.162934,10.203901,60.53
2025-10-13T11:07:25.699097+00:00,11.202,11.624,8.684,-5.591,2.281,338.243,56.162888,10.203853,60.07
2025-10-13T11:07:25.900982+00:00,11.198,11.825,8.815,-4.368,2.718,342.281,56.162907,10.203859,62.44
2025-10-13T11:07:26.102617+00:00,11.195,11.952,8.938,-3.059,3.127,346.314,56.162905,10.203856,62.39
2025-10-13T11:07:26.305056+00:00,11.191,12.000,9.051,-1.684,3.505,350.363,56.162867,10.203851,59.96
2025-10-13T11:07:26.506769+00:00,11.187,11.966,9.154,-0.280,3.846,354.397,56.162898,10.203876,61.80
2025-10-13T11:07:26.708523+00:00,11.184,11.853,9.244,1.130,4.148,358.432,56.162888,10.203931,58.64
2025-10-13T11:07:26.910475+00:00,11.180,11.664,9.323,2.519,4.409,2.471,56.162947,10.203945,61.28
2025-10-13T11:07:27.112150+00:00,11.176,11.408,9.387,3.855,4.624,6.504,56.162885,10.203916,59.92
2025-10-13T11:07:27.314678+00:00,11.173,11.093,9.438,5.121,4.792,10.555,56.162876,10.203900,61.38
2025-10-13T11:07:27.516341+00:00,11.169,10.736,9.473,6.278,4.912,14.588,56.162906,10.203925,60.64
2025-10-13T11:07:27.718019+00:00,11.165,10.348,9.494,7.311,4.981,18.622,56.162850,10.203908,59.12
2025-10-13T11:07:27.920111+00:00,11.161,9.946,9.500,8.200,5.000,22.664,56.162932,10.203880,58.58
2025-10-13T11:07:28.121713+00:00,11.157,9.547,9.490,8.923,4.967,26.696,56.162933,10.203913,61.86
2025-10-13T11:07:28.324420+00:00,11.154,9.164,9.465,9.472,4.884,30.750,56.162863,10.203892,59.37
2025-10-13T11:07:28.527168+00:00,11.150,8.815,9.425,9.830,4.751,34.805,56.162877,10.203875,57.58
2025-10-13T11:07:28.729087+00:00,11.146,8.516,9.371,9.991,4.570,38.843,56.162919,10.203941,60.65
2025-10-13T11:07:28.930860+00:00,11.142,8.277,9.303,9.952,4.342,42.879,56.162926,10.203860,58.29
2025-10-13T11:07:29.132530+00:00,11.138,8.109,9.221,9.715,4.070,46.912,56.162857,10.203887,60.85
2025-10-13T11:07:29.336079+00:00,11.134,8.016,9.126,9.280,3.754,50.983,56.162851,10.203928,61.31
2025-10-13T11:07:29.487657+00:00,11.131,8.001,9.048,8.833,3.493,54.015,56.162882,10.203860,61.21
2025-10-13T11:07:29.689274+00:00,11.127,8.051,8.935,8.086,3.116,58.047,56.162920,10.203948,58.44
2025-10-13T11:07:29.890940+00:00,11.123,8.180,8.812,7.178,2.706,62.080,56.162926,10.203873,58.98
2025-10-13T11:07:30.092502+00:00,11.119,8.382,8.681,6.128,2.269,66.111,56.162872,10.203864,60.55
2025-10-13T11:07:30.294679+00:00,11.115,8.651,8.542,4.952,1.808,70.155,56.162926,10.203943,59.43
2025-10-13T11:07:30.496420+00:00,11.111,8.975,8.399,3.679,1.330,74.190,56.162898,10.203910,59.09
2025-10-13T11:07:30.698094+00:00,11.107,9.339,8.251,2.335,0.838,78.223,56.162879,10.203860,57.79
2025-10-13T11:07:30.899966+00:00,11.103,9.731,8.101,0.942,0.337,82.261,56.162863,10.203937,59.00
2025-10-13T11:07:31.101560+00:00,11.099,10.134,7.950,-0.468,-0.167,86.293,56.162911,10.203917,61.17
2025-10-13T11:07:31.304085+00:00,11.095,10.532,7.799,-1.874,-0.671,90.343,56.162944,10.203869,60.69
2025-10-13T11:07:31.505831+00:00,11.091,10.908,7.650,-3.238,-1.167,94.378,56.162933,10.203913,60.81
2025-10-13T11:07:31.707491+00:00,11.087,11.246,7.505,-4.537,-1.650,98.411,56.162896,10.203940,60.53
2025-10-13T11:07:31.909035+00:00,11.083,11.534,7.365,-5.745,-2.117,102.442,56.162934,10.203854,61.13
2025-10-13T11:07:32.110615+00:00,11.079,11.760,7.231,-6.839,-2.562,106.474,56.162895,10.203932,57.90
2025-10-13T11:07:32.313355+00:00,11.074,11.915,7.105,-7.802,-2.983,110.529,56.162884,10.203919,58.58
2025-10-13T11:07:32.515111+00:00,11.070,11.992,6.988,-8.605,-3.372,114.564,56.162928,10.203880,60.64
2025-10-13T11:07:32.716831+00:00,11.067,11.988,6.882,-9.236,-3.727,118.598,56.162887,10.203881,61.46
2025-10-13T11:07:32.918514+00:00,11.063,11.903,6.787,-9.684,-4.043,122.632,56.162914,10.203940,60.21
2025-10-13T11:07:33.120139+00:00,11.059,11.741,6.704,-9.938,-4.319,126.664,56.162925,10.203860,58.20
2025-10-13T11:07:33.324074+00:00,11.055,11.505,6.634,-9.995,-4.553,130.743,56.162926,10.203862,60.62
2025-10-13T11:07:33.525741+00:00,11.051,11.211,6.579,-9.851,-4.738,134.776,56.162927,10.203927,60.70
2025-10-13T11:07:33.727498+00:00,11.047,10.868,6.538,-9.511,-4.875,138.811,56.162902,10.203872,62.19
2025-10-13T11:07:33.929192+00:00,11.043,10.489,6.511,-8.981,-4.962,142.845,56.162906,10.203865,62.50
2025-10-13T11:07:34.130764+00:00,11.039,10.091,6.500,-8.273,-4.999,146.877,56.162885,10.203877,61.38
2025-10-13T11:07:34.333380+00:00,11.035,9.687,6.505,-7.396,-4.985,150.929,56.162891,10.203884,59.64
2025-10-13T11:07:34.535504+00:00,11.031,9.297,6.524,-6.373,-4.920,154.971,56.162865,10.203922,60.81
2025-10-13T11:07:34.737328+00:00,11.028,8.936,6.559,-5.225,-4.805,159.008,56.162947,10.203892,58.48
2025-10-13T11:07:34.939039+00:00,11.024,8.618,6.608,-3.973,-4.641,163.042,56.162871,10.203872,59.34
2025-10-13T11:07:35.140682+00:00,11.020,8.357,6.671,-2.642,-4.430,167.075,56.162941,10.203912,57.61
2025-10-13T11:07:35.343367+00:00,11.016,8.161,6.748,-1.252,-4.173,171.129,56.162892,10.203907,58.19
2025-10-13T11:07:35.545133+00:00,11.013,8.041,6.838,0.157,-3.874,175.164,56.162892,10.203925,58.01
2025-10-13T11:07:35.746782+00:00,11.009,8.000,6.939,1.562,-3.536,179.197,56.162930,10.203932,60.88
2025-10-13T11:07:35.948500+00:00,11.006,8.040,7.051,2.937,-3.162,183.231,56.162950,10.203886,57.96
2025-10-13T11:07:36.150207+00:00,11.002,8.160,7.173,4.253,-2.756,187.266,56.162865,10.203862,62.18
2025-10-13T11:07:36.353457+00:00,10.999,8.357,7.304,5.493,-2.319,191.331,56.162913,10.203896,58.47
2025-10-13T11:07:36.555129+00:00,10.995,8.618,7.442,6.614,-1.861,195.364,56.162936,10.203905,61.19
2025-10-13T11:07:36.756869+00:00,10.992,8.936,7.585,7.604,-1.384,199.399,56.162923,10.203932,61.76
2025-10-13T11:07:36.958499+00:00,10.988,9.297,7.732,8.442,-0.894,203.431,56.162926,10.203856,61.87
2025-10-13T11:07:37.160098+00:00,10.985,9.686,7.882,9.112,-0.394,207.463,56.162949,10.203885,60.72
2025-10-13T11:07:37.361688+00:00,10.982,10.088,8.033,9.601,0.109,211.495,56.162921,10.203924,58.11
2025-10-13T11:07:37.563458+00:00,10.979,10.486,8.184,9.899,0.612,215.531,56.162896,10.203861,61.40
2025-10-13T11:07:37.765312+00:00,10.975,10.865,8.333,10.000,1.109,219.568,56.162942,10.203904,62.13
2025-10-13T11:07:37.967017+00:00,10.972,11.209,8.478,9.902,1.594,223.602,56.162920,10.203905,57.88
2025-10-13T11:07:38.168717+00:00,10.969,11.504,8.619,9.607,2.063,227.636,56.162914,10.203920,62.23
2025-10-13T11:07:38.372693+00:00,10.966,11.740,8.755,9.114,2.516,231.715,56.162852,10.203890,60.25
2025-10-13T11:07:38.574608+00:00,10.963,11.902,8.882,8.443,2.939,235.754,56.162894,10.203855,61.48
2025-10-13T11:07:38.777272+00:00,10.960,11.988,9.000,7.601,3.333,239.807,56.162864,10.203914,59.37
2025-10-13T11:07:38.978916+00:00,10.957,11.992,9.107,6.611,3.691,243.840,56.162901,10.203913,57.72
2025-10-13T11:07:39.181643+00:00,10.954,11.915,9.204,5.483,4.014,247.894,56.162897,10.203867,59.08
2025-10-13T11:07:39.333802+00:00,10.952,11.805,9.269,4.563,4.229,250.937,56.162884,10.203872,61.93
2025-10-13T11:07:39.542664+00:00,10.950,11.587,9.345,3.218,4.484,255.115,56.162900,10.203913,61.26
2025-10-13T11:07:39.744420+00:00,10.947,11.311,9.405,1.853,4.684,259.150,56.162899,10.203860,58.08
2025-10-13T11:07:39.946048+00:00,10.944,10.982,9.451,0.452,4.836,263.182,56.162930,10.203911,60.07
2025-10-13T11:07:40.147758+00:00,10.942,10.613,9.482,-0.958,4.939,267.217,56.162925,10.203918,59.80
2025-10-13T11:07:40.351222+00:00,10.939,10.216,9.498,-2.361,4.993,271.286,56.162902,10.203910,61.14
2025-10-13T11:07:40.553287+00:00,10.937,9.813,9.498,-3.708,4.995,275.327,56.162900,10.203863,61.53
2025-10-13T11:07:40.755071+00:00,10.935,9.417,9.484,-4.978,4.945,279.363,56.162942,10.203888,58.41
2025-10-13T11:07:40.957910+00:00,10.933,9.044,9.454,-6.155,4.846,283.420,56.162880,10.203873,59.49
2025-10-13T11:07:41.159487+00:00,10.930,8.712,9.409,-7.202,4.697,287.451,56.162911,10.203909,57.53
2025-10-13T11:07:41.362835+00:00,10.928,8.429,9.350,-8.114,4.499,291.518,56.162864,10.203894,57.66
2025-10-13T11:07:41.565521+00:00,10.926,8.212,9.276,-8.859,4.255,295.572,56.162931,10.203918,59.23
2025-10-13T11:07:41.767303+00:00,10.924,8.069,9.191,-9.424,3.969,299.607,56.162900,10.203906,60.94
2025-10-13T11:07:41.969032+00:00,10.922,8.004,9.093,-9.801,3.642,303.642,56.162903,10.203882,59.07
2025-10-13T11:07:42.170631+00:00,10.921,8.020,8.984,-9.983,3.279,307.674,56.162897,10.203852,60.50
2025-10-13T11:07:42.373082+00:00,10.919,8.116,8.864,-9.966,2.881,311.723,56.162862,10.203870,61.16
2025-10-13T11:07:42.575263+00:00,10.917,8.290,8.736,-9.749,2.454,315.767,56.162921,10.203887,57.99
2025-10-13T11:07:42.777126+00:00,10.916,8.532,8.601,-9.339,2.002,319.804,56.162945,10.203933,60.92
2025-10-13T11:07:42.979769+00:00,10.914,8.836,8.459,-8.739,1.528,323.857,56.162850,10.203916,61.83
2025-10-13T11:07:43.181410+00:00,10.913,9.185,8.312,-7.969,1.041,327.890,56.162862,10.203892,60.24
2025-10-13T11:07:43.384353+00:00,10.911,9.570,8.162,-7.033,0.541,331.948,56.162895,10.203910,60.26
2025-10-13T11:07:43.587448+00:00,10.910,9.973,8.010,-5.955,0.034,336.010,56.162874,10.203900,57.74
2025-10-13T11:07:43.789337+00:00,10.909,10.374,7.859,-4.764,-0.470,340.048,56.162944,10.203946,58.33
2025-10-13T11:07:43.991081+00:00,10.908,10.760,7.709,-3.479,-0.969,344.083,56.162915,10.203896,59.75
2025-10-13T11:07:44.193539+00:00,10.906,11.117,7.562,-2.120,-1.460,348.132,56.162946,10.203863,61.63
2025-10-13T11:07:44.396225+00:00,10.905,11.428,7.419,-0.717,-1.936,352.186,56.162924,10.203891,58.64
2025-10-13T11:07:44.598405+00:00,10.905,11.680,7.283,0.698,-2.391,356.230,56.162882,10.203883,59.46
2025-10-13T11:07:44.800476+00:00,10.904,11.864,7.153,2.097,-2.822,0.271,56.162853,10.203910,58.16
2025-10-13T11:07:45.002201+00:00,10.903,11.971,7.033,3.452,-3.223,4.305,56.162926,10.203877,60.50
2025-10-13T11:07:45.203897+00:00,10.902,11.999,6.922,4.738,-3.592,8.339,56.162923,10.203949,58.08
2025-10-13T11:07:45.406528+00:00,10.902,11.945,6.822,5.936,-3.925,12.392,56.162940,10.203901,58.32
2025-10-13T11:07:45.608279+00:00,10.901,11.813,6.735,7.009,-4.217,16.427,56.162881,10.203914,58.21
2025-10-13T11:07:45.810162+00:00,10.901,11.606,6.660,7.944,-4.466,20.465,56.162923,10.203949,61.57
2025-10-13T11:07:46.011799+00:00,10.901,11.335,6.599,8.720,-4.670,24.497,56.162892,10.203860,61.18
2025-10-13T11:07:46.213464+00:00,10.900,11.010,6.552,9.322,-4.826,28.531,56.162871,10.203891,59.36
2025-10-13T11:07:46.415257+00:00,10.900,10.643,6.520,9.739,-4.933,32.567,56.162903,10.203876,58.34
2025-10-13T11:07:46.617512+00:00,10.900,10.250,6.503,9.962,-4.990,36.611,56.162925,10.203912,59.25
2025-10-13T11:07:46.819458+00:00,10.900,9.847,6.501,9.986,-4.996,40.651,56.162924,10.203860,60.02
2025-10-13T11:07:47.021106+00:00,10.900,9.450,6.515,9.811,-4.952,44.684,56.162933,10.203872,60.26
2025-10-13T11:07:47.173184+00:00,10.900,9.165,6.535,9.549,-4.885,47.725,56.162931,10.203947,58.55
2025-10-13T11:07:47.375469+00:00,10.900,8.817,6.574,9.035,-4.752,51.771,56.162895,10.203875,62.33
2025-10-13T11:07:47.577162+00:00,10.901,8.518,6.629,8.342,-4.571,55.805,56.162911,10.203870,59.29
2025-10-13T11:07:47.778963+00:00,10.901,8.279,6.697,7.482,-4.344,59.841,56.162871,10.203895,61.20
2025-10-13T11:07:47.980689+00:00,10.902,8.110,6.778,6.474,-4.072,63.875,56.162942,10.203888,61.46
2025-10-13T11:07:48.182276+00:00,10.902,8.017,6.872,5.338,-3.760,67.907,56.162884,10.203903,59.27
2025-10-13T11:07:48.384200+00:00,10.903,8.005,6.978,4.093,-3.408,71.945,56.162870,10.203877,59.61
2025-10-13T11:07:48.585907+00:00,10.903,8.074,7.093,2.769,-3.023,75.980,56.162923,10.203908,58.53
2025-10-13T11:07:48.787780+00:00,10.904,8.221,7.218,1.388,-2.606,80.017,56.162895,10.203932,60.86
2025-10-13T11:07:48.989409+00:00,10.905,8.440,7.351,-0.019,-2.163,84.050,56.162861,10.203854,58.25
2025-10-13T11:07:49.193062+00:00,10.906,8.725,7.492,-1.440,-1.694,88.123,56.162936,10.203880,57.56
2025-10-13T11:07:49.395795+00:00,10.907,9.061,7.637,-2.825,-1.209,92.177,56.162901,10.203858,62.39
2025-10-13T11:07:49.598003+00:00,10.908,9.435,7.786,-4.150,-0.713,96.221,56.162938,10.203861,62.39
2025-10-13T11:07:49.799911+00:00,10.909,9.831,7.937,-5.390,-0.211,100.260,56.162929,10.203857,59.42
2025-10-13T11:07:50.001719+00:00,10.911,10.234,8.088,-6.522,0.293,104.296,56.162927,10.203935,62.10
2025-10-13T11:07:50.203398+00:00,10.912,10.627,8.238,-7.524,0.794,108.329,56.162883,10.203933,58.30
2025-10-13T11:07:50.406105+00:00,10.913,10.997,8.387,-8.380,1.290,112.384,56.162943,10.203890,60.59
2025-10-13T11:07:50.608024+00:00,10.915,11.324,8.531,-9.065,1.770,116.422,56.162948,10.203899,61.30
2025-10-13T11:07:50.810000+00:00,10.916,11.598,8.670,-9.570,2.233,120.461,56.162923,10.203914,58.47
2025-10-13T11:07:51.011683+00:00,10.918,11.807,8.801,-9.883,2.672,124.495,56.162901,10.203921,62.37
2025-10-13T11:07:51.213365+00:00,10.920,11.942,8.925,-9.999,3.084,128.529,56.162865,10.203904,58.26
2025-10-13T11:07:51.415915+00:00,10.921,11.998,9.040,-9.916,3.466,132.580,56.162890,10.203930,58.44
2025-10-13T11:07:51.617688+00:00,10.923,11.974,9.143,-9.635,3.811,136.615,56.162920,10.203870,62.02
2025-10-13T11:07:51.820577+00:00,10.925,11.868,9.236,-9.159,4.119,140.673,56.162857,10.203852,61.02
2025-10-13T11:07:52.022242+00:00,10.927,11.687,9.315,-8.504,4.384,144.706,56.162862,10.203915,58.62
2025-10-13T11:07:52.223905+00:00,10.929,11.437,9.381,-7.679,4.603,148.740,56.162859,10.203938,62.18
2025-10-13T11:07:52.425645+00:00,10.931,11.130,9.433,-6.701,4.777,152.774,56.162885,10.203943,61.41
2025-10-13T11:07:52.627800+00:00,10.934,10.775,9.470,-5.587,4.901,156.817,56.162859,10.203943,59.15
2025-10-13T11:07:52.829729+00:00,10.936,10.390,9.493,-4.363,4.976,160.856,56.162891,10.203919,59.63
2025-10-13T11:07:53.031316+00:00,10.938,9.989,9.500,-3.054,5.000,164.888,56.162909,10.203890,58.88
2025-10-13T11:07:53.232939+00:00,10.941,9.589,9.492,-1.684,4.973,168.920,56.162948,10.203888,61.56
2025-10-13T11:07:53.436166+00:00,10.943,9.202,9.469,-0.269,4.895,172.985,56.162909,10.203912,57.63
2025-10-13T11:07:53.637753+00:00,10.946,8.851,9.430,1.139,4.768,177.017,56.162862,10.203855,61.80
2025-10-13T11:07:53.839680+00:00,10.948,8.546,9.378,2.527,4.592,181.055,56.162858,10.203872,57.93
2025-10-13T11:07:54.041259+00:00,10.951,8.301,9.311,3.863,4.369,185.087,56.162899,10.203902,58.91
2025-10-13T11:07:54.244002+00:00,10.954,8.123,9.230,5.129,4.101,189.141,56.162899,10.203881,61.34
2025-10-13T11:07:54.446549+00:00,10.956,8.022,9.137,6.290,3.791,193.192,56.162890,10.203900,59.85
2025-10-13T11:07:54.649126+00:00,10.959,8.003,9.032,7.326,3.442,197.244,56.162860,10.203949,62.08
2025-10-13T11:07:54.851061+00:00,10.962,8.064,8.918,8.212,3.058,201.283,56.162883,10.203892,59.15
2025-10-13T11:07:55.052733+00:00,10.965,8.204,8.793,8.933,2.645,205.316,56.162924,10.203942,62.44
2025-10-13T11:07:55.254386+00:00,10.968,8.417,8.661,9.477,2.204,209.349,56.162871,10.203944,57.87
2025-10-13T11:07:55.456221+00:00,10.971,8.694,8.522,9.832,1.741,213.386,56.162949,10.203866,59.04
2025-10-13T11:07:55.657889+00:00,10.974,9.024,8.378,9.991,1.260,217.419,56.162916,10.203928,61.58
2025-10-13T11:07:55.859745+00:00,10.978,9.394,8.230,9.951,0.766,221.456,56.162918,10.203881,60.46
2025-10-13T11:07:56.061345+00:00,10.981,9.788,8.080,9.714,0.265,225.488,56.162904,10.203878,59.03
2025-10-13T11:07:56.263155+00:00,10.984,10.191,7.928,9.282,-0.239,229.525,56.162900,10.203895,59.35
2025-10-13T11:07:56.415349+00:00,10.986,10.491,7.815,8.834,-0.618,232.568,56.162858,10.203865,60.70
2025-10-13T11:07:56.617162+00:00,10.990,10.869,7.666,8.086,-1.115,236.605,56.162945,10.203904,60.06
2025-10-13T11:07:56.819093+00:00,10.993,11.213,7.520,7.177,-1.600,240.643,56.162873,10.203911,59.56
2025-10-13T11:07:57.020822+00:00,10.997,11.507,7.379,6.125,-2.069,244.678,56.162948,10.203851,61.04
2025-10-13T11:07:57.222517+00:00,11.000,11.740,7.245,4.952,-2.517,248.712,56.162880,10.203893,58.10
2025-10-13T11:07:57.424102+00:00,11.004,11.902,7.118,3.681,-2.939,252.743,56.162932,10.203859,59.63
2025-10-13T11:07:57.625879+00:00,11.007,11.987,7.001,2.336,-3.331,256.779,56.162871,10.203935,58.02
2025-10-13T11:07:57.827601+00:00,11.011,11.992,6.893,0.944,-3.690,260.813,56.162916,10.203883,61.59
2025-10-13T11:07:58.029237+00:00,11.014,11.916,6.797,-0.466,-4.011,264.846,56.162873,10.203943,60.94
2025-10-13T11:07:58.231833+00:00,11.018,11.761,6.712,-1.873,-4.292,268.898,56.162936,10.203930,57.97
2025-10-13T11:07:58.433920+00:00,11.022,11.535,6.641,-3.239,-4.529,272.940,56.162863,10.203917,62.24
2025-10-13T11:07:58.636081+00:00,11.026,11.247,6.584,-4.541,-4.720,276.983,56.162902,10.203909,58.84
2025-10-13T11:07:58.838047+00:00,11.029,10.908,6.541,-5.751,-4.862,281.022,56.162945,10.203855,60.67
2025-10-13T11:07:59.039646+00:00,11.033,10.532,6.514,-6.845,-4.955,285.054,56.162858,10.203924,61.37
2025-10-13T11:07:59.242334+00:00,11.037,10.133,6.501,-7.807,-4.997,289.108,56.162922,10.203917,60.94
2025-10-13T11:07:59.444828+00:00,11.041,9.729,6.503,-8.612,-4.988,293.158,56.162870,10.203941,59.23
2025-10-13T11:07:59.646682+00:00,11.045,9.337,6.521,-9.242,-4.929,297.195,56.162869,10.203946,59.66
2025-10-13T11:07:59.848398+00:00,11.049,8.973,6.554,-9.687,-4.819,301.229,56.162874,10.203862,60.02
2025-10-13T11:08:00.051143+00:00,11.052,8.648,6.602,-9.941,-4.660,305.284,56.162913,10.203872,61.49
2025-10-13T11:08:00.252825+00:00,11.056,8.380,6.664,-9.995,-4.454,309.318,56.162930,10.203950,62.10
2025-10-13T11:08:00.455291+00:00,11.060,8.178,6.740,-9.849,-4.201,313.367,56.162882,10.203898,58.65
2025-10-13T11:08:00.657018+00:00,11.064,8.049,6.828,-9.507,-3.907,317.402,56.162869,10.203852,58.50
2025-10-13T11:08:00.859872+00:00,11.068,8.000,6.929,-8.973,-3.571,321.459,56.162936,10.203901,60.04
2025-10-13T11:08:01.061533+00:00,11.072,8.033,7.040,-8.262,-3.200,325.492,56.162917,10.203895,59.72
2025-10-13T11:08:01.263131+00:00,11.076,8.145,7.161,-7.388,-2.797,329.524,56.162854,10.203871,60.85
2025-10-13T11:08:01.466566+00:00,11.080,8.334,7.291,-6.356,-2.362,333.593,56.162931,10.203896,60.84
2025-10-13T11:08:01.668302+00:00,11.084,8.590,7.428,-5.207,-1.906,337.627,56.162950,10.203937,61.80
2025-10-13T11:08:01.871163+00:00,11.088,8.905,7.571,-3.946,-1.428,341.685,56.162870,10.203887,60.27
2025-10-13T11:08:02.073142+00:00,11.092,9.263,7.719,-2.612,-0.938,345.724,56.162851,10.203928,57.87
2025-10-13T11:08:02.274848+00:00,11.096,9.650,7.868,-1.227,-0.439,349.758,56.162875,10.203932,58.92
2025-10-13T11:08:02.477355+00:00,11.101,10.053,8.020,0.187,0.067,353.809,56.162910,10.203904,58.52
2025-10-13T11:08:02.679217+00:00,11.105,10.453,8.171,1.593,0.570,357.846,56.162947,10.203946,62.05
2025-10-13T11:08:02.882194+00:00,11.109,10.837,8.321,2.975,1.071,1.905,56.162912,10.203915,61.51
2025-10-13T11:08:03.083779+00:00,11.113,11.183,8.467,4.288,1.557,5.937,56.162950,10.203880,60.74
2025-10-13T11:08:03.285442+00:00,11.117,11.482,8.608,5.517,2.027,9.970,56.162857,10.203937,58.16
2025-10-13T11:08:03.487135+00:00,11.121,11.721,8.743,6.635,2.477,14.004,56.162898,10.203937,59.95
2025-10-13T11:08:03.688857+00:00,11.125,11.890,8.870,7.622,2.902,18.039,56.162886,10.203905,61.73
2025-10-13T11:08:03.891831+00:00,11.129,11.983,8.990,8.462,3.299,22.098,56.162897,10.203903,61.83
2025-10-13T11:08:04.093545+00:00,11.133,11.995,9.098,9.128,3.661,26.132,56.162904,10.203943,60.90
2025-10-13T11:08:04.296292+00:00,11.137,11.925,9.196,9.614,3.987,30.187,56.162913,10.203912,59.10
2025-10-13T11:08:04.498107+00:00,11.141,11.777,9.281,9.906,4.270,34.224,56.162912,10.203948,61.01
2025-10-13T11:08:04.700950+00:00,11.145,11.556,9.354,10.000,4.512,38.280,56.162941,10.203874,58.70
2025-10-13T11:08:04.903001+00:00,11.149,11.272,9.412,9.894,4.706,42.321,56.162920,10.203873,59.74
2025-10-13T11:08:05.104821+00:00,11.152,10.937,9.456,9.591,4.852,46.358,56.162924,10.203861,60.90
2025-10-13T11:08:05.256954+00:00,11.155,10.658,9.479,9.235,4.930,49.401,56.162870,10.203858,58.55
2025-10-13T11:08:05.459338+00:00,11.159,10.265,9.497,8.601,4.989,53.448,56.162898,10.203863,58.12
2025-10-13T11:08:05.661036+00:00,11.163,9.862,9.499,7.798,4.997,57.482,56.162918,10.203887,59.57
2025-10-13T11:08:05.862890+00:00,11.167,9.465,9.486,6.838,4.954,61.519,56.162911,10.203868,57.93
2025-10-13T11:08:06.064510+00:00,11.171,9.090,9.458,5.744,4.861,65.552,56.162870,10.203943,60.48
2025-10-13T11:08:06.266108+00:00,11.174,8.752,9.416,4.536,4.719,69.584,56.162919,10.203879,61.47
2025-10-13T11:08:06.468655+00:00,11.178,8.463,9.358,3.231,4.528,73.635,56.162949,10.203936,57.87
2025-10-13T11:08:06.670428+00:00,11.182,8.238,9.287,1.866,4.291,77.670,56.162891,10.203926,58.75
2025-10-13T11:08:06.873170+00:00,11.186,8.083,9.203,0.458,4.009,81.725,56.162914,10.203909,60.11
2025-10-13T11:08:07.074884+00:00,11.189,8.008,9.106,-0.952,3.688,85.759,56.162851,10.203950,60.16
2025-10-13T11:08:07.276438+00:00,11.193,8.013,8.999,-2.343,3.329,89.790,56.162912,10.203887,59.82
2025-10-13T11:08:07.479910+00:00,11.196,8.100,8.880,-3.699,2.933,93.860,56.162880,10.203880,61.94
2025-10-13T11:08:07.681621+00:00,11.200,8.263,8.753,-4.970,2.511,97.894,56.162896,10.203889,58.17
2025-10-13T11:08:07.883591+00:00,11.203,8.497,8.619,-6.143,2.062,101.933,56.162881,10.203909,58.47
2025-10-13T11:08:08.085348+00:00,11.207,8.792,8.478,-7.192,1.593,105.968,56.162889,10.203866,60.62
2025-10-13T11:08:08.288378+00:00,11.210,9.138,8.331,-8.104,1.104,110.029,56.162853,10.203927,61.01
2025-10-13T11:08:08.490334+00:00,11.214,9.518,8.182,-8.849,0.607,114.068,56.162910,10.203945,61.51
2025-10-13T11:08:08.692411+00:00,11.217,9.917,8.031,-9.417,0.104,118.110,56.162867,10.203907,58.57
2025-10-13T11:08:08.894553+00:00,11.220,10.320,7.880,-9.797,-0.401,122.152,56.162919,10.203900,58.71
2025-10-13T11:08:09.096340+00:00,11.223,10.709,7.730,-9.982,-0.901,126.188,56.162857,10.203897,60.34
2025-10-13T11:08:09.299124+00:00,11.227,11.071,7.582,-9.967,-1.395,130.244,56.162905,10.203887,61.52
2025-10-13T11:08:09.501029+00:00,11.230,11.388,7.439,-9.753,-1.871,134.282,56.162899,10.203914,58.37
2025-10-13T11:08:09.703373+00:00,11.233,11.649,7.301,-9.343,-2.330,138.329,56.162885,10.203876,57.79
2025-10-13T11:08:09.906608+00:00,11.236,11.844,7.170,-8.743,-2.767,142.394,56.162924,10.203879,59.27
2025-10-13T11:08:10.108345+00:00,11.239,11.962,7.048,-7.973,-3.172,146.428,56.162863,10.203895,58.78
2025-10-13T11:08:10.310015+00:00,11.241,12.000,6.936,-7.044,-3.545,150.462,56.162911,10.203886,60.32
2025-10-13T11:08:10.512338+00:00,11.244,11.957,6.835,-5.972,-3.883,154.508,56.162883,10.203879,59.86
2025-10-13T11:08:10.714136+00:00,11.247,11.835,6.746,-4.783,-4.181,158.544,56.162920,10.203885,61.69
2025-10-13T11:08:10.916041+00:00,11.250,11.638,6.669,-3.498,-4.436,162.582,56.162866,10.203910,61.90
2025-10-13T11:08:11.117783+00:00,11.252,11.374,6.606,-2.145,-4.646,166.617,56.162853,10.203947,60.76
2025-10-13T11:08:11.320183+00:00,11.255,11.054,6.557,-0.744,-4.809,170.665,56.162887,10.203939,61.48
2025-10-13T11:08:11.521945+00:00,11.258,10.692,6.523,0.667,-4.922,174.700,56.162887,10.203937,59.27
2025-10-13T11:08:11.723558+00:00,11.260,10.303,6.504,2.064,-4.986,178.733,56.162941,10.203886,61.85
2025-10-13T11:08:11.925277+00:00,11.262,9.900,6.500,3.420,-4.998,182.767,56.162893,10.203889,60.58
2025-10-13T11:08:12.127003+00:00,11.265,9.502,6.512,4.709,-4.960,186.801,56.162909,10.203938,62.20
2025-10-13T11:08:12.330495+00:00,11.267,9.121,6.539,5.913,-4.871,190.871,56.162914,10.203898,58.33
2025-10-13T11:08:12.532359+00:00,11.269,8.779,6.580,6.990,-4.733,194.909,56.162945,10.203915,61.84
2025-10-13T11:08:12.734136+00:00,11.271,8.486,6.636,7.927,-4.546,198.944,56.162935,10.203879,60.79
2025-10-13T11:08:12.936017+00:00,11.273,8.255,6.706,8.707,-4.313,202.982,56.162898,10.203933,60.84
2025-10-13T11:08:13.137667+00:00,11.275,8.094,6.789,9.312,-4.037,207.015,56.162927,10.203895,60.87
2025-10-13T11:08:13.340083+00:00,11.277,8.011,6.885,9.734,-3.718,211.063,56.162945,10.203932,60.83
2025-10-13T11:08:13.542964+00:00,11.279,8.009,6.992,9.960,-3.360,215.121,56.162903,10.203891,59.37
2025-10-13T11:08:13.744795+00:00,11.281,8.088,7.109,9.987,-2.970,219.157,56.162926,10.203949,62.41
2025-10-13T11:08:13.946506+00:00,11.283,8.245,7.235,9.814,-2.550,223.192,56.162926,10.203851,58.72
