ts_iso,batt_v,airspeed_ms,groundspeed_ms,roll_deg,pitch_deg,yaw_deg,lat,lon,alt_m
2025-10-17T16:29:59.251557+00:00,,,,,,,,,
2025-10-17T16:29:59.860805+00:00,,,,,,,,,
2025-10-17T16:30:00.462384+00:00,,,,,,,,,
2025-10-17T16:30:01.066481+00:00,,,,,,,,,
2025-10-17T16:30:02.057544+00:00,,,,,,,,,
2025-10-17T16:30:02.662844+00:00,,,,,,,,,
2025-10-17T16:30:03.265974+00:00,,,,,,,,,
2025-10-17T16:30:03.883435+00:00,11.112,11.158,,4.189,1.519,,,,
2025-10-17T16:30:04.503386+00:00,11.125,11.890,,7.619,2.900,,,,
2025-10-17T16:30:05.106748+00:00,11.137,11.928,,9.604,3.979,,,,
2025-10-17T16:30:05.727309+00:00,11.149,11.258,,9.884,4.714,,,,
2025-10-17T16:30:06.335689+00:00,11.160,10.143,,8.375,4.997,,,,
2025-10-17T16:30:06.957448+00:00,11.172,8.955,,5.291,4.812,,,,
2025-10-17T16:30:07.559396+00:00,11.183,8.173,,1.357,4.193,,,,
2025-10-17T16:30:08.161523+00:00,11.194,8.033,,-2.815,3.197,,,,
2025-10-17T16:30:08.769606+00:00,11.205,8.594,,-6.526,1.900,,,,
2025-10-17T16:30:09.376172+00:00,11.215,9.656,,-9.068,0.432,,,,
2025-10-17T16:30:09.983184+00:00,11.224,10.841,,-9.999,-1.077,,,,
2025-10-17T16:30:10.589108+00:00,11.234,11.725,,-9.156,-2.484,,,,
2025-10-17T16:30:11.195349+00:00,11.242,11.994,,-6.688,-3.666,,,,
2025-10-17T16:30:11.797809+00:00,11.251,11.558,,-3.058,-4.510,,,,
2025-10-17T16:30:12.408823+00:00,11.258,10.556,,1.166,-4.950,,,,
2025-10-17T16:30:13.021749+00:00,11.266,9.350,,5.192,-4.932,,,,
2025-10-17T16:30:13.626852+00:00,11.272,8.389,,8.246,-4.462,,,,
2025-10-17T16:30:14.233798+00:00,11.278,8.001,,9.845,-3.584,,,,
2025-10-17T16:30:14.838425+00:00,11.283,8.324,,9.697,-2.384,,,,
2025-10-17T16:30:15.443888+00:00,11.288,9.243,,7.834,-0.965,,,,
2025-10-17T16:30:16.057584+00:00,11.292,10.447,,4.534,0.562,,,,
2025-10-17T16:30:16.663539+00:00,11.295,11.478,,0.464,2.019,,,,
2025-10-17T16:30:17.270432+00:00,11.297,11.982,,-3.694,3.294,,,,
2025-10-17T16:30:17.890087+00:00,11.299,11.767,,-7.258,4.284,,,,
2025-10-17T16:30:18.550822+00:00,11.300,10.821,,-9.565,4.889,,,,
2025-10-17T16:30:19.154662+00:00,11.300,9.640,,-9.920,4.980,,,,
2025-10-17T16:30:19.757612+00:00,11.299,8.588,,-8.532,4.621,,,,
2025-10-17T16:30:20.368191+00:00,11.298,8.031,,-5.603,3.833,,,,
2025-10-17T16:30:20.979441+00:00,11.296,8.186,,-1.661,2.690,,,,
2025-10-17T16:30:21.588150+00:00,11.293,8.994,,2.563,1.303,,,,
2025-10-17T16:30:22.197262+00:00,11.290,10.163,,6.331,-0.204,,,,
2025-10-17T16:30:22.807274+00:00,11.285,11.276,,8.968,-1.695,,,,
2025-10-17T16:30:23.413353+00:00,11.281,11.926,,9.994,-3.022,,,,
2025-10-17T16:30:24.019666+00:00,11.275,11.890,,9.247,-4.073,,,,
2025-10-17T16:30:24.628361+00:00,11.269,11.176,,6.847,-4.755,,,,
2025-10-17T16:30:25.235638+00:00,11.262,10.043,,3.232,-5.000,,,,
2025-10-17T16:30:25.846908+00:00,11.255,8.887,,-0.986,-4.784,,,,
2025-10-17T16:30:26.452307+00:00,11.247,8.139,,-4.991,-4.133,,,,
2025-10-17T16:30:27.055153+00:00,11.238,8.051,,-8.102,-3.112,,,,
2025-10-17T16:30:27.662822+00:00,11.229,8.658,,-9.799,-1.798,,,,
2025-10-17T16:30:28.276668+00:00,11.220,9.757,,-9.739,-0.305,,,,
2025-10-17T16:30:28.883590+00:00,11.210,10.932,,-7.939,1.201,,,,
2025-10-17T16:30:29.490216+00:00,11.199,11.775,,-4.728,2.596,,,,
2025-10-17T16:30:30.097592+00:00,11.189,11.984,,-0.673,3.755,,,,
2025-10-17T16:30:30.717621+00:00,11.177,11.466,,3.585,4.583,,,,
2025-10-17T16:30:31.320217+00:00,11.166,10.436,,7.093,4.970,,,,
2025-10-17T16:30:31.924672+00:00,11.154,9.250,,9.362,4.908,,,,
2025-10-17T16:30:32.533615+00:00,11.143,8.324,,9.978,4.396,,,,
2025-10-17T16:30:33.144281+00:00,11.131,8.001,,8.802,3.476,,,,
2025-10-17T16:30:33.747606+00:00,11.119,8.392,,6.083,2.252,,,,
2025-10-17T16:30:34.353097+00:00,11.107,9.354,,2.281,0.818,,,,
2025-10-17T16:30:34.960281+00:00,11.094,10.550,,-1.937,-0.694,,,,
2025-10-17T16:30:35.571711+00:00,11.082,11.554,,-5.834,-2.152,,,,
2025-10-17T16:30:36.180152+00:00,11.070,11.995,,-8.668,-3.405,,,,
2025-10-17T16:30:36.783323+00:00,11.058,11.725,,-9.950,-4.339,,,,
2025-10-17T16:30:37.396158+00:00,11.046,10.829,,-9.463,-4.886,,,,
2025-10-17T16:30:38.010582+00:00,11.035,9.628,,-7.253,-4.978,,,,
2025-10-17T16:30:38.613785+00:00,11.023,8.579,,-3.795,-4.615,,,,
2025-10-17T16:30:39.217297+00:00,11.012,8.031,,0.332,-3.834,,,,
2025-10-17T16:30:39.827866+00:00,11.002,8.185,,4.445,-2.692,,,,
2025-10-17T16:30:40.439050+00:00,10.991,8.996,,7.761,-1.300,,,,
2025-10-17T16:30:41.047953+00:00,10.981,10.166,,9.674,0.207,,,,
2025-10-17T16:30:41.653061+00:00,10.972,11.270,,9.860,1.686,,,,
2025-10-17T16:30:42.260706+00:00,10.963,11.925,,8.294,3.017,,,,
2025-10-17T16:30:42.867227+00:00,10.954,11.891,,5.256,4.070,,,,
2025-10-17T16:30:43.473900+00:00,10.946,11.183,,1.284,4.752,,,,
2025-10-17T16:30:44.085436+00:00,10.938,10.042,,-2.949,5.000,,,,
2025-10-17T16:30:44.695334+00:00,10.932,8.889,,-6.641,4.785,,,,
2025-10-17T16:30:45.300386+00:00,10.925,8.140,,-9.127,4.135,,,,
2025-10-17T16:30:45.904634+00:00,10.920,8.051,,-10.000,3.112,,,,
2025-10-17T16:30:46.521184+00:00,10.915,8.671,,-9.075,1.778,,,,
2025-10-17T16:30:47.129049+00:00,10.911,9.762,,-6.531,0.298,,,,
2025-10-17T16:30:47.739324+00:00,10.907,10.943,,-2.807,-1.216,,,,
2025-10-17T16:30:48.341530+00:00,10.904,11.776,,1.366,-2.599,,,,
2025-10-17T16:30:48.948383+00:00,10.902,11.983,,5.327,-3.757,,,,
2025-10-17T16:30:49.557759+00:00,10.901,11.479,,8.351,-4.574,,,,
2025-10-17T16:30:50.163973+00:00,10.900,10.448,,9.875,-4.968,,,,
2025-10-17T16:30:50.767155+00:00,10.900,9.263,,9.653,-4.911,,,,
2025-10-17T16:30:51.373088+00:00,10.901,8.335,,7.723,-4.408,,,,
2025-10-17T16:30:51.985917+00:00,10.903,8.001,,4.381,-3.490,,,,
2025-10-17T16:30:52.597447+00:00,10.905,8.392,,0.254,-2.251,,,,
2025-10-17T16:30:53.206287+00:00,10.908,9.361,,-3.901,-0.809,,,,
2025-10-17T16:30:53.809677+00:00,10.912,10.549,,-7.333,0.694,,,,
2025-10-17T16:30:54.415735+00:00,10.916,11.547,,-9.482,2.140,,,,
2025-10-17T16:30:55.022990+00:00,10.921,11.994,,-9.948,3.393,,,,
2025-10-17T16:30:55.634768+00:00,10.927,11.723,,-8.629,4.341,,,,
2025-10-17T16:30:56.243446+00:00,10.933,10.833,,-5.768,4.885,,,,
2025-10-17T16:30:56.848778+00:00,10.940,9.650,,-1.899,4.981,,,,
2025-10-17T16:30:57.454910+00:00,10.948,8.591,,2.311,4.623,,,,
2025-10-17T16:30:58.057146+00:00,10.956,8.035,,6.090,3.850,,,,
2025-10-17T16:30:58.663375+00:00,10.965,8.174,,8.815,2.722,,,,
2025-10-17T16:30:59.280310+00:00,10.974,8.982,,9.982,1.320,,,,
2025-10-17T16:30:59.886826+00:00,10.984,10.144,,9.342,-0.181,,,,
2025-10-17T16:31:00.495700+00:00,10.994,11.259,,7.032,-1.670,,,,
2025-10-17T16:31:01.101049+00:00,11.004,11.920,,3.486,-2.999,,,,
2025-10-17T16:31:01.708578+00:00,11.015,11.896,,-0.691,-4.058,,,,
2025-10-17T16:31:02.314677+00:00,11.026,11.197,,-4.737,-4.745,,,,
2025-10-17T16:31:02.921167+00:00,11.038,10.070,,-7.944,-4.999,,,,
2025-10-17T16:31:03.529634+00:00,11.049,8.915,,-9.744,-4.796,,,,
2025-10-17T16:31:04.142557+00:00,11.061,8.146,,-9.796,-4.146,,,,
2025-10-17T16:31:04.751296+00:00,11.073,8.050,,-8.090,-3.118,,,,
2025-10-17T16:31:05.358746+00:00,11.085,8.653,,-4.945,-1.806,,,,
2025-10-17T16:31:05.961169+00:00,11.097,9.728,,-0.954,-0.341,,,,
2025-10-17T16:31:06.569344+00:00,11.109,10.909,,3.242,1.168,,,,
2025-10-17T16:31:07.177685+00:00,11.122,11.764,,6.860,2.571,,,,
2025-10-17T16:31:07.791427+00:00,11.134,11.985,,9.267,3.746,,,,
2025-10-17T16:31:08.394227+00:00,11.146,11.496,,9.993,4.560,,,,
2025-10-17T16:31:09.001490+00:00,11.157,10.471,,8.952,4.965,,,,
2025-10-17T16:31:09.608228+00:00,11.169,9.279,,6.321,4.915,,,,
2025-10-17T16:31:10.214848+00:00,11.180,8.344,,2.567,4.417,,,,
2025-10-17T16:31:10.822838+00:00,11.191,8.000,,-1.652,3.513,,,,
2025-10-17T16:31:11.430456+00:00,11.202,8.373,,-5.575,2.288,,,,
2025-10-17T16:31:12.033789+00:00,11.212,9.320,,-8.488,0.863,,,,
2025-10-17T16:31:12.644703+00:00,11.222,10.521,,-9.916,-0.658,,,,
2025-10-17T16:31:13.250266+00:00,11.231,11.528,,-9.570,-2.106,,,,
2025-10-17T16:31:13.852694+00:00,11.240,11.990,,-7.544,-3.356,,,,
2025-10-17T16:31:14.460011+00:00,11.248,11.747,,-4.165,-4.311,,,,
2025-10-17T16:31:15.073201+00:00,11.256,10.869,,-0.004,-4.874,,,,
2025-10-17T16:31:15.680258+00:00,11.264,9.686,,4.119,-4.984,,,,
2025-10-17T16:31:16.290641+00:00,11.270,8.610,,7.525,-4.636,,,,
2025-10-17T16:31:16.898012+00:00,11.276,8.038,,9.572,-3.863,,,,
2025-10-17T16:31:17.508881+00:00,11.282,8.170,,9.911,-2.730,,,,
2025-10-17T16:31:18.116643+00:00,11.287,8.959,,8.476,-1.352,,,,
2025-10-17T16:31:18.718723+00:00,11.291,10.109,,5.564,0.137,,,,
2025-10-17T16:31:19.342249+00:00,11.294,11.255,,1.530,1.663,,,,
2025-10-17T16:31:19.948766+00:00,11.297,11.919,,-2.676,2.995,,,,
2025-10-17T16:31:20.551110+00:00,11.298,11.901,,-6.385,4.048,,,,
2025-10-17T16:31:21.154222+00:00,11.300,11.213,,-8.978,4.737,,,,
2025-10-17T16:31:21.764919+00:00,11.300,10.082,,-9.996,4.999,,,,
2025-10-17T16:31:22.376732+00:00,11.300,8.919,,-9.212,4.798,,,,
2025-10-17T16:31:22.986209+00:00,11.299,8.150,,-6.776,4.154,,,,
2025-10-17T16:31:23.591838+00:00,11.297,8.046,,-3.150,3.135,,,,
2025-10-17T16:31:24.199513+00:00,11.294,8.640,,1.047,1.826,,,,
2025-10-17T16:31:24.809346+00:00,11.291,9.725,,5.071,0.345,,,,
2025-10-17T16:31:25.414723+00:00,11.287,10.901,,8.166,-1.158,,,,
2025-10-17T16:31:26.021809+00:00,11.282,11.759,,9.819,-2.559,,,,
2025-10-17T16:31:26.632209+00:00,11.277,11.987,,9.721,-3.731,,,,
2025-10-17T16:31:27.264158+00:00,11.271,11.469,,7.780,-4.581,,,,
2025-10-17T16:31:27.868842+00:00,11.264,10.437,,4.513,-4.970,,,,
2025-10-17T16:31:28.471623+00:00,11.257,9.253,,0.462,-4.909,,,,
2025-10-17T16:31:29.083182+00:00,11.249,8.323,,-3.726,-4.395,,,,
2025-10-17T16:31:29.693709+00:00,11.241,8.001,,-7.237,-3.475,,,,
2025-10-17T16:31:30.297250+00:00,11.232,8.393,,-9.430,-2.249,,,,
2025-10-17T16:31:30.905794+00:00,11.223,9.362,,-9.962,-0.808,,,,
2025-10-17T16:31:31.514147+00:00,11.213,10.560,,-8.714,0.707,,,,
2025-10-17T16:31:32.119120+00:00,11.203,11.552,,-5.928,2.149,,,,
2025-10-17T16:31:32.722137+00:00,11.192,11.994,,-2.109,3.393,,,,
2025-10-17T16:31:33.327168+00:00,11.181,11.730,,2.095,4.333,,,,
2025-10-17T16:31:33.937579+00:00,11.170,10.842,,5.959,4.882,,,,
2025-10-17T16:31:34.552551+00:00,11.158,9.641,,8.766,4.980,,,,
2025-10-17T16:31:35.157598+00:00,11.147,8.586,,9.969,4.619,,,,
2025-10-17T16:31:35.761377+00:00,11.135,8.033,,9.413,3.841,,,,
2025-10-17T16:31:36.367324+00:00,11.123,8.177,,7.190,2.711,,,,
2025-10-17T16:31:36.974015+00:00,11.111,8.972,,3.688,1.333,,,,
2025-10-17T16:31:37.587905+00:00,11.099,10.148,,-0.520,-0.186,,,,
2025-10-17T16:31:38.193867+00:00,11.086,11.258,,-4.584,-1.668,,,,
2025-10-17T16:31:38.799294+00:00,11.074,11.919,,-7.833,-2.997,,,,
2025-10-17T16:31:39.407854+00:00,11.062,11.896,,-9.702,-4.059,,,,
2025-10-17T16:31:40.009822+00:00,11.051,11.203,,-9.845,-4.742,,,,
2025-10-17T16:31:40.616082+00:00,11.039,10.078,,-8.248,-4.999,,,,
2025-10-17T16:31:41.229049+00:00,11.027,8.914,,-5.148,-4.796,,,,
2025-10-17T16:31:41.834974+00:00,11.016,8.151,,-1.164,-4.155,,,,
2025-10-17T16:31:42.444258+00:00,11.005,8.047,,3.049,-3.130,,,,
2025-10-17T16:31:43.049227+00:00,10.995,8.640,,6.693,-1.826,,,,
2025-10-17T16:31:43.656707+00:00,10.985,9.721,,9.162,-0.350,,,,
2025-10-17T16:31:44.263045+00:00,10.975,10.899,,9.999,1.155,,,,
2025-10-17T16:31:44.872771+00:00,10.966,11.760,,9.052,2.562,,,,
2025-10-17T16:31:45.479728+00:00,10.957,11.987,,6.495,3.728,,,,
2025-10-17T16:31:46.089601+00:00,10.949,11.501,,2.764,4.556,,,,
2025-10-17T16:31:46.695663+00:00,10.941,10.481,,-1.437,4.963,,,,
2025-10-17T16:31:47.303958+00:00,10.934,9.285,,-5.397,4.917,,,,
2025-10-17T16:31:47.908629+00:00,10.928,8.350,,-8.378,4.423,,,,
2025-10-17T16:31:48.516061+00:00,10.922,8.000,,-9.884,3.523,,,,
2025-10-17T16:31:49.124070+00:00,10.917,8.366,,-9.629,2.300,,,,
2025-10-17T16:31:49.732810+00:00,10.912,9.319,,-7.652,0.864,,,,
2025-10-17T16:31:50.335735+00:00,10.908,10.506,,-4.344,-0.638,,,,
2025-10-17T16:31:50.945475+00:00,10.905,11.523,,-0.225,-2.097,,,,
2025-10-17T16:31:51.551488+00:00,10.903,11.990,,3.910,-3.356,,,,
2025-10-17T16:31:52.158353+00:00,10.901,11.748,,7.356,-4.310,,,,
2025-10-17T16:31:52.766463+00:00,10.900,10.879,,9.497,-4.871,,,,
2025-10-17T16:31:53.373728+00:00,10.900,9.697,,9.943,-4.986,,,,
2025-10-17T16:31:53.985076+00:00,10.901,8.617,,8.606,-4.640,,,,
2025-10-17T16:31:54.590036+00:00,10.902,8.041,,5.752,-3.875,,,,
2025-10-17T16:31:55.196815+00:00,10.904,8.161,,1.871,-2.754,,,,
2025-10-17T16:31:55.803555+00:00,10.907,8.938,,-2.344,-1.381,,,,
2025-10-17T16:31:56.410908+00:00,10.910,10.095,,-6.145,0.119,,,,
2025-10-17T16:31:57.017288+00:00,10.914,11.217,,-8.849,1.606,,,,
2025-10-17T16:31:57.636732+00:00,10.919,11.912,,-9.987,2.973,,,,
2025-10-17T16:31:58.243818+00:00,10.925,11.905,,-9.309,4.039,,,,
2025-10-17T16:31:58.848221+00:00,10.931,11.221,,-6.988,4.733,,,,
2025-10-17T16:31:59.450488+00:00,10.938,10.109,,-3.449,4.998,,,,
2025-10-17T16:32:00.059696+00:00,10.945,8.946,,0.742,4.809,,,,
2025-10-17T16:32:00.712098+00:00,10.954,8.131,,5.063,4.116,,,,
2025-10-17T16:32:01.321648+00:00,10.962,8.060,,8.178,3.075,,,,
2025-10-17T16:32:01.924798+00:00,10.971,8.679,,9.818,1.765,,,,
2025-10-17T16:32:02.533926+00:00,10.981,9.776,,9.724,0.281,,,,
2025-10-17T16:32:03.136977+00:00,10.991,10.942,,7.915,-1.214,,,,
2025-10-17T16:32:03.744733+00:00,11.001,11.781,,4.687,-2.610,,,,
2025-10-17T16:32:04.351033+00:00,11.012,11.982,,0.633,-3.764,,,,
2025-10-17T16:32:04.957581+00:00,11.023,11.476,,-3.534,-4.575,,,,
2025-10-17T16:32:05.587931+00:00,11.034,10.397,,-7.190,-4.975,,,,
2025-10-17T16:32:06.195672+00:00,11.046,9.207,,-9.418,-4.896,,,,
2025-10-17T16:32:06.802547+00:00,11.058,8.302,,-9.967,-4.370,,,,
2025-10-17T16:32:07.408801+00:00,11.070,8.003,,-8.746,-3.446,,,,
2025-10-17T16:32:08.014022+00:00,11.082,8.414,,-5.979,-2.210,,,,
2025-10-17T16:32:09.005845+00:00,11.102,10.152,,0.534,0.191,,,,
2025-10-17T16:32:09.611951+00:00,11.114,11.261,,4.597,1.673,,,,
2025-10-17T16:32:10.215100+00:00,11.126,11.919,,7.832,2.997,,,,
2025-10-17T16:32:10.823053+00:00,11.138,11.897,,9.700,4.058,,,,
2025-10-17T16:32:11.429124+00:00,11.149,11.198,,9.840,4.745,,,,
2025-10-17T16:32:12.036794+00:00,11.161,10.069,,8.229,4.999,,,,
2025-10-17T16:32:12.036794+00:00,11.161,10.069,,8.229,4.999,,,,
2025-10-17T16:32:15.732001+00:00,11.226,10.992,,-9.988,-1.283,,,,
2025-10-17T16:32:16.341791+00:00,11.235,11.808,,-8.888,-2.675,,,,
2025-10-17T16:32:16.951556+00:00,11.244,11.972,,-6.193,-3.820,,,,
2025-10-17T16:32:17.556547+00:00,11.252,11.432,,-2.419,-4.607,,,,
2025-10-17T16:32:18.159328+00:00,11.259,10.388,,1.767,-4.976,,,,
2025-10-17T16:32:18.782870+00:00,11.267,9.169,,5.762,-4.886,,,,
2025-10-17T16:32:19.388002+00:00,11.273,8.282,,8.612,-4.347,,,,
2025-10-17T16:32:20.008802+00:00,11.279,8.007,,9.951,-3.385,,,,
2025-10-17T16:32:20.615839+00:00,11.284,8.458,,9.472,-2.130,,,,
2025-10-17T16:32:21.224041+00:00,11.288,9.463,,7.302,-0.678,,,,
2025-10-17T16:32:21.828382+00:00,11.292,10.653,,3.854,0.827,,,,
2025-10-17T16:32:22.434860+00:00,11.295,11.614,,-0.289,2.262,,,,
2025-10-17T16:32:23.045580+00:00,11.297,12.000,,-4.407,3.498,,,,
2025-10-17T16:32:23.678249+00:00,11.299,11.638,,-7.829,4.436,,,,
2025-10-17T16:32:24.284691+00:00,11.300,10.691,,-9.697,4.922,,,,
2025-10-17T16:32:24.889540+00:00,11.300,9.501,,-9.845,4.960,,,,
2025-10-17T16:32:26.073886+00:00,11.298,8.018,,-5.357,3.765,,,,
2025-10-17T16:32:26.700929+00:00,11.296,8.238,,-1.261,2.567,,,,
2025-10-17T16:32:27.322044+00:00,11.293,9.117,,3.035,1.133,,,,
2025-10-17T16:32:27.929884+00:00,11.289,10.300,,6.697,-0.376,,,,
2025-10-17T16:32:28.550504+00:00,11.285,11.394,,9.201,-1.881,,,,
2025-10-17T16:32:29.196703+00:00,11.280,11.977,,9.988,-3.255,,,,
2025-10-17T16:32:29.801947+00:00,11.274,11.799,,8.900,-4.238,,,,
2025-10-17T16:32:30.405528+00:00,11.268,10.985,,6.247,-4.835,,,,
2025-10-17T16:32:31.011612+00:00,11.261,9.819,,2.479,-4.995,,,,
2025-10-17T16:32:31.490722+00:00,11.255,8.921,,-0.847,-4.798,,,,
2025-10-17T16:32:32.551891+00:00,11.241,8.004,,-7.363,-3.427,,,,
2025-10-17T16:32:33.156124+00:00,11.232,8.426,,-9.492,-2.189,,,,
2025-10-17T16:32:33.764839+00:00,11.222,9.414,,-9.944,-0.741,,,,
2025-10-17T16:32:34.835024+00:00,11.205,11.396,,-6.562,1.884,,,,
2025-10-17T16:32:35.443627+00:00,11.194,11.964,,-2.857,3.185,,,,
2025-10-17T16:32:36.053661+00:00,11.183,11.826,,1.369,4.196,,,,
2025-10-17T16:32:36.668929+00:00,11.172,11.020,,5.379,4.822,,,,
2025-10-17T16:32:37.272483+00:00,11.160,9.863,,8.363,4.997,,,,
2025-10-17T16:32:37.879258+00:00,11.149,8.750,,9.879,4.718,,,,
2025-10-17T16:32:38.483448+00:00,11.137,8.084,,9.645,4.011,,,,
2025-10-17T16:32:39.092378+00:00,11.125,8.100,,7.689,2.932,,,,
2025-10-17T16:32:40.162642+00:00,11.104,9.636,,1.277,0.457,,,,
2025-10-17T16:32:40.774335+00:00,11.091,10.832,,-2.957,-1.064,,,,
2025-10-17T16:32:41.382306+00:00,11.079,11.722,,-6.637,-2.477,,,,
2025-10-17T16:32:41.994477+00:00,11.067,11.994,,-9.145,-3.671,,,,
2025-10-17T16:32:42.599452+00:00,11.055,11.551,,-10.000,-4.516,,,,
2025-10-17T16:32:43.211241+00:00,11.043,10.545,,-9.068,-4.953,,,,
2025-10-17T16:32:43.818859+00:00,11.032,9.349,,-6.520,-4.931,,,,
2025-10-17T16:32:44.431236+00:00,11.021,8.380,,-2.779,-4.453,,,,
2025-10-17T16:32:45.443588+00:00,11.002,8.147,,4.142,-2.792,,,,
2025-10-17T16:32:46.056629+00:00,10.992,8.917,,7.554,-1.411,,,,
2025-10-17T16:32:46.659632+00:00,10.982,10.062,,9.575,0.077,,,,
2025-10-17T16:32:47.279702+00:00,10.972,11.212,,9.900,1.599,,,,
2025-10-17T16:32:47.890259+00:00,10.963,11.905,,8.425,2.949,,,,
2025-10-17T16:32:48.496337+00:00,10.954,11.913,,5.460,4.019,,,,
2025-10-17T16:32:49.105532+00:00,10.946,11.234,,1.506,4.726,,,,
2025-10-17T16:32:49.716621+00:00,10.939,10.107,,-2.731,4.998,,,,
2025-10-17T16:32:50.724702+00:00,10.928,8.368,,-8.317,4.441,,,,
2025-10-17T16:32:51.334195+00:00,10.922,8.000,,-9.869,3.548,,,,
2025-10-17T16:32:51.941962+00:00,10.917,8.350,,-9.655,2.331,,,,
2025-10-17T16:32:52.558666+00:00,10.912,9.308,,-7.679,0.878,,,,
2025-10-17T16:32:53.162277+00:00,10.908,10.496,,-4.377,-0.624,,,,
2025-10-17T16:32:53.770794+00:00,10.905,11.514,,-0.271,-2.082,,,,
2025-10-17T16:32:54.373810+00:00,10.903,11.988,,3.848,-3.338,,,,
2025-10-17T16:32:54.984868+00:00,10.901,11.753,,7.330,-4.303,,,,
2025-10-17T16:32:55.998753+00:00,10.900,10.109,,9.993,-4.998,,,,
2025-10-17T16:32:56.604858+00:00,10.900,8.952,,9.264,-4.811,,,,
2025-10-17T16:32:57.214051+00:00,10.901,8.166,,6.878,-4.182,,,,
2025-10-17T16:32:57.826507+00:00,10.903,8.041,,3.237,-3.161,,,,
2025-10-17T16:32:58.430003+00:00,10.906,8.615,,-0.926,-1.866,,,,
2025-10-17T16:32:59.035465+00:00,10.909,9.682,,-4.939,-0.399,,,,
2025-10-17T16:32:59.642029+00:00,10.913,10.864,,-8.083,1.108,,,,
2025-10-17T16:33:00.253597+00:00,10.917,11.743,,-9.798,2.524,,,,
2025-10-17T16:33:01.269783+00:00,10.927,11.751,,-8.728,4.305,,,,
2025-10-17T16:33:01.877510+00:00,10.933,10.886,,-5.936,4.869,,,,
2025-10-17T16:33:02.480750+00:00,10.940,9.713,,-2.117,4.987,,,,
2025-10-17T16:33:03.107467+00:00,10.948,8.607,,2.235,4.633,,,,
2025-10-17T16:33:03.714675+00:00,10.956,8.037,,6.055,3.859,,,,
2025-10-17T16:33:04.321942+00:00,10.965,8.169,,8.798,2.732,,,,
2025-10-17T16:33:04.928924+00:00,10.974,8.956,,9.975,1.356,,,,
2025-10-17T16:33:05.537259+00:00,10.983,10.118,,9.375,-0.147,,,,
2025-10-17T16:33:06.546034+00:00,11.000,11.752,,4.875,-2.544,,,,
2025-10-17T16:33:07.154234+00:00,11.011,11.989,,0.834,-3.716,,,,
2025-10-17T16:33:07.762570+00:00,11.022,11.512,,-3.357,-4.548,,,,
2025-10-17T16:33:08.377896+00:00,11.034,10.479,,-6.984,-4.963,,,,
2025-10-17T16:33:08.981466+00:00,11.045,9.292,,-9.304,-4.918,,,,
2025-10-17T16:33:09.589158+00:00,11.057,8.351,,-9.987,-4.424,,,,
2025-10-17T16:33:10.192232+00:00,11.069,8.000,,-8.905,-3.533,,,,
2025-10-17T16:33:10.803616+00:00,11.081,8.364,,-6.214,-2.304,,,,
2025-10-17T16:33:11.820174+00:00,11.101,10.117,,0.411,0.147,,,,
2025-10-17T16:33:12.427688+00:00,11.113,11.236,,4.497,1.635,,,,
2025-10-17T16:33:13.040850+00:00,11.126,11.916,,7.806,2.985,,,,
2025-10-17T16:33:13.653028+00:00,11.138,11.898,,9.697,4.055,,,,
2025-10-17T16:33:14.256346+00:00,11.149,11.205,,9.846,4.741,,,,
2025-10-17T16:33:14.861558+00:00,11.161,10.083,,8.257,4.999,,,,
2025-10-17T16:33:15.469635+00:00,11.172,8.926,,5.192,4.801,,,,
2025-10-17T16:33:16.082447+00:00,11.184,8.151,,1.166,4.156,,,,
2025-10-17T16:33:17.097417+00:00,11.202,8.376,,-5.593,2.280,,,,
2025-10-17T16:33:17.705804+00:00,11.212,9.335,,-8.518,0.843,,,,
2025-10-17T16:33:18.308910+00:00,11.222,10.522,,-9.917,-0.659,,,,
2025-10-17T16:33:18.922341+00:00,11.231,11.539,,-9.553,-2.125,,,,
2025-10-17T16:33:19.529597+00:00,11.240,11.993,,-7.483,-3.381,,,,
2025-10-17T16:33:20.135135+00:00,11.249,11.736,,-4.092,-4.325,,,,
2025-10-17T16:33:20.742787+00:00,11.256,10.858,,0.038,-4.878,,,,
2025-10-17T16:33:21.354636+00:00,11.264,9.665,,4.187,-4.982,,,,
2025-10-17T16:33:22.362373+00:00,11.274,8.154,,9.076,-4.160,,,,
2025-10-17T16:33:22.973169+00:00,11.280,8.047,,10.000,-3.134,,,,
2025-10-17T16:33:23.582345+00:00,11.285,8.643,,9.128,-1.821,,,,
2025-10-17T16:33:24.193901+00:00,11.289,9.733,,6.609,-0.335,,,,
2025-10-17T16:33:24.797348+00:00,11.293,10.905,,2.952,1.163,,,,
2025-10-17T16:33:25.404160+00:00,11.296,11.760,,-1.248,2.563,,,,
2025-10-17T16:33:26.007374+00:00,11.298,11.988,,-5.204,3.722,,,,
2025-10-17T16:33:26.624204+00:00,11.299,11.496,,-8.300,4.560,,,,
2025-10-17T16:33:27.636368+00:00,11.300,9.668,,-9.932,4.983,,,,
2025-10-17T16:33:28.243956+00:00,11.299,8.601,,-8.566,4.630,,,,
2025-10-17T16:33:28.854656+00:00,11.298,8.034,,-5.656,3.848,,,,
2025-10-17T16:33:29.467143+00:00,11.296,8.180,,-1.715,2.706,,,,
2025-10-17T16:33:30.070451+00:00,11.293,8.971,,2.473,1.335,,,,
2025-10-17T16:33:30.675702+00:00,11.290,10.129,,6.238,-0.162,,,,
2025-10-17T16:33:31.281232+00:00,11.286,11.242,,8.901,-1.644,,,,
2025-10-17T16:33:31.896685+00:00,11.281,11.919,,9.991,-2.997,,,,
2025-10-17T16:33:32.910614+00:00,11.271,11.492,,7.855,-4.563,,,,
2025-10-17T16:33:33.518643+00:00,11.265,10.464,,4.599,-4.966,,,,
2025-10-17T16:33:34.122199+00:00,11.257,9.278,,0.554,-4.915,,,,
2025-10-17T16:33:34.736199+00:00,11.249,8.335,,-3.657,-4.407,,,,
2025-10-17T16:33:35.344218+00:00,11.241,8.000,,-7.173,-3.499,,,,
2025-10-17T16:33:35.949653+00:00,11.232,8.380,,-9.404,-2.275,,,,
2025-10-17T16:33:36.558364+00:00,11.223,9.341,,-9.969,-0.836,,,,
2025-10-17T16:33:37.168756+00:00,11.213,10.542,,-8.745,0.684,,,,
2025-10-17T16:33:38.176326+00:00,11.196,11.917,,-3.515,2.990,,,,
2025-10-17T16:33:38.785855+00:00,11.185,11.898,,0.675,4.055,,,,
2025-10-17T16:33:39.394850+00:00,11.174,11.196,,4.740,4.745,,,,
2025-10-17T16:33:40.015612+00:00,11.162,10.040,,8.006,5.000,,,,
2025-10-17T16:33:40.619187+00:00,11.151,8.898,,9.759,4.789,,,,
2025-10-17T16:33:41.226075+00:00,11.139,8.143,,9.791,4.140,,,,
2025-10-17T16:33:41.829309+00:00,11.127,8.049,,8.097,3.121,,,,
2025-10-17T16:33:42.440106+00:00,11.115,8.655,,4.935,1.802,,,,
2025-10-17T16:33:43.452072+00:00,11.095,10.543,,-1.911,-0.685,,,,
2025-10-17T16:33:44.058160+00:00,11.082,11.542,,-5.782,-2.131,,,,
2025-10-17T16:33:44.669437+00:00,11.070,11.994,,-8.646,-3.394,,,,
2025-10-17T16:33:45.287388+00:00,11.058,11.716,,-9.956,-4.350,,,,
2025-10-17T16:33:45.890611+00:00,11.046,10.831,,-9.465,-4.886,,,,
2025-10-17T16:33:46.497185+00:00,11.035,9.645,,-7.296,-4.980,,,,
2025-10-17T16:33:47.102746+00:00,11.023,8.588,,-3.837,-4.621,,,,
2025-10-17T16:33:47.714307+00:00,11.012,8.031,,0.343,-3.832,,,,
2025-10-17T16:33:48.727363+00:00,10.995,8.662,,6.768,-1.792,,,,
2025-10-17T16:33:49.336266+00:00,10.984,9.752,,9.206,-0.311,,,,
2025-10-17T16:33:49.939546+00:00,10.975,10.922,,9.998,1.186,,,,
2025-10-17T16:33:50.556018+00:00,10.965,11.778,,8.993,2.604,,,,
2025-10-17T16:33:51.163226+00:00,10.957,11.983,,6.389,3.761,,,,
2025-10-17T16:33:51.768719+00:00,10.949,11.480,,2.660,4.572,,,,
2025-10-17T16:33:52.376189+00:00,10.941,10.448,,-1.554,4.968,,,,
2025-10-17T16:33:52.984357+00:00,10.934,9.254,,-5.495,4.909,,,,
2025-10-17T16:33:53.992623+00:00,10.923,8.032,,-9.601,3.840,,,,
2025-10-17T16:33:54.602237+00:00,10.918,8.181,,-9.897,2.701,,,,
2025-10-17T16:33:55.211366+00:00,10.913,8.985,,-8.420,1.315,,,,
2025-10-17T16:33:55.825594+00:00,10.909,10.164,,-5.405,-0.205,,,,
2025-10-17T16:33:56.429246+00:00,10.906,11.266,,-1.479,-1.680,,,,
2025-10-17T16:33:57.036047+00:00,10.903,11.923,,2.728,-3.011,,,,
2025-10-17T16:33:57.639282+00:00,10.902,11.895,,6.431,-4.061,,,,
2025-10-17T16:33:58.249933+00:00,10.900,11.187,,9.027,-4.750,,,,
2025-10-17T16:33:59.262614+00:00,10.900,9.263,,9.653,-4.911,,,,
2025-10-17T16:33:59.869005+00:00,10.901,8.335,,7.722,-4.407,,,,
2025-10-17T16:34:00.477084+00:00,10.903,8.000,,4.409,-3.498,,,,
2025-10-17T16:34:01.086997+00:00,10.905,8.385,,0.296,-2.264,,,,
2025-10-17T16:34:01.690784+00:00,10.908,9.340,,-3.830,-0.836,,,,
2025-10-17T16:34:02.297565+00:00,10.912,10.535,,-7.296,0.675,,,,
2025-10-17T16:34:02.903161+00:00,10.916,11.537,,-9.463,2.121,,,,
2025-10-17T16:34:03.513894+00:00,10.921,11.993,,-9.952,3.384,,,,
2025-10-17T16:34:04.527621+00:00,10.931,11.196,,-6.909,4.745,,,,
2025-10-17T16:34:05.136220+00:00,10.938,10.065,,-3.304,4.999,,,,
2025-10-17T16:34:05.739289+00:00,10.945,8.919,,0.853,4.798,,,,
2025-10-17T16:34:06.352091+00:00,10.953,8.148,,4.920,4.150,,,,
2025-10-17T16:34:06.960927+00:00,10.962,8.049,,8.079,3.123,,,,
2025-10-17T16:34:07.566381+00:00,10.971,8.646,,9.788,1.817,,,,
2025-10-17T16:34:08.173624+00:00,10.980,9.728,,9.762,0.341,,,,
2025-10-17T16:34:08.783551+00:00,10.990,10.912,,7.988,-1.173,,,,
2025-10-17T16:34:09.791483+00:00,11.008,11.992,,2.179,-3.374,,,,
2025-10-17T16:34:10.401252+00:00,11.019,11.735,,-2.057,-4.326,,,,
2025-10-17T16:34:11.009074+00:00,11.030,10.857,,-5.913,-4.878,,,,
2025-10-17T16:34:11.619651+00:00,11.041,9.666,,-8.724,-4.982,,,,
2025-10-17T16:34:12.225012+00:00,11.053,8.603,,-9.962,-4.631,,,,
2025-10-17T16:34:12.832150+00:00,11.065,8.036,,-9.434,-3.856,,,,
2025-10-17T16:34:13.435043+00:00,11.077,8.168,,-7.248,-2.736,,,,
2025-10-17T16:34:14.044102+00:00,11.089,8.956,,-3.750,-1.356,,,,
2025-10-17T16:34:15.057718+00:00,11.109,10.896,,3.194,1.151,,,,
2025-10-17T16:34:15.664372+00:00,11.121,11.755,,6.815,2.552,,,,
2025-10-17T16:34:16.272187+00:00,11.133,11.988,,9.228,3.721,,,,
2025-10-17T16:34:16.884035+00:00,11.145,11.504,,9.995,4.554,,,,
2025-10-17T16:34:17.487709+00:00,11.157,10.489,,8.981,4.962,,,,
2025-10-17T16:34:18.093721+00:00,11.169,9.298,,6.375,4.920,,,,
2025-10-17T16:34:18.699501+00:00,11.180,8.356,,2.641,4.430,,,,
2025-10-17T16:34:19.310172+00:00,11.191,8.000,,-1.595,3.528,,,,
2025-10-17T16:34:20.321911+00:00,11.208,8.947,,-7.633,1.369,,,,
2025-10-17T16:34:20.930106+00:00,11.218,10.107,,-9.620,-0.134,,,,
2025-10-17T16:34:21.533298+00:00,11.228,11.221,,-9.894,-1.613,,,,
2025-10-17T16:34:22.149117+00:00,11.237,11.912,,-8.383,-2.971,,,,
2025-10-17T16:34:22.759221+00:00,11.246,11.903,,-5.371,-4.042,,,,
2025-10-17T16:34:23.364777+00:00,11.254,11.216,,-1.427,-4.736,,,,
2025-10-17T16:34:23.971784+00:00,11.261,10.093,,2.780,-4.999,,,,
2025-10-17T16:34:24.580133+00:00,11.268,8.934,,6.500,-4.804,,,,
2025-10-17T16:34:25.589168+00:00,11.278,8.000,,9.877,-3.535,,,,
2025-10-17T16:34:26.198783+00:00,11.283,8.361,,9.638,-2.311,,,,
2025-10-17T16:34:26.801966+00:00,11.288,9.300,,7.699,-0.889,,,,
2025-10-17T16:34:27.413505+00:00,11.292,10.502,,4.355,0.633,,,,
2025-10-17T16:34:28.017116+00:00,11.295,11.512,,0.281,2.079,,,,
2025-10-17T16:34:28.626612+00:00,11.297,11.989,,-3.881,3.347,,,,
2025-10-17T16:34:29.231835+00:00,11.299,11.754,,-7.326,4.302,,,,
2025-10-17T16:34:29.838525+00:00,11.300,10.893,,-9.480,4.867,,,,
2025-10-17T16:34:30.846789+00:00,11.300,8.962,,-9.280,4.815,,,,
2025-10-17T16:34:31.455859+00:00,11.299,8.171,,-6.908,4.190,,,,
2025-10-17T16:34:32.063833+00:00,11.297,8.037,,-3.307,3.181,,,,
2025-10-17T16:34:32.676841+00:00,11.294,8.613,,0.920,1.869,,,,
2025-10-17T16:34:33.282506+00:00,11.291,9.681,,4.935,0.400,,,,
2025-10-17T16:34:33.889150+00:00,11.287,10.863,,8.080,-1.107,,,,
2025-10-17T16:34:34.493696+00:00,11.283,11.736,,9.787,-2.508,,,,
2025-10-17T16:34:35.103741+00:00,11.277,11.992,,9.759,-3.691,,,,
2025-10-17T16:34:36.118890+00:00,11.267,10.898,,5.972,-4.865,,,,
2025-10-17T16:34:36.731915+00:00,11.260,9.706,,2.094,-4.986,,,,
2025-10-17T16:34:37.336956+00:00,11.253,8.633,,-2.110,-4.650,,,,
2025-10-17T16:34:37.944205+00:00,11.244,8.044,,-5.953,-3.888,,,,
2025-10-17T16:34:38.547608+00:00,11.236,8.152,,-8.724,-2.779,,,,
2025-10-17T16:34:39.158575+00:00,11.227,8.925,,-9.966,-1.400,,,,
2025-10-17T16:34:39.766609+00:00,11.217,10.081,,-9.419,0.101,,,,
2025-10-17T16:34:40.379173+00:00,11.207,11.215,,-7.170,1.604,,,,
2025-10-17T16:34:41.388883+00:00,11.189,11.992,,-0.925,3.694,,,,
2025-10-17T16:34:41.995056+00:00,11.178,11.532,,3.256,4.532,,,,
2025-10-17T16:34:42.598355+00:00,11.167,10.532,,6.846,4.955,,,,
2025-10-17T16:34:43.212822+00:00,11.155,9.323,,9.262,4.926,,,,
2025-10-17T16:34:43.820151+00:00,11.143,8.370,,9.993,4.444,,,,
2025-10-17T16:34:44.429687+00:00,11.131,8.000,,8.938,3.551,,,,
2025-10-17T16:34:45.033990+00:00,11.119,8.344,,6.309,2.343,,,,
2025-10-17T16:34:45.643593+00:00,11.107,9.285,,2.531,0.909,,,,
2025-10-17T16:34:46.652732+00:00,11.087,11.200,,-4.354,-1.581,,,,
2025-10-17T16:34:47.263522+00:00,11.075,11.901,,-7.695,-2.934,,,,
2025-10-17T16:34:47.871428+00:00,11.063,11.916,,-9.645,-4.011,,,,
2025-10-17T16:34:48.485504+00:00,11.051,11.235,,-9.868,-4.726,,,,
2025-10-17T16:34:49.089030+00:00,11.039,10.123,,-8.337,-4.998,,,,
2025-10-17T16:34:49.698288+00:00,11.028,8.959,,-5.305,-4.814,,,,
2025-10-17T16:34:50.301626+00:00,11.017,8.174,,-1.365,-4.195,,,,
2025-10-17T16:34:50.910661+00:00,11.006,8.036,,2.854,-3.186,,,,
2025-10-17T16:34:51.923352+00:00,10.988,9.279,,8.406,-0.917,,,,
2025-10-17T16:34:52.529269+00:00,10.979,10.469,,9.890,0.591,,,,
2025-10-17T16:34:53.137231+00:00,10.969,11.496,,9.618,2.050,,,,
2025-10-17T16:34:53.746564+00:00,10.960,11.986,,7.624,3.323,,,,
2025-10-17T16:34:54.350092+00:00,10.952,11.768,,4.301,4.284,,,,
2025-10-17T16:34:54.955471+00:00,10.944,10.921,,0.208,4.858,,,,
2025-10-17T16:34:55.562374+00:00,10.937,9.744,,-3.931,4.990,,,,
2025-10-17T16:34:56.176004+00:00,10.930,8.648,,-7.403,4.660,,,,
2025-10-17T16:34:57.187410+00:00,10.920,8.033,,-9.996,3.198,,,,
2025-10-17T16:34:57.796064+00:00,10.915,8.594,,-9.223,1.900,,,,
2025-10-17T16:34:58.399327+00:00,10.911,9.649,,-6.829,0.440,,,,
2025-10-17T16:34:59.012372+00:00,10.907,10.846,,-3.170,-1.083,,,,
2025-10-17T16:34:59.621122+00:00,10.904,11.730,,1.034,-2.496,,,,
2025-10-17T16:35:00.226218+00:00,10.902,11.994,,5.031,-3.674,,,,
2025-10-17T16:35:00.833387+00:00,10.901,11.546,,8.147,-4.520,,,,
2025-10-17T16:35:01.441632+00:00,10.900,10.544,,9.815,-4.953,,,,
2025-10-17T16:35:02.449767+00:00,10.901,8.662,,8.714,-4.668,,,,
2025-10-17T16:35:03.059127+00:00,10.902,8.052,,5.903,-3.916,,,,
2025-10-17T16:35:03.669396+00:00,10.904,8.144,,2.028,-2.801,,,,
2025-10-17T16:35:04.280097+00:00,10.907,8.906,,-2.214,-1.427,,,,
2025-10-17T16:35:04.883910+00:00,10.910,10.050,,-6.019,0.063,,,,
2025-10-17T16:35:05.491216+00:00,10.914,11.182,,-8.777,1.555,,,,
2025-10-17T16:35:06.094250+00:00,10.919,11.889,,-9.970,2.896,,,,
2025-10-17T16:35:06.703760+00:00,10.924,11.925,,-9.397,3.986,,,,
2025-10-17T16:35:07.720164+00:00,10.935,10.553,,-4.884,4.951,,,,
2025-10-17T16:35:08.327296+00:00,10.942,9.358,,-0.852,4.933,,,,
2025-10-17T16:35:08.935180+00:00,10.950,8.391,,3.337,4.464,,,,
2025-10-17T16:35:09.548784+00:00,10.958,8.001,,6.959,3.575,,,,
2025-10-17T16:35:10.152159+00:00,10.967,8.328,,9.291,2.375,,,,
2025-10-17T16:35:10.757603+00:00,10.976,9.250,,9.990,0.955,,,,
2025-10-17T16:35:11.363143+00:00,10.986,10.439,,8.920,-0.552,,,,
2025-10-17T16:35:11.974003+00:00,10.996,11.479,,6.243,-2.021,,,,
2025-10-17T16:35:12.987506+00:00,11.014,11.925,,-0.352,-3.986,,,,
2025-10-17T16:35:13.596461+00:00,11.025,11.269,,-4.453,-4.708,,,,
2025-10-17T16:35:14.199836+00:00,11.037,10.167,,-7.732,-4.996,,,,
2025-10-17T16:35:14.812223+00:00,11.048,8.991,,-9.668,-4.826,,,,
2025-10-17T16:35:15.419423+00:00,11.060,8.186,,-9.861,-4.215,,,,
2025-10-17T16:35:16.025689+00:00,11.072,8.029,,-8.303,-3.220,,,,
2025-10-17T16:35:16.632947+00:00,11.084,8.576,,-5.266,-1.929,,,,
2025-10-17T16:35:17.242438+00:00,11.096,9.637,,-1.275,-0.456,,,,
2025-10-17T16:35:18.251572+00:00,11.117,11.471,,5.468,2.008,,,,
2025-10-17T16:35:18.862181+00:00,11.129,11.982,,8.447,3.291,,,,
2025-10-17T16:35:19.469989+00:00,11.141,11.779,,9.903,4.267,,,,
2025-10-17T16:35:20.086278+00:00,11.153,10.924,,9.577,4.856,,,,
2025-10-17T16:35:20.689716+00:00,11.164,9.755,,7.555,4.991,,,,
2025-10-17T16:35:21.297579+00:00,11.176,8.665,,4.177,4.670,,,,
2025-10-17T16:35:21.900415+00:00,11.187,8.056,,0.089,3.929,,,,
2025-10-17T16:35:22.510931+00:00,11.197,8.138,,-4.064,2.818,,,,
2025-10-17T16:35:23.523597+00:00,11.215,9.633,,-9.033,0.461,,,,
2025-10-17T16:35:24.129677+00:00,11.224,10.818,,-9.998,-1.046,,,,
2025-10-17T16:35:24.739239+00:00,11.234,11.716,,-9.181,-2.465,,,,
2025-10-17T16:35:25.350473+00:00,11.242,11.995,,-6.709,-3.659,,,,
2025-10-17T16:35:25.954692+00:00,11.251,11.561,,-3.074,-4.507,,,,
2025-10-17T16:35:26.559874+00:00,11.258,10.572,,1.109,-4.948,,,,
2025-10-17T16:35:27.165440+00:00,11.265,9.379,,5.099,-4.938,,,,
2025-10-17T16:35:27.777393+00:00,11.272,8.400,,8.211,-4.472,,,,
2025-10-17T16:35:28.791803+00:00,11.281,8.136,,9.947,-2.823,,,,
2025-10-17T16:35:29.401506+00:00,11.286,8.887,,8.631,-1.454,,,,
2025-10-17T16:35:30.004733+00:00,11.290,10.026,,5.803,0.033,,,,
2025-10-17T16:35:30.619651+00:00,11.294,11.175,,1.875,1.545,,,,
2025-10-17T16:35:31.226955+00:00,11.296,11.889,,-2.343,2.896,,,,
2025-10-17T16:35:31.832346+00:00,11.298,11.928,,-6.133,3.979,,,,
2025-10-17T16:35:32.439889+00:00,11.300,11.278,,-8.846,4.703,,,,
2025-10-17T16:35:33.046701+00:00,11.300,10.173,,-9.982,4.995,,,,
2025-10-17T16:35:34.056803+00:00,11.299,8.404,,-7.981,4.476,,,,
2025-10-17T16:35:34.663948+00:00,11.298,8.002,,-4.787,3.605,,,,
2025-10-17T16:35:35.267050+00:00,11.295,8.309,,-0.770,2.414,,,,
2025-10-17T16:35:35.881933+00:00,11.292,9.235,,3.461,0.976,,,,
2025-10-17T16:35:36.489231+00:00,11.289,10.426,,7.022,-0.535,,,,
2025-10-17T16:35:37.098033+00:00,11.284,11.467,,9.337,-2.001,,,,
2025-10-17T16:35:37.701732+00:00,11.279,11.979,,9.984,-3.272,,,,
2025-10-17T16:35:38.311103+00:00,11.274,11.787,,8.856,-4.256,,,,
2025-10-17T16:35:39.321286+00:00,11.263,10.190,,3.715,-4.994,,,,
2025-10-17T16:35:39.930917+00:00,11.256,9.016,,-0.461,-4.835,,,,
2025-10-17T16:35:40.539136+00:00,11.248,8.197,,-4.545,-4.232,,,,
2025-10-17T16:35:41.154966+00:00,11.239,8.028,,-7.851,-3.227,,,,
2025-10-17T16:35:41.758584+00:00,11.230,8.566,,-9.701,-1.945,,,,
2025-10-17T16:35:42.366296+00:00,11.221,9.619,,-9.838,-0.478,,,,
2025-10-17T16:35:42.969402+00:00,11.211,10.800,,-8.241,1.022,,,,
2025-10-17T16:35:43.580024+00:00,11.200,11.706,,-5.151,2.446,,,,
2025-10-17T16:35:44.591976+00:00,11.182,11.789,,1.664,4.253,,,,
2025-10-17T16:35:45.198193+00:00,11.171,10.961,,5.577,4.844,,,,
2025-10-17T16:35:45.809171+00:00,11.160,9.781,,8.517,4.992,,,,
2025-10-17T16:35:46.422490+00:00,11.148,8.677,,9.925,4.677,,,,
2025-10-17T16:35:47.026024+00:00,11.136,8.059,,9.553,3.940,,,,
2025-10-17T16:35:47.632169+00:00,11.124,8.130,,7.488,2.842,,,,
2025-10-17T16:35:48.238106+00:00,11.112,8.866,,4.097,1.485,,,,
2025-10-17T16:35:48.849702+00:00,11.100,10.017,,-0.060,-0.022,,,,
2025-10-17T16:35:49.862265+00:00,11.080,11.705,,-6.555,-2.443,,,,
2025-10-17T16:35:50.472711+00:00,11.068,11.996,,-9.095,-3.641,,,,
2025-10-17T16:35:51.076317+00:00,11.056,11.575,,-10.000,-4.495,,,,
2025-10-17T16:35:51.693704+00:00,11.044,10.570,,-9.106,-4.948,,,,
2025-10-17T16:35:52.302025+00:00,11.032,9.372,,-6.586,-4.936,,,,
2025-10-17T16:35:52.910377+00:00,11.021,8.399,,-2.889,-4.472,,,,
2025-10-17T16:35:53.517918+00:00,11.010,8.001,,1.318,-3.598,,,,
2025-10-17T16:35:54.126128+00:00,10.999,8.319,,5.294,-2.393,,,,
2025-10-17T16:35:55.133470+00:00,10.982,10.018,,9.530,0.023,,,,
2025-10-17T16:35:55.742925+00:00,10.973,11.160,,9.929,1.522,,,,
2025-10-17T16:35:56.350754+00:00,10.964,11.883,,8.554,2.878,,,,
2025-10-17T16:35:56.965702+00:00,10.955,11.927,,5.613,3.980,,,,
2025-10-17T16:35:57.569719+00:00,10.947,11.283,,1.723,4.700,,,,
2025-10-17T16:35:58.177910+00:00,10.939,10.176,,-2.499,4.995,,,,
2025-10-17T16:35:58.781023+00:00,10.932,9.015,,-6.247,4.835,,,,
2025-10-17T16:35:59.394083+00:00,10.926,8.193,,-8.930,4.225,,,,
2025-10-17T16:36:00.414106+00:00,10.917,8.324,,-9.696,2.382,,,,
2025-10-17T16:36:01.020128+00:00,10.912,9.245,,-7.830,0.962,,,,
2025-10-17T16:36:01.628208+00:00,10.908,10.438,,-4.563,-0.551,,,,
2025-10-17T16:36:02.248408+00:00,10.905,11.491,,-0.396,-2.041,,,,
2025-10-17T16:36:02.852709+00:00,10.903,11.984,,3.740,-3.307,,,,
2025-10-17T16:36:03.458303+00:00,10.901,11.774,,7.224,-4.275,,,,
2025-10-17T16:36:04.064996+00:00,10.900,10.931,,9.431,-4.854,,,,
2025-10-17T16:36:04.676811+00:00,10.900,9.745,,9.960,-4.990,,,,
2025-10-17T16:36:05.688237+00:00,10.901,8.183,,6.985,-4.211,,,,
2025-10-17T16:36:06.296078+00:00,10.903,8.031,,3.409,-3.211,,,,
2025-10-17T16:36:06.899077+00:00,10.905,8.577,,-0.742,-1.928,,,,
2025-10-17T16:36:07.512334+00:00,10.909,9.645,,-4.825,-0.445,,,,
2025-10-17T16:36:08.119700+00:00,10.913,10.832,,-8.008,1.064,,,,
2025-10-17T16:36:08.725081+00:00,10.917,11.719,,-9.763,2.472,,,,
2025-10-17T16:36:09.332440+00:00,10.922,11.995,,-9.787,3.659,,,,
2025-10-17T16:36:09.940757+00:00,10.928,11.556,,-8.065,4.511,,,,
2025-10-17T16:36:10.948199+00:00,10.940,9.769,,-2.309,4.992,,,,
2025-10-17T16:36:11.560575+00:00,10.947,8.669,,1.944,4.672,,,,
2025-10-17T16:36:12.168439+00:00,10.955,8.055,,5.820,3.925,,,,
2025-10-17T16:36:12.781967+00:00,10.964,8.142,,8.678,2.806,,,,
2025-10-17T16:36:13.387414+00:00,10.973,8.893,,9.954,1.445,,,,
2025-10-17T16:36:13.994097+00:00,10.983,10.041,,9.466,-0.051,,,,
2025-10-17T16:36:14.597208+00:00,10.993,11.168,,7.313,-1.533,,,,
2025-10-17T16:36:15.206976+00:00,11.003,11.887,,3.834,-2.891,,,,
2025-10-17T16:36:16.219581+00:00,11.021,11.561,,-3.102,-4.507,,,,
2025-10-17T16:36:16.825824+00:00,11.033,10.571,,-6.741,-4.948,,,,
2025-10-17T16:36:17.435415+00:00,11.044,9.371,,-9.194,-4.936,,,,
2025-10-17T16:36:18.046575+00:00,11.056,8.395,,-9.997,-4.468,,,,
2025-10-17T16:36:18.650443+00:00,11.068,8.001,,-9.021,-3.598,,,,
2025-10-17T16:36:19.262565+00:00,11.080,8.323,,-6.412,-2.385,,,,
2025-10-17T16:36:19.868233+00:00,11.092,9.242,,-2.688,-0.966,,,,
2025-10-17T16:36:20.481543+00:00,11.104,10.445,,1.565,0.560,,,,
2025-10-17T16:36:21.497094+00:00,11.125,11.892,,7.631,2.905,,,,
2025-10-17T16:36:22.105175+00:00,11.137,11.924,,9.619,3.990,,,,
2025-10-17T16:36:22.708736+00:00,11.149,11.273,,9.894,4.705,,,,
2025-10-17T16:36:23.318652+00:00,11.160,10.160,,8.406,4.996,,,,
2025-10-17T16:36:23.926835+00:00,11.172,8.992,,5.419,4.827,,,,
2025-10-17T16:36:24.532228+00:00,11.183,8.188,,1.484,4.218,,,,
2025-10-17T16:36:25.139705+00:00,11.194,8.029,,-2.728,3.222,,,,
2025-10-17T16:36:25.750402+00:00,11.204,8.580,,-6.471,1.924,,,,
2025-10-17T16:36:26.758365+00:00,11.221,10.433,,-9.870,-0.544,,,,
2025-10-17T16:36:27.367813+00:00,11.231,11.473,,-9.650,-2.011,,,,
2025-10-17T16:36:27.975733+00:00,11.239,11.982,,-7.708,-3.289,,,,
2025-10-17T16:36:28.589834+00:00,11.248,11.775,,-4.351,-4.273,,,,
2025-10-17T16:36:29.193259+00:00,11.256,10.939,,-0.278,-4.852,,,,
2025-10-17T16:36:29.802588+00:00,11.263,9.759,,3.882,-4.991,,,,
2025-10-17T16:36:30.405659+00:00,11.270,8.675,,7.317,-4.676,,,,
2025-10-17T16:36:31.015909+00:00,11.276,8.056,,9.484,-3.928,,,,
2025-10-17T16:36:32.028005+00:00,11.285,8.572,,9.265,-1.936,,,,
2025-10-17T16:36:32.634322+00:00,11.289,9.624,,6.894,-0.472,,,,
2025-10-17T16:36:33.242476+00:00,11.293,10.814,,3.287,1.040,,,,
2025-10-17T16:36:33.857118+00:00,11.296,11.718,,-0.952,2.471,,,,
2025-10-17T16:36:34.460671+00:00,11.298,11.996,,-4.950,3.651,,,,
2025-10-17T16:36:35.065864+00:00,11.299,11.566,,-8.084,4.503,,,,
2025-10-17T16:36:35.671969+00:00,11.300,10.578,,-9.790,4.946,,,,
2025-10-17T16:36:36.283715+00:00,11.300,9.373,,-9.752,4.937,,,,
2025-10-17T16:36:37.291173+00:00,11.298,8.060,,-5.992,3.940,,,,
2025-10-17T16:36:37.903626+00:00,11.296,8.134,,-2.121,2.829,,,,
2025-10-17T16:36:38.508723+00:00,11.294,8.874,,2.083,1.472,,,,
2025-10-17T16:36:39.111739+00:00,11.290,10.010,,5.907,-0.013,,,,
2025-10-17T16:36:39.718568+00:00,11.286,11.149,,8.708,-1.506,,,,
2025-10-17T16:36:40.328111+00:00,11.281,11.879,,9.962,-2.868,,,,
2025-10-17T16:36:40.935394+00:00,11.276,11.934,,9.435,-3.961,,,,
2025-10-17T16:36:41.542545+00:00,11.270,11.297,,7.230,-4.692,,,,
2025-10-17T16:36:42.555547+00:00,11.258,9.395,,0.988,-4.941,,,,
2025-10-17T16:36:43.161806+00:00,11.250,8.417,,-3.197,-4.487,,,,
2025-10-17T16:36:43.764923+00:00,11.242,8.003,,-6.799,-3.630,,,,
2025-10-17T16:36:44.377684+00:00,11.233,8.304,,-9.233,-2.424,,,,
2025-10-17T16:36:44.985173+00:00,11.224,9.213,,-9.995,-1.005,,,,
2025-10-17T16:36:45.595272+00:00,11.214,10.408,,-8.969,0.513,,,,
2025-10-17T16:36:46.198661+00:00,11.204,11.447,,-6.368,1.968,,,,
2025-10-17T16:36:46.809144+00:00,11.193,11.977,,-2.600,3.258,,,,
2025-10-17T16:36:47.816680+00:00,11.175,11.311,,4.279,4.684,,,,
2025-10-17T16:36:48.426132+00:00,11.164,10.210,,7.636,4.993,,,,
2025-10-17T16:36:49.033882+00:00,11.152,9.037,,9.620,4.843,,,,
2025-10-17T16:36:49.644923+00:00,11.140,8.205,,9.886,4.245,,,,
2025-10-17T16:36:50.250086+00:00,11.128,8.022,,8.393,3.265,,,,
2025-10-17T16:36:50.856961+00:00,11.116,8.543,,5.406,1.984,,,,
2025-10-17T16:36:51.460759+00:00,11.104,9.579,,1.480,0.529,,,,
2025-10-17T16:36:52.069726+00:00,11.092,10.773,,-2.742,-0.986,,,,
2025-10-17T16:36:53.083802+00:00,11.072,11.974,,-8.347,-3.242,,,,
2025-10-17T16:36:53.689797+00:00,11.060,11.804,,-9.874,-4.230,,,,
2025-10-17T16:36:54.297785+00:00,11.048,10.988,,-9.647,-4.834,,,,
2025-10-17T16:36:54.910472+00:00,11.036,9.808,,-7.677,-4.994,,,,
2025-10-17T16:36:55.513839+00:00,11.025,8.713,,-4.376,-4.697,,,,
2025-10-17T16:36:56.119122+00:00,11.014,8.070,,-0.292,-3.973,,,,
2025-10-17T16:36:56.724955+00:00,11.003,8.114,,3.847,-2.887,,,,
2025-10-17T16:36:57.337510+00:00,10.993,8.840,,7.336,-1.522,,,,
2025-10-17T16:36:58.349313+00:00,10.976,10.766,,9.992,0.977,,,,
2025-10-17T16:36:58.957189+00:00,10.967,11.684,,9.262,2.400,,,,
2025-10-17T16:36:59.560378+00:00,10.958,11.999,,6.903,3.594,,,,
2025-10-17T16:37:00.176418+00:00,10.950,11.593,,3.247,4.479,,,,
2025-10-17T16:37:00.779830+00:00,10.942,10.625,,-0.915,4.937,,,,
2025-10-17T16:37:01.388556+00:00,10.935,9.427,,-4.949,4.947,,,,
2025-10-17T16:37:01.997525+00:00,10.928,8.434,,-8.099,4.502,,,,
2025-10-17T16:37:02.606454+00:00,10.922,8.004,,-9.800,3.643,,,,
2025-10-17T16:37:03.614058+00:00,10.914,8.829,,-8.753,1.538,,,,
2025-10-17T16:37:04.223365+00:00,10.910,9.968,,-5.968,0.040,,,,
2025-10-17T16:37:04.831127+00:00,10.906,11.116,,-2.124,-1.458,,,,
2025-10-17T16:37:05.441557+00:00,10.904,11.866,,2.117,-2.828,,,,
2025-10-17T16:37:06.049207+00:00,10.902,11.943,,5.961,-3.932,,,,
2025-10-17T16:37:06.656959+00:00,10.901,11.325,,8.743,-4.676,,,,
2025-10-17T16:37:07.260149+00:00,10.900,10.241,,9.964,-4.991,,,,
2025-10-17T16:37:07.867457+00:00,10.900,9.065,,9.426,-4.853,,,,
2025-10-17T16:37:08.877341+00:00,10.902,8.006,,4.997,-3.664,,,,
2025-10-17T16:37:09.488911+00:00,10.904,8.282,,0.950,-2.470,,,,
2025-10-17T16:37:10.096862+00:00,10.907,9.174,,-3.244,-1.056,,,,
2025-10-17T16:37:10.707312+00:00,10.911,10.368,,-6.873,0.461,,,,
2025-10-17T16:37:11.310635+00:00,10.915,11.418,,-9.246,1.920,,,,
2025-10-17T16:37:11.915880+00:00,10.920,11.969,,-9.995,3.208,,,,
2025-10-17T16:37:12.521101+00:00,10.926,11.820,,-8.976,4.205,,,,
2025-10-17T16:37:13.131217+00:00,10.932,11.016,,-6.343,4.824,,,,
2025-10-17T16:37:14.143269+00:00,10.944,9.078,,0.213,4.857,,,,
2025-10-17T16:37:14.750247+00:00,10.952,8.230,,4.315,4.281,,,,
2025-10-17T16:37:15.355421+00:00,10.960,8.015,,7.642,3.316,,,,
2025-10-17T16:37:15.965852+00:00,10.969,8.511,,9.628,2.038,,,,
2025-10-17T16:37:16.571872+00:00,10.979,9.537,,9.887,0.583,,,,
2025-10-17T16:37:17.182126+00:00,10.989,10.735,,8.377,-0.936,,,,
2025-10-17T16:37:17.785181+00:00,10.999,11.660,,5.405,-2.352,,,,
2025-10-17T16:37:18.398141+00:00,11.010,12.000,,1.414,-3.574,,,,
2025-10-17T16:37:19.407515+00:00,11.028,11.028,,-5.351,-4.819,,,,
2025-10-17T16:37:20.013716+00:00,11.039,9.867,,-8.355,-4.997,,,,
2025-10-17T16:37:20.620049+00:00,11.051,8.754,,-9.876,-4.720,,,,
2025-10-17T16:37:21.237151+00:00,11.063,8.078,,-9.625,-3.996,,,,
2025-10-17T16:37:21.845212+00:00,11.075,8.106,,-7.647,-2.913,,,,
2025-10-17T16:37:22.450710+00:00,11.087,8.809,,-4.320,-1.568,,,,
2025-10-17T16:37:23.055967+00:00,11.099,9.934,,-0.230,-0.082,,,,
2025-10-17T16:37:23.662940+00:00,11.111,11.086,,3.911,1.416,,,,
2025-10-17T16:37:24.674489+00:00,11.132,12.000,,8.957,3.562,,,,
2025-10-17T16:37:25.285160+00:00,11.144,11.621,,9.994,4.452,,,,
2025-10-17T16:37:25.888445+00:00,11.155,10.671,,9.253,4.927,,,,
2025-10-17T16:37:26.500637+00:00,11.167,9.466,,6.841,4.954,,,,
2025-10-17T16:37:27.106072+00:00,11.178,8.464,,3.236,4.528,,,,
2025-10-17T16:37:27.711346+00:00,11.189,8.008,,-0.940,3.691,,,,
2025-10-17T16:37:28.314272+00:00,11.200,8.257,,-4.936,2.523,,,,
2025-10-17T16:37:28.923736+00:00,11.210,9.133,,-8.092,1.111,,,,
2025-10-17T16:37:29.935294+00:00,11.226,11.068,,-9.968,-1.390,,,,
2025-10-17T16:37:30.547338+00:00,11.236,11.846,,-8.734,-2.772,,,,
2025-10-17T16:37:31.152421+00:00,11.244,11.956,,-5.961,-3.886,,,,
2025-10-17T16:37:31.765971+00:00,11.253,11.360,,-2.077,-4.655,,,,
2025-10-17T16:37:32.369175+00:00,11.260,10.288,,2.114,-4.987,,,,
2025-10-17T16:37:32.977020+00:00,11.267,9.106,,5.960,-4.866,,,,
2025-10-17T16:37:33.583894+00:00,11.273,8.245,,8.740,-4.301,,,,
2025-10-17T16:37:34.194701+00:00,11.279,8.012,,9.968,-3.335,,,,
2025-10-17T16:37:35.204777+00:00,11.287,9.129,,8.097,-1.117,,,,
2025-10-17T16:37:35.812050+00:00,11.291,10.312,,4.956,0.392,,,,
2025-10-17T16:37:36.415241+00:00,11.294,11.378,,0.962,1.855,,,,
2025-10-17T16:37:37.025921+00:00,11.297,11.960,,-3.252,3.165,,,,
2025-10-17T16:37:37.633830+00:00,11.299,11.836,,-6.865,4.178,,,,
2025-10-17T16:37:38.244406+00:00,11.300,11.049,,-9.262,4.810,,,,
2025-10-17T16:37:38.847700+00:00,11.300,9.898,,-9.994,4.998,,,,
2025-10-17T16:37:39.456037+00:00,11.300,8.775,,-8.954,4.731,,,,
2025-10-17T16:37:40.463169+00:00,11.297,8.009,,-3.934,3.363,,,,
2025-10-17T16:37:41.075171+00:00,11.295,8.480,,0.241,2.092,,,,
2025-10-17T16:37:41.683244+00:00,11.292,9.495,,4.347,0.636,,,,
2025-10-17T16:37:42.293675+00:00,11.288,10.696,,7.688,-0.884,,,,
2025-10-17T16:37:42.901164+00:00,11.283,11.642,,9.642,-2.315,,,,
2025-10-17T16:37:43.510514+00:00,11.278,12.000,,9.875,-3.538,,,,
2025-10-17T16:37:44.113689+00:00,11.272,11.646,,8.363,-4.428,,,,
2025-10-17T16:37:44.722009+00:00,11.266,10.701,,5.352,-4.920,,,,
2025-10-17T16:37:45.731813+00:00,11.254,8.787,,-1.416,-4.737,,,,
2025-10-17T16:37:46.343580+00:00,11.246,8.094,,-5.399,-4.035,,,,
2025-10-17T16:37:46.952898+00:00,11.237,8.091,,-8.398,-2.963,,,,
2025-10-17T16:37:47.561803+00:00,11.228,8.774,,-9.891,-1.620,,,,
2025-10-17T16:37:48.165131+00:00,11.218,9.887,,-9.625,-0.141,,,,
2025-10-17T16:37:48.770260+00:00,11.209,11.043,,-7.660,1.355,,,,
2025-10-17T16:37:49.376142+00:00,11.198,11.829,,-4.336,2.729,,,,
2025-10-17T16:37:49.990798+00:00,11.187,11.961,,-0.182,3.868,,,,
2025-10-17T16:37:51.003403+00:00,11.169,10.704,,6.370,4.919,,,,
2025-10-17T16:37:51.609536+00:00,11.157,9.512,,8.979,4.962,,,,
2025-10-17T16:37:52.215109+00:00,11.145,8.495,,9.995,4.553,,,,
2025-10-17T16:37:52.821501+00:00,11.134,8.013,,9.240,3.729,,,,
2025-10-17T16:37:53.427400+00:00,11.122,8.239,,6.847,2.565,,,,
2025-10-17T16:37:54.038105+00:00,11.109,9.100,,3.209,1.156,,,,
2025-10-17T16:37:54.641098+00:00,11.097,10.272,,-0.953,-0.341,,,,
2025-10-17T16:37:55.251607+00:00,11.085,11.359,,-4.993,-1.824,,,,
2025-10-17T16:37:56.260856+00:00,11.065,11.966,,-9.422,-3.847,,,,
2025-10-17T16:37:56.867833+00:00,11.053,11.405,,-9.965,-4.626,,,,
2025-10-17T16:37:57.474596+00:00,11.041,10.342,,-8.737,-4.982,,,,
2025-10-17T16:37:58.086724+00:00,11.030,9.147,,-5.926,-4.879,,,,
2025-10-17T16:37:58.694096+00:00,11.019,8.267,,-2.075,-4.329,,,,
2025-10-17T16:37:59.299030+00:00,11.008,8.007,,2.127,-3.388,,,,
2025-10-17T16:37:59.903870+00:00,10.997,8.453,,5.954,-2.139,,,,
2025-10-17T16:38:00.514877+00:00,10.987,9.461,,8.750,-0.681,,,,
2025-10-17T16:38:01.526125+00:00,10.971,11.346,,9.796,1.804,,,,
2025-10-17T16:38:02.137793+00:00,10.962,11.951,,8.076,3.124,,,,
2025-10-17T16:38:02.741259+00:00,10.953,11.855,,4.948,4.143,,,,
2025-10-17T16:38:03.361035+00:00,10.945,11.077,,0.837,4.799,,,,
2025-10-17T16:38:03.966264+00:00,10.938,9.927,,-3.334,4.999,,,,
2025-10-17T16:38:04.572949+00:00,10.931,8.800,,-6.922,4.744,,,,
2025-10-17T16:38:05.176007+00:00,10.925,8.104,,-9.271,4.060,,,,
2025-10-17T16:38:05.786184+00:00,10.919,8.081,,-9.991,2.996,,,,
2025-10-17T16:38:06.797319+00:00,10.912,9.459,,-7.311,0.682,,,,
2025-10-17T16:38:07.409547+00:00,10.908,10.664,,-3.815,-0.842,,,,
2025-10-17T16:38:08.014671+00:00,10.905,11.619,,0.321,-2.272,,,,
2025-10-17T16:38:08.626613+00:00,10.903,12.000,,4.444,-3.508,,,,
2025-10-17T16:38:09.231643+00:00,10.901,11.662,,7.733,-4.410,,,,
2025-10-17T16:38:09.839798+00:00,10.900,10.729,,9.661,-4.913,,,,
2025-10-17T16:38:10.447017+00:00,10.900,9.536,,9.866,-4.966,,,,
2025-10-17T16:38:11.057729+00:00,10.901,8.504,,8.301,-4.560,,,,
2025-10-17T16:38:12.067540+00:00,10.903,8.080,,2.691,-3.000,,,,
2025-10-17T16:38:12.674072+00:00,10.906,8.742,,-1.516,-1.668,,,,
2025-10-17T16:38:13.277297+00:00,10.909,9.846,,-5.433,-0.193,,,,
2025-10-17T16:38:13.890113+00:00,10.913,11.021,,-8.433,1.323,,,,
2025-10-17T16:38:14.497441+00:00,10.918,11.820,,-9.899,2.705,,,,
2025-10-17T16:38:15.107220+00:00,10.923,11.967,,-9.598,3.842,,,,
2025-10-17T16:38:15.710313+00:00,10.929,11.415,,-7.605,4.619,,,,
2025-10-17T16:38:16.318504+00:00,10.936,10.353,,-4.245,4.980,,,,
2025-10-17T16:38:17.326372+00:00,10.949,8.524,,2.640,4.575,,,,
2025-10-17T16:38:17.938377+00:00,10.957,8.016,,6.408,3.755,,,,
2025-10-17T16:38:18.546352+00:00,10.966,8.226,,9.006,2.595,,,,
2025-10-17T16:38:19.162503+00:00,10.975,9.085,,9.998,1.176,,,,
2025-10-17T16:38:19.766250+00:00,10.985,10.257,,9.194,-0.322,,,,
2025-10-17T16:38:20.372821+00:00,10.995,11.342,,6.757,-1.797,,,,
2025-10-17T16:38:20.976303+00:00,11.005,11.946,,3.141,-3.103,,,,
2025-10-17T16:38:21.589823+00:00,11.016,11.856,,-1.098,-4.142,,,,
2025-10-17T16:38:22.603307+00:00,11.035,10.350,,-7.307,-4.981,,,,
2025-10-17T16:38:23.210028+00:00,11.046,9.165,,-9.471,-4.884,,,,
2025-10-17T16:38:23.818253+00:00,11.058,8.276,,-9.951,-4.340,,,,
2025-10-17T16:38:24.427706+00:00,11.070,8.006,,-8.650,-3.395,,,,
2025-10-17T16:38:25.031621+00:00,11.082,8.447,,-5.830,-2.150,,,,
2025-10-17T16:38:25.636896+00:00,11.094,9.440,,-1.974,-0.707,,,,
2025-10-17T16:38:26.244284+00:00,11.106,10.636,,2.246,0.805,,,,
2025-10-17T16:38:26.856786+00:00,11.119,11.610,,6.094,2.256,,,,
2025-10-17T16:38:27.868730+00:00,11.139,11.859,,9.786,4.136,,,,
2025-10-17T16:38:28.477781+00:00,11.151,11.104,,9.761,4.788,,,,
2025-10-17T16:38:29.080858+00:00,11.162,9.963,,8.013,5.000,,,,
2025-10-17T16:38:29.691309+00:00,11.174,8.823,,4.813,4.755,,,,
2025-10-17T16:38:30.299181+00:00,11.185,8.110,,0.766,4.074,,,,
2025-10-17T16:38:30.904800+00:00,11.196,8.073,,-3.403,3.024,,,,
2025-10-17T16:38:31.511783+00:00,11.206,8.724,,-6.977,1.696,,,,
2025-10-17T16:38:32.119842+00:00,11.216,9.832,,-9.312,0.210,,,,
2025-10-17T16:38:33.128694+00:00,11.232,11.597,,-9.450,-2.230,,,,
2025-10-17T16:38:33.738422+00:00,11.241,11.999,,-7.248,-3.471,,,,
2025-10-17T16:38:34.346308+00:00,11.249,11.682,,-3.758,-4.389,,,,
2025-10-17T16:38:34.959740+00:00,11.257,10.752,,0.441,-4.907,,,,
2025-10-17T16:38:35.563308+00:00,11.264,9.568,,4.499,-4.970,,,,
2025-10-17T16:38:36.170104+00:00,11.271,8.531,,7.779,-4.581,,,,
2025-10-17T16:38:36.773105+00:00,11.277,8.020,,9.671,-3.779,,,,
2025-10-17T16:38:37.383844+00:00,11.282,8.215,,9.855,-2.620,,,,
2025-10-17T16:38:38.399881+00:00,11.290,9.826,,6.360,-0.218,,,,
2025-10-17T16:38:39.006460+00:00,11.293,10.993,,2.617,1.284,,,,
2025-10-17T16:38:39.614457+00:00,11.296,11.807,,-1.602,2.672,,,,
2025-10-17T16:38:40.226498+00:00,11.298,11.972,,-5.558,3.821,,,,
2025-10-17T16:38:40.830201+00:00,11.299,11.433,,-8.478,4.607,,,,
2025-10-17T16:38:41.436158+00:00,11.300,10.383,,-9.909,4.977,,,,
2025-10-17T16:38:42.042259+00:00,11.300,9.196,,-9.584,4.893,,,,
2025-10-17T16:38:42.652974+00:00,11.299,8.291,,-7.538,4.358,,,,
2025-10-17T16:38:43.666282+00:00,11.296,8.214,,-1.440,2.622,,,,
2025-10-17T16:38:44.275447+00:00,11.293,9.050,,2.782,1.224,,,,
2025-10-17T16:38:44.878710+00:00,11.290,10.216,,6.474,-0.271,,,,
2025-10-17T16:38:45.494114+00:00,11.285,11.325,,9.065,-1.770,,,,
2025-10-17T16:38:46.101568+00:00,11.280,11.943,,9.999,-3.088,,,,
2025-10-17T16:38:46.707758+00:00,11.275,11.867,,9.156,-4.121,,,,
2025-10-17T16:38:47.316862+00:00,11.269,11.121,,6.674,-4.780,,,,
2025-10-17T16:38:47.925071+00:00,11.262,9.974,,3.002,-5.000,,,,
2025-10-17T16:38:48.932415+00:00,11.249,8.295,,-3.896,-4.363,,,,
2025-10-17T16:38:49.542448+00:00,11.241,8.004,,-7.361,-3.428,,,,
2025-10-17T16:38:50.150316+00:00,11.232,8.429,,-9.499,-2.182,,,,
2025-10-17T16:38:50.757460+00:00,11.222,9.417,,-9.943,-0.737,,,,
2025-10-17T16:38:51.360992+00:00,11.213,10.605,,-8.631,0.766,,,,
2025-10-17T16:38:51.970634+00:00,11.202,11.588,,-5.766,2.213,,,,
2025-10-17T16:38:52.575906+00:00,11.192,11.998,,-1.898,3.449,,,,
2025-10-17T16:38:53.183095+00:00,11.181,11.696,,2.320,4.374,,,,
2025-10-17T16:38:54.194705+00:00,11.162,10.001,,8.089,5.000,,,,
2025-10-17T16:38:54.836154+00:00,11.149,8.804,,9.839,4.745,,,,
2025-10-17T16:38:55.444072+00:00,11.138,8.103,,9.699,4.056,,,,
2025-10-17T16:38:56.061007+00:00,11.125,8.086,,7.789,2.977,,,,
2025-10-17T16:38:56.666178+00:00,11.113,8.757,,4.523,1.645,,,,
2025-10-17T16:38:57.271739+00:00,11.101,9.870,,0.454,0.162,,,,
2025-10-17T16:38:57.875058+00:00,11.089,11.026,,-3.680,-1.330,,,,
2025-10-17T16:38:58.484013+00:00,11.077,11.823,,-7.196,-2.714,,,,
2025-10-17T16:38:59.498988+00:00,11.057,11.660,,-9.984,-4.413,,,,
2025-10-17T16:39:00.111846+00:00,11.045,10.716,,-9.317,-4.916,,,,
2025-10-17T16:39:00.717047+00:00,11.034,9.527,,-6.999,-4.964,,,,
2025-10-17T16:39:01.324348+00:00,11.022,8.503,,-3.431,-4.559,,,,
2025-10-17T16:39:01.927833+00:00,11.011,8.015,,0.722,-3.743,,,,
2025-10-17T16:39:02.536743+00:00,11.001,8.233,,4.781,-2.577,,,,
2025-10-17T16:39:03.144997+00:00,10.990,9.086,,7.982,-1.176,,,,
2025-10-17T16:39:03.758039+00:00,10.980,10.276,,9.765,0.345,,,,
2025-10-17T16:39:04.769812+00:00,10.965,11.826,,8.819,2.719,,,,
2025-10-17T16:39:05.376254+00:00,10.956,11.966,,6.095,3.848,,,,
2025-10-17T16:39:05.979446+00:00,10.948,11.409,,2.311,4.623,,,,
2025-10-17T16:39:06.589338+00:00,10.940,10.342,,-1.925,4.982,,,,
2025-10-17T16:39:07.196851+00:00,10.933,9.156,,-5.802,4.882,,,,
2025-10-17T16:39:07.805975+00:00,10.927,8.271,,-8.651,4.333,,,,
2025-10-17T16:39:08.410017+00:00,10.921,8.006,,-9.947,3.395,,,,
2025-10-17T16:39:09.019818+00:00,10.916,8.454,,-9.479,2.137,,,,
2025-10-17T16:39:10.029536+00:00,10.909,10.252,,-5.139,-0.316,,,,
2025-10-17T16:39:10.639051+00:00,10.906,11.343,,-1.128,-1.799,,,,
2025-10-17T16:39:11.248632+00:00,10.903,11.950,,3.085,-3.116,,,,
2025-10-17T16:39:11.861463+00:00,10.901,11.852,,6.762,-4.150,,,,
2025-10-17T16:39:12.465293+00:00,10.900,11.095,,9.189,-4.792,,,,
2025-10-17T16:39:13.072639+00:00,10.900,9.944,,9.998,-5.000,,,,
2025-10-17T16:39:13.675725+00:00,10.900,8.820,,9.040,-4.753,,,,
2025-10-17T16:39:14.288407+00:00,10.902,8.106,,6.443,-4.064,,,,
2025-10-17T16:39:15.306059+00:00,10.905,8.458,,-0.122,-2.130,,,,
2025-10-17T16:39:15.912786+00:00,10.908,9.460,,-4.232,-0.681,,,,
2025-10-17T16:39:16.520864+00:00,10.912,10.657,,-7.595,0.833,,,,
2025-10-17T16:39:17.130204+00:00,10.916,11.620,,-9.606,2.273,,,,
2025-10-17T16:39:17.734504+00:00,10.922,11.999,,-9.900,3.496,,,,
2025-10-17T16:39:18.339944+00:00,10.927,11.670,,-8.445,4.402,,,,
2025-10-17T16:39:18.945405+00:00,10.934,10.746,,-5.495,4.909,,,,
2025-10-17T16:39:19.556421+00:00,10.941,9.547,,-1.535,4.967,,,,
2025-10-17T16:39:20.569872+00:00,10.954,8.107,,5.272,4.066,,,,
2025-10-17T16:39:21.179152+00:00,10.963,8.078,,8.315,3.006,,,,
2025-10-17T16:39:21.782333+00:00,10.972,8.731,,9.861,1.684,,,,
2025-10-17T16:39:22.395521+00:00,10.981,9.852,,9.658,0.185,,,,
2025-10-17T16:39:23.002802+00:00,10.991,11.017,,7.728,-1.318,,,,
2025-10-17T16:39:23.610374+00:00,11.002,11.818,,4.421,-2.700,,,,
2025-10-17T16:39:24.217740+00:00,11.012,11.969,,0.328,-3.835,,,,
2025-10-17T16:39:24.826336+00:00,11.023,11.413,,-3.832,-4.620,,,,
2025-10-17T16:39:25.834738+00:00,11.042,9.556,,-8.908,-4.969,,,,
2025-10-17T16:39:26.445187+00:00,11.054,8.518,,-9.990,-4.571,,,,
2025-10-17T16:39:27.054697+00:00,11.066,8.016,,-9.278,-3.753,,,,
2025-10-17T16:39:27.669987+00:00,11.078,8.234,,-6.873,-2.576,,,,
2025-10-17T16:39:28.273560+00:00,11.090,9.078,,-3.290,-1.186,,,,
2025-10-17T16:39:28.881132+00:00,11.103,10.256,,0.899,0.321,,,,
2025-10-17T16:39:29.484235+00:00,11.115,11.336,,4.901,1.789,,,,
2025-10-17T16:39:30.094628+00:00,11.127,11.948,,8.072,3.109,,,,
2025-10-17T16:39:31.112028+00:00,11.147,11.410,,9.967,4.623,,,,
2025-10-17T16:39:31.719631+00:00,11.158,10.347,,8.746,4.981,,,,
2025-10-17T16:39:32.327712+00:00,11.170,9.160,,5.964,4.883,,,,
2025-10-17T16:39:32.938555+00:00,11.181,8.271,,2.098,4.334,,,,
2025-10-17T16:39:33.542154+00:00,11.192,8.006,,-2.096,3.396,,,,
2025-10-17T16:39:34.148221+00:00,11.203,8.449,,-5.935,2.147,,,,
2025-10-17T16:39:34.754012+00:00,11.213,9.444,,-8.721,0.702,,,,
2025-10-17T16:39:35.364627+00:00,11.223,10.646,,-9.965,-0.819,,,,
2025-10-17T16:39:36.379835+00:00,11.238,11.949,,-8.100,-3.113,,,,
2025-10-17T16:39:36.989717+00:00,11.247,11.855,,-4.944,-4.144,,,,
2025-10-17T16:39:37.592839+00:00,11.255,11.104,,-0.948,-4.788,,,,
2025-10-17T16:39:38.204079+00:00,11.262,9.947,,3.268,-5.000,,,,
2025-10-17T16:39:38.813006+00:00,11.269,8.813,,6.883,-4.750,,,,
2025-10-17T16:39:39.419272+00:00,11.275,8.107,,9.259,-4.067,,,,
2025-10-17T16:39:40.026133+00:00,11.281,8.077,,9.993,-3.012,,,,
2025-10-17T16:39:40.634721+00:00,11.286,8.736,,8.945,-1.677,,,,
2025-10-17T16:39:41.643761+00:00,11.292,10.638,,3.903,0.808,,,,
2025-10-17T16:39:42.254581+00:00,11.295,11.610,,-0.266,2.255,,,,
2025-10-17T16:39:42.862547+00:00,11.297,11.999,,-4.370,3.487,,,,
2025-10-17T16:39:43.477962+00:00,11.299,11.664,,-7.727,4.409,,,,
2025-10-17T16:39:44.082110+00:00,11.300,10.739,,-9.651,4.911,,,,
2025-10-17T16:39:44.689017+00:00,11.300,9.547,,-9.872,4.967,,,,
2025-10-17T16:39:45.291913+00:00,11.299,8.522,,-8.354,4.574,,,,
2025-10-17T16:39:45.904063+00:00,11.298,8.016,,-5.315,3.753,,,,
2025-10-17T16:39:46.917988+00:00,11.294,8.736,,1.489,1.677,,,,
2025-10-17T16:39:47.525132+00:00,11.291,9.846,,5.434,0.192,,,,
2025-10-17T16:39:48.135861+00:00,11.287,11.018,,8.425,-1.319,,,,
