ts_iso,batt_v,airspeed_ms,groundspeed_ms,roll_deg,pitch_deg,yaw_deg,lat,lon,alt_m
2025-10-14T07:18:54.526477+00:00,,,,,,,,,
2025-10-14T07:18:55.137084+00:00,,,,,,,,,
2025-10-14T07:18:55.739045+00:00,,,,,,,,,
2025-10-14T07:18:56.341577+00:00,,,,,,,,,
2025-10-14T07:20:19.692167+00:00,,,,,,,,,
2025-10-14T07:20:20.300149+00:00,,,,,,,,,
2025-10-14T07:20:20.502347+00:00,11.112,11.144,,4.135,1.499,,,,
2025-10-14T07:20:21.118057+00:00,11.124,11.881,,7.561,2.874,,,,
2025-10-14T07:20:21.740814+00:00,11.137,11.924,,9.617,3.989,,,,
2025-10-14T07:20:22.369475+00:00,11.149,11.235,,9.868,4.726,,,,
2025-10-14T07:20:22.974633+00:00,11.161,10.120,,8.331,4.998,,,,
2025-10-14T07:20:23.580083+00:00,11.172,8.963,,5.319,4.815,,,,
2025-10-14T07:20:24.182770+00:00,11.183,8.176,,1.385,4.199,,,,
2025-10-14T07:20:24.791650+00:00,11.194,8.034,,-2.833,3.192,,,,
2025-10-14T07:20:25.400749+00:00,11.205,8.600,,-6.546,1.891,,,,
2025-10-14T07:20:26.005087+00:00,11.215,9.659,,-9.072,0.428,,,,
2025-10-14T07:20:26.607035+00:00,11.224,10.835,,-9.999,-1.068,,,,
2025-10-14T07:20:27.215941+00:00,11.234,11.724,,-9.157,-2.483,,,,
2025-10-14T07:20:27.824696+00:00,11.243,11.994,,-6.678,-3.670,,,,
2025-10-14T07:20:28.428533+00:00,11.251,11.554,,-3.036,-4.514,,,,
2025-10-14T07:20:29.030977+00:00,11.258,10.566,,1.130,-4.949,,,,
2025-10-14T07:20:29.636497+00:00,11.265,9.374,,5.116,-4.937,,,,
2025-10-14T07:20:30.247074+00:00,11.272,8.398,,8.217,-4.470,,,,
2025-10-14T07:20:30.851139+00:00,11.278,8.001,,9.832,-3.602,,,,
2025-10-14T07:20:31.456488+00:00,11.283,8.314,,9.713,-2.404,,,,
2025-10-14T07:20:32.061390+00:00,11.288,9.224,,7.877,-0.989,,,,
2025-10-14T07:20:32.666451+00:00,11.291,10.411,,4.649,0.516,,,,
2025-10-14T07:20:33.272711+00:00,11.295,11.453,,0.591,1.977,,,,
2025-10-14T07:20:33.879737+00:00,11.297,11.977,,-3.576,3.259,,,,
2025-10-14T07:20:34.483900+00:00,11.299,11.798,,-7.094,4.240,,,,
2025-10-14T07:20:35.088663+00:00,11.300,10.981,,-9.363,4.837,,,,
2025-10-14T07:20:35.697318+00:00,11.300,9.808,,-9.977,4.994,,,,
2025-10-14T07:20:36.306826+00:00,11.300,8.703,,-8.805,4.692,,,,
2025-10-14T07:20:36.912716+00:00,11.298,8.067,,-6.074,3.963,,,,
2025-10-14T07:20:37.516128+00:00,11.296,8.117,,-2.283,2.878,,,,
2025-10-14T07:20:38.132718+00:00,11.294,8.854,,1.999,1.502,,,,
2025-10-14T07:20:38.740665+00:00,11.290,9.996,,5.866,0.005,,,,
2025-10-14T07:20:39.343806+00:00,11.286,11.131,,8.669,-1.480,,,,
2025-10-14T07:20:39.946518+00:00,11.281,11.867,,9.950,-2.831,,,,
2025-10-14T07:20:40.557681+00:00,11.276,11.941,,9.467,-3.940,,,,
2025-10-14T07:20:41.168528+00:00,11.270,11.313,,7.279,-4.683,,,,
2025-10-14T07:20:41.773406+00:00,11.263,10.222,,3.819,-4.992,,,,
2025-10-14T07:20:42.376410+00:00,11.256,9.055,,-0.302,-4.849,,,,
2025-10-14T07:20:42.983912+00:00,11.248,8.218,,-4.399,-4.263,,,,
2025-10-14T07:20:43.598692+00:00,11.239,8.021,,-7.744,-3.273,,,,
2025-10-14T07:20:44.203965+00:00,11.230,8.535,,-9.661,-1.998,,,,
2025-10-14T07:20:44.811217+00:00,11.221,9.574,,-9.866,-0.536,,,,
2025-10-14T07:20:45.417363+00:00,11.211,10.763,,-8.320,0.972,,,,
2025-10-14T07:20:46.023697+00:00,11.201,11.680,,-5.297,2.392,,,,
2025-10-14T07:20:46.632124+00:00,11.190,11.999,,-1.320,3.597,,,,
2025-10-14T07:20:47.241774+00:00,11.179,11.598,,2.901,4.474,,,,
2025-10-14T07:20:47.847656+00:00,11.168,10.629,,6.583,4.936,,,,
2025-10-14T07:20:48.454611+00:00,11.156,9.434,,9.100,4.949,,,,
2025-10-14T07:20:49.063005+00:00,11.145,8.439,,10.000,4.507,,,,
2025-10-14T07:20:49.672354+00:00,11.133,8.004,,9.110,3.650,,,,
2025-10-14T07:20:50.278709+00:00,11.121,8.285,,6.604,2.464,,,,
2025-10-14T07:20:50.880925+00:00,11.109,9.169,,2.953,1.063,,,,
2025-10-14T07:20:51.498695+00:00,11.096,10.377,,-1.323,-0.473,,,,
2025-10-14T07:20:52.106778+00:00,11.084,11.431,,-5.297,-1.941,,,,
2025-10-14T07:20:52.709876+00:00,11.072,11.971,,-8.308,-3.222,,,,
2025-10-14T07:20:53.313352+00:00,11.060,11.815,,-9.859,-4.213,,,,
2025-10-14T07:20:53.923986+00:00,11.048,11.006,,-9.665,-4.828,,,,
2025-10-14T07:20:54.535551+00:00,11.037,9.831,,-7.727,-4.996,,,,
2025-10-14T07:20:55.140935+00:00,11.025,8.727,,-4.434,-4.705,,,,
2025-10-14T07:20:55.743746+00:00,11.014,8.077,,-0.374,-3.991,,,,
2025-10-14T07:20:56.351761+00:00,11.003,8.108,,3.785,-2.906,,,,
2025-10-14T07:20:56.966378+00:00,10.993,8.828,,7.301,-1.540,,,,
2025-10-14T07:20:57.571548+00:00,10.983,9.958,,9.464,-0.052,,,,
2025-10-14T07:20:58.179684+00:00,10.973,11.108,,9.953,1.447,,,,
2025-10-14T07:20:58.785694+00:00,10.964,11.859,,8.672,2.809,,,,
2025-10-14T07:20:59.392563+00:00,10.955,11.948,,5.850,3.917,,,,
2025-10-14T07:21:00.001084+00:00,10.947,11.338,,1.976,4.668,,,,
2025-10-14T07:21:00.609977+00:00,10.940,10.247,,-2.254,4.990,,,,
2025-10-14T07:21:01.216088+00:00,10.933,9.073,,-6.065,4.855,,,,
2025-10-14T07:21:01.823028+00:00,10.926,8.228,,-8.803,4.277,,,,
2025-10-14T07:21:02.429868+00:00,10.921,8.016,,-9.976,3.308,,,,
2025-10-14T07:21:03.037666+00:00,10.916,8.514,,-9.373,2.034,,,,
2025-10-14T07:21:03.642689+00:00,10.911,9.538,,-7.113,0.581,,,,
2025-10-14T07:21:04.245531+00:00,10.908,10.723,,-3.610,-0.920,,,,
2025-10-14T07:21:04.857916+00:00,10.905,11.664,,0.593,-2.358,,,,
2025-10-14T07:21:05.463794+00:00,10.902,12.000,,4.648,-3.566,,,,
2025-10-14T07:21:06.067015+00:00,10.901,11.627,,7.868,-4.446,,,,
2025-10-14T07:21:06.670598+00:00,10.900,10.679,,9.707,-4.925,,,,
2025-10-14T07:21:07.282415+00:00,10.900,9.476,,9.828,-4.956,,,,
2025-10-14T07:21:07.894879+00:00,10.901,8.461,,8.171,-4.526,,,,
2025-10-14T07:21:08.500579+00:00,10.902,8.008,,5.076,-3.687,,,,
2025-10-14T07:21:09.104158+00:00,10.904,8.261,,1.097,-2.516,,,,
2025-10-14T07:21:09.717061+00:00,10.907,9.145,,-3.137,-1.095,,,,
2025-10-14T07:21:10.328487+00:00,10.911,10.338,,-6.795,0.424,,,,
2025-10-14T07:21:10.934130+00:00,10.915,11.400,,-9.212,1.890,,,,
2025-10-14T07:21:11.543052+00:00,10.920,11.965,,-9.996,3.191,,,,
2025-10-14T07:21:12.149421+00:00,10.926,11.826,,-9.000,4.195,,,,
2025-10-14T07:21:12.762532+00:00,10.932,11.025,,-6.370,4.820,,,,
2025-10-14T07:21:13.367792+00:00,10.939,9.865,,-2.638,4.997,,,,
2025-10-14T07:21:13.975611+00:00,10.946,8.750,,1.578,4.718,,,,
2025-10-14T07:21:14.581886+00:00,10.955,8.083,,5.504,4.008,,,,
2025-10-14T07:21:15.188047+00:00,10.963,8.100,,8.454,2.933,,,,
2025-10-14T07:21:15.796553+00:00,10.972,8.797,,9.905,1.586,,,,
2025-10-14T07:21:16.406174+00:00,10.982,9.928,,9.585,0.089,,,,
2025-10-14T07:21:17.011998+00:00,10.992,11.079,,7.563,-1.406,,,,
2025-10-14T07:21:17.618722+00:00,11.002,11.847,,4.195,-2.775,,,,
2025-10-14T07:21:18.230918+00:00,11.013,11.953,,0.044,-3.899,,,,
2025-10-14T07:21:18.839026+00:00,11.024,11.355,,-4.090,-4.658,,,,
2025-10-14T07:21:19.442518+00:00,11.036,10.281,,-7.471,-4.988,,,,
2025-10-14T07:21:20.045223+00:00,11.047,9.109,,-9.538,-4.867,,,,
2025-10-14T07:21:20.661789+00:00,11.059,8.238,,-9.920,-4.291,,,,
2025-10-14T07:21:21.270421+00:00,11.071,8.013,,-8.512,-3.325,,,,
2025-10-14T07:21:21.873333+00:00,11.083,8.495,,-5.616,-2.066,,,,
2025-10-14T07:21:22.476309+00:00,11.095,9.507,,-1.733,-0.620,,,,
2025-10-14T07:21:23.087407+00:00,11.107,10.709,,2.509,0.901,,,,
2025-10-14T07:21:23.819985+00:00,11.122,11.778,,6.935,2.602,,,,
2025-10-14T07:21:24.426106+00:00,11.134,11.983,,9.286,3.758,,,,
2025-10-14T07:21:25.040970+00:00,11.146,11.470,,9.987,4.580,,,,
2025-10-14T07:21:25.649632+00:00,11.158,10.431,,8.887,4.971,,,,
2025-10-14T07:21:26.257001+00:00,11.169,9.239,,6.204,4.905,,,,
2025-10-14T07:21:26.257001+00:00,11.169,9.239,,6.204,4.905,,,,
2025-10-14T07:21:33.957058+00:00,11.280,8.056,,10.000,-3.094,,,,
2025-10-14T07:21:34.570755+00:00,11.285,8.680,,9.056,-1.763,,,,
2025-10-14T07:21:35.181815+00:00,11.290,9.781,,6.481,-0.274,,,,
2025-10-14T07:21:35.787041+00:00,11.293,10.951,,2.777,1.226,,,,
2025-10-14T07:21:36.390095+00:00,11.296,11.781,,-1.402,2.610,,,,
2025-10-14T07:21:37.020583+00:00,11.298,11.975,,-5.497,3.804,,,,
2025-10-14T07:21:37.629278+00:00,11.299,11.440,,-8.458,4.602,,,,
2025-10-14T07:21:38.234061+00:00,11.300,10.395,,-9.903,4.975,,,,
2025-10-14T07:21:38.842935+00:00,11.300,9.203,,-9.591,4.895,,,,
2025-10-14T07:21:39.448462+00:00,11.299,8.301,,-7.579,4.369,,,,
2025-10-14T07:21:40.062920+00:00,11.297,8.003,,-4.168,3.430,,,,
2025-10-14T07:21:40.671396+00:00,11.295,8.429,,-0.040,2.182,,,,
2025-10-14T07:21:41.283762+00:00,11.292,9.426,,4.120,0.725,,,,
2025-10-14T07:21:41.888906+00:00,11.288,10.618,,7.501,-0.782,,,,
2025-10-14T07:21:42.494390+00:00,11.284,11.591,,9.557,-2.219,,,,
2025-10-14T07:21:43.103256+00:00,11.279,11.998,,9.919,-3.460,,,,
2025-10-14T07:21:43.710725+00:00,11.273,11.689,,8.511,-4.381,,,,
2025-10-14T07:21:44.315706+00:00,11.266,10.780,,5.601,-4.900,,,,
2025-10-14T07:21:44.943173+00:00,11.259,9.550,,1.547,-4.968,,,,
2025-10-14T07:21:45.569995+00:00,11.251,8.493,,-2.797,-4.551,,,,
2025-10-14T07:21:46.177213+00:00,11.243,8.012,,-6.507,-3.724,,,,
2025-10-14T07:21:46.779971+00:00,11.234,8.238,,-9.046,-2.566,,,,
2025-10-14T07:21:47.383323+00:00,11.225,9.086,,-9.998,-1.175,,,,
2025-10-14T07:21:48.018274+00:00,11.215,10.319,,-9.105,0.400,,,,
2025-10-14T07:21:48.626343+00:00,11.205,11.390,,-6.584,1.874,,,,
2025-10-14T07:21:49.229716+00:00,11.194,11.961,,-2.920,3.167,,,,
2025-10-14T07:21:49.833121+00:00,11.184,11.839,,1.257,4.174,,,,
2025-10-14T07:21:50.446093+00:00,11.172,11.051,,5.270,4.810,,,,
2025-10-14T07:21:51.056614+00:00,11.161,9.886,,8.319,4.998,,,,
2025-10-14T07:21:51.662126+00:00,11.149,8.770,,9.865,4.728,,,,
2025-10-14T07:21:52.270743+00:00,11.137,8.089,,9.660,4.023,,,,
2025-10-14T07:21:52.887466+00:00,11.125,8.100,,7.692,2.933,,,,
2025-10-14T07:21:53.499504+00:00,11.113,8.803,,4.341,1.577,,,,
2025-10-14T07:21:54.106261+00:00,11.101,9.930,,0.244,0.087,,,,
2025-10-14T07:21:54.722262+00:00,11.088,11.098,,-3.957,-1.432,,,,
2025-10-14T07:21:55.328811+00:00,11.076,11.855,,-7.389,-2.798,,,,
2025-10-14T07:21:55.946351+00:00,11.064,11.946,,-9.529,-3.922,,,,
2025-10-14T07:21:56.551573+00:00,11.052,11.335,,-9.932,-4.670,,,,
2025-10-14T07:21:57.161706+00:00,11.041,10.241,,-8.558,-4.991,,,,
2025-10-14T07:21:57.768781+00:00,11.029,9.066,,-5.665,-4.853,,,,
2025-10-14T07:21:58.376800+00:00,11.018,8.223,,-1.757,-4.270,,,,
2025-10-14T07:21:58.985998+00:00,11.007,8.018,,2.473,-3.294,,,,
2025-10-14T07:21:59.597174+00:00,10.996,8.528,,6.270,-2.009,,,,
2025-10-14T07:22:00.206912+00:00,10.986,9.569,,8.932,-0.542,,,,
2025-10-14T07:22:00.810905+00:00,10.976,10.754,,9.991,0.961,,,,
2025-10-14T07:22:01.425521+00:00,10.967,11.684,,9.261,2.400,,,,
2025-10-14T07:22:02.036380+00:00,10.958,11.998,,6.864,3.608,,,,
2025-10-14T07:22:02.647620+00:00,10.950,11.589,,3.227,4.482,,,,
2025-10-14T07:22:03.251209+00:00,10.942,10.619,,-0.938,4.938,,,,
2025-10-14T07:22:03.864684+00:00,10.935,9.411,,-4.998,4.944,,,,
2025-10-14T07:22:04.479156+00:00,10.928,8.417,,-8.154,4.488,,,,
2025-10-14T07:22:05.085111+00:00,10.922,8.003,,-9.814,3.625,,,,
2025-10-14T07:22:05.689247+00:00,10.917,8.298,,-9.737,2.437,,,,
2025-10-14T07:22:06.309695+00:00,10.912,9.225,,-7.876,0.988,,,,
2025-10-14T07:22:06.923882+00:00,10.908,10.430,,-4.589,-0.540,,,,
2025-10-14T07:22:07.528553+00:00,10.905,11.464,,-0.535,-1.996,,,,
2025-10-14T07:22:08.134506+00:00,10.903,11.979,,3.622,-3.273,,,,
2025-10-14T07:22:08.743217+00:00,10.901,11.788,,7.151,-4.255,,,,
2025-10-14T07:22:09.352888+00:00,10.900,10.952,,9.403,-4.847,,,,
2025-10-14T07:22:09.963012+00:00,10.900,9.773,,9.968,-4.992,,,,
2025-10-14T07:22:10.569489+00:00,10.901,8.681,,8.755,-4.679,,,,
2025-10-14T07:22:11.177247+00:00,10.902,8.059,,5.980,-3.937,,,,
2025-10-14T07:22:11.784291+00:00,10.904,8.131,,2.144,-2.836,,,,
2025-10-14T07:22:12.393874+00:00,10.906,8.876,,-2.090,-1.470,,,,
2025-10-14T07:22:13.008532+00:00,10.910,10.036,,-5.979,0.045,,,,
2025-10-14T07:22:13.619023+00:00,10.914,11.176,,-8.763,1.545,,,,
2025-10-14T07:22:14.222903+00:00,10.919,11.886,,-9.968,2.889,,,,
2025-10-14T07:22:14.830181+00:00,10.924,11.928,,-9.410,3.977,,,,
2025-10-14T07:22:15.457899+00:00,10.931,11.249,,-7.077,4.718,,,,
2025-10-14T07:22:16.061506+00:00,10.937,10.141,,-3.557,4.997,,,,
2025-10-14T07:22:16.671822+00:00,10.945,8.972,,0.635,4.819,,,,
2025-10-14T07:22:17.275807+00:00,10.953,8.180,,4.674,4.205,,,,
2025-10-14T07:22:17.889075+00:00,10.961,8.035,,7.930,3.192,,,,
2025-10-14T07:22:18.504967+00:00,10.970,8.609,,9.750,1.875,,,,
2025-10-14T07:22:19.110818+00:00,10.980,9.675,,9.801,0.407,,,,
2025-10-14T07:22:19.714637+00:00,10.990,10.853,,8.123,-1.093,,,,
2025-10-14T07:22:20.324278+00:00,11.000,11.735,,4.980,-2.507,,,,
2025-10-14T07:22:20.943046+00:00,11.011,11.990,,0.881,-3.705,,,,
2025-10-14T07:22:21.553697+00:00,11.022,11.518,,-3.328,-4.543,,,,
2025-10-14T07:22:22.159707+00:00,11.033,10.506,,-6.914,-4.959,,,,
2025-10-14T07:22:22.769955+00:00,11.045,9.306,,-9.286,-4.922,,,,
2025-10-14T07:22:23.382097+00:00,11.057,8.354,,-9.988,-4.427,,,,
2025-10-14T07:22:23.990865+00:00,11.069,8.000,,-8.895,-3.527,,,,
2025-10-14T07:22:24.601707+00:00,11.081,8.367,,-6.200,-2.298,,,,
2025-10-14T07:22:25.212093+00:00,11.093,9.324,,-2.391,-0.858,,,,
2025-10-14T07:22:25.815381+00:00,11.105,10.511,,1.799,0.644,,,,
2025-10-14T07:22:26.430884+00:00,11.117,11.534,,5.743,2.116,,,,
2025-10-14T07:22:27.041936+00:00,11.130,11.993,,8.621,3.381,,,,
2025-10-14T07:22:27.648597+00:00,11.142,11.735,,9.943,4.327,,,,
2025-10-14T07:22:28.252697+00:00,11.153,10.863,,9.504,4.876,,,,
2025-10-14T07:22:28.861416+00:00,11.165,9.676,,7.369,4.983,,,,
2025-10-14T07:22:29.475669+00:00,11.176,8.598,,3.881,4.627,,,,
2025-10-14T07:22:30.085085+00:00,11.187,8.034,,-0.281,3.846,,,,
2025-10-14T07:22:30.688343+00:00,11.198,8.173,,-4.353,2.723,,,,
2025-10-14T07:22:31.299887+00:00,11.209,8.971,,-7.697,1.334,,,,
2025-10-14T07:22:31.912901+00:00,11.219,10.145,,-9.655,-0.182,,,,
2025-10-14T07:22:32.518810+00:00,11.228,11.255,,-9.871,-1.664,,,,
2025-10-14T07:22:33.122792+00:00,11.237,11.918,,-8.344,-2.991,,,,
2025-10-14T07:22:33.730584+00:00,11.246,11.899,,-5.326,-4.053,,,,
2025-10-14T07:22:34.347213+00:00,11.254,11.186,,-1.297,-4.750,,,,
2025-10-14T07:22:34.955850+00:00,11.261,10.052,,2.917,-5.000,,,,
2025-10-14T07:22:35.559432+00:00,11.268,8.908,,6.583,-4.793,,,,
2025-10-14T07:22:36.167393+00:00,11.275,8.147,,9.103,-4.147,,,,
2025-10-14T07:22:36.779969+00:00,11.280,8.051,,10.000,-3.112,,,,
2025-10-14T07:22:37.391325+00:00,11.285,8.663,,9.089,-1.790,,,,
2025-10-14T07:22:37.997038+00:00,11.289,9.748,,6.569,-0.316,,,,
2025-10-14T07:22:38.606862+00:00,11.293,10.930,,2.859,1.197,,,,
2025-10-14T07:22:39.218538+00:00,11.296,11.778,,-1.379,2.603,,,,
2025-10-14T07:22:40.416795+00:00,11.299,11.500,,-8.289,4.557,,,,
2025-10-14T07:22:41.031157+00:00,11.300,10.463,,-9.866,4.966,,,,
2025-10-14T07:22:41.636567+00:00,11.300,9.274,,-9.664,4.914,,,,
2025-10-14T07:22:42.239042+00:00,11.299,8.346,,-7.764,4.419,,,,
2025-10-14T07:22:42.847334+00:00,11.298,8.000,,-4.467,3.515,,,,
2025-10-14T07:22:43.455800+00:00,11.295,8.372,,-0.372,2.288,,,,
2025-10-14T07:22:44.060205+00:00,11.292,9.321,,3.764,0.862,,,,
2025-10-14T07:22:44.662781+00:00,11.289,10.507,,7.227,-0.639,,,,
2025-10-14T07:22:45.267569+00:00,11.284,11.517,,9.428,-2.087,,,,
2025-10-14T07:22:45.878029+00:00,11.279,11.990,,9.962,-3.356,,,,
2025-10-14T07:22:46.485998+00:00,11.273,11.747,,8.712,-4.311,,,,
2025-10-14T07:22:47.088792+00:00,11.267,10.887,,5.937,-4.869,,,,
2025-10-14T07:22:47.700504+00:00,11.260,9.696,,2.060,-4.985,,,,
2025-10-14T07:22:48.306507+00:00,11.252,8.625,,-2.150,-4.645,,,,
2025-10-14T07:22:48.915310+00:00,11.244,8.041,,-5.995,-3.877,,,,
2025-10-14T07:22:49.520940+00:00,11.236,8.159,,-8.757,-2.758,,,,
2025-10-14T07:22:50.128614+00:00,11.226,8.936,,-9.969,-1.384,,,,
2025-10-14T07:22:50.738073+00:00,11.217,10.097,,-9.401,0.121,,,,
2025-10-14T07:22:51.347104+00:00,11.207,11.222,,-7.149,1.614,,,,
2025-10-14T07:22:51.951734+00:00,11.196,11.905,,-3.646,2.950,,,,
2025-10-14T07:22:52.559437+00:00,11.185,11.911,,0.521,4.023,,,,
2025-10-14T07:22:53.165680+00:00,11.174,11.235,,4.587,4.726,,,,
2025-10-14T07:22:53.777281+00:00,11.163,10.108,,7.862,4.998,,,,
2025-10-14T07:22:54.388776+00:00,11.151,8.942,,9.718,4.807,,,,
2025-10-14T07:22:54.994180+00:00,11.139,8.164,,9.828,4.178,,,,
2025-10-14T07:22:55.597724+00:00,11.127,8.038,,8.207,3.173,,,,
2025-10-14T07:22:56.205025+00:00,11.115,8.611,,5.120,1.873,,,,
2025-10-14T07:22:56.817689+00:00,11.103,9.691,,1.085,0.388,,,,
2025-10-14T07:22:57.425634+00:00,11.091,10.875,,-3.116,-1.122,,,,
2025-10-14T07:22:58.028752+00:00,11.079,11.741,,-6.736,-2.519,,,,
2025-10-14T07:22:58.635120+00:00,11.067,11.992,,-9.182,-3.693,,,,
2025-10-14T07:22:59.248587+00:00,11.055,11.523,,-9.998,-4.539,,,,
2025-10-14T07:22:59.856410+00:00,11.043,10.510,,-9.015,-4.958,,,,
2025-10-14T07:23:00.459486+00:00,11.032,9.324,,-6.450,-4.926,,,,
2025-10-14T07:23:01.067124+00:00,11.020,8.370,,-2.722,-4.443,,,,
2025-10-14T07:23:01.683776+00:00,11.009,8.000,,1.554,-3.538,,,,
2025-10-14T07:23:02.289374+00:00,10.999,8.354,,5.480,-2.324,,,,
2025-10-14T07:23:02.892409+00:00,10.988,9.289,,8.426,-0.904,,,,
2025-10-14T07:23:03.501828+00:00,10.979,10.487,,9.899,0.613,,,,
2025-10-14T07:23:04.111887+00:00,10.969,11.510,,9.597,2.075,,,,
2025-10-14T07:23:04.720448+00:00,10.960,11.989,,7.578,3.342,,,,
2025-10-14T07:23:05.325203+00:00,10.952,11.757,,4.228,4.298,,,,
2025-10-14T07:23:05.932884+00:00,10.944,10.897,,0.112,4.866,,,,
2025-10-14T07:23:06.542283+00:00,10.937,9.712,,-4.035,4.987,,,,
2025-10-14T07:23:07.152033+00:00,10.930,8.630,,-7.461,4.649,,,,
2025-10-14T07:23:07.761734+00:00,10.924,8.043,,-9.548,3.882,,,,
2025-10-14T07:23:08.367341+00:00,10.918,8.157,,-9.926,2.765,,,,
2025-10-14T07:23:08.970981+00:00,10.914,8.924,,-8.553,1.402,,,,
2025-10-14T07:23:09.588372+00:00,10.909,10.098,,-5.596,-0.123,,,,
2025-10-14T07:23:10.199097+00:00,10.906,11.226,,-1.657,-1.620,,,,
2025-10-14T07:23:10.805222+00:00,10.904,11.908,,2.550,-2.958,,,,
2025-10-14T07:23:11.408661+00:00,10.902,11.912,,6.290,-4.022,,,,
2025-10-14T07:23:12.015363+00:00,10.900,11.235,,8.934,-4.726,,,,
2025-10-14T07:23:12.628263+00:00,10.900,10.105,,9.993,-4.998,,,,
2025-10-14T07:23:13.237038+00:00,10.900,8.944,,9.252,-4.808,,,,
2025-10-14T07:23:13.840482+00:00,10.901,8.167,,6.883,-4.183,,,,
2025-10-14T07:23:14.451285+00:00,10.903,8.040,,3.255,-3.166,,,,
2025-10-14T07:23:15.062028+00:00,10.906,8.622,,-0.959,-1.856,,,,
2025-10-14T07:23:15.667608+00:00,10.909,9.691,,-4.968,-0.387,,,,
2025-10-14T07:23:16.270179+00:00,10.913,10.866,,-8.086,1.110,,,,
2025-10-14T07:23:16.877794+00:00,10.917,11.740,,-9.793,2.518,,,,
2025-10-14T07:23:17.492715+00:00,10.923,11.990,,-9.744,3.707,,,,
2025-10-14T07:23:18.097821+00:00,10.929,11.524,,-7.959,4.538,,,,
2025-10-14T07:23:18.701243+00:00,10.935,10.520,,-4.778,4.957,,,,
2025-10-14T07:23:19.310963+00:00,10.942,9.320,,-0.713,4.925,,,,
2025-10-14T07:23:19.920546+00:00,10.950,8.366,,3.479,4.439,,,,
2025-10-14T07:23:20.532468+00:00,10.959,8.000,,7.059,3.540,,,,
2025-10-14T07:23:21.141588+00:00,10.967,8.357,,9.357,2.318,,,,
2025-10-14T07:23:21.747460+00:00,10.977,9.299,,9.980,0.891,,,,
2025-10-14T07:23:22.354180+00:00,10.986,10.492,,8.832,-0.620,,,,
2025-10-14T07:23:22.962424+00:00,10.997,11.511,,6.107,-2.077,,,,
2025-10-14T07:23:23.574025+00:00,11.007,11.990,,2.268,-3.350,,,,
2025-10-14T07:23:24.179696+00:00,11.018,11.752,,-1.939,-4.304,,,,
2025-10-14T07:23:24.782773+00:00,11.029,10.896,,-5.789,-4.866,,,,
2025-10-14T07:23:25.394560+00:00,11.041,9.706,,-8.652,-4.986,,,,
2025-10-14T07:23:26.006621+00:00,11.053,8.623,,-9.953,-4.644,,,,
2025-10-14T07:23:26.612683+00:00,11.065,8.042,,-9.469,-3.879,,,,
2025-10-14T07:23:27.215874+00:00,11.077,8.156,,-7.319,-2.767,,,,
2025-10-14T07:23:27.829331+00:00,11.089,8.938,,-3.817,-1.381,,,,
2025-10-14T07:23:28.441073+00:00,11.101,10.104,,0.365,0.131,,,,
2025-10-14T07:23:29.046479+00:00,11.113,11.222,,4.443,1.615,,,,
2025-10-14T07:23:29.649120+00:00,11.125,11.904,,7.721,2.946,,,,
2025-10-14T07:23:30.260097+00:00,11.137,11.910,,9.662,4.025,,,,
2025-10-14T07:23:30.879055+00:00,11.149,11.213,,9.852,4.737,,,,
2025-10-14T07:23:31.484274+00:00,11.161,10.092,,8.276,4.999,,,,
2025-10-14T07:23:32.087512+00:00,11.172,8.943,,5.248,4.807,,,,
2025-10-14T07:23:32.697353+00:00,11.184,8.161,,1.253,4.173,,,,
2025-10-14T07:23:33.313717+00:00,11.195,8.045,,-3.011,3.141,,,,
2025-10-14T07:23:33.919034+00:00,11.205,8.632,,-6.665,1.838,,,,
2025-10-14T07:23:34.526134+00:00,11.215,9.709,,-9.146,0.364,,,,
2025-10-14T07:23:35.132264+00:00,11.225,10.888,,-10.000,-1.140,,,,
2025-10-14T07:23:35.739061+00:00,11.234,11.752,,-9.078,-2.543,,,,
2025-10-14T07:23:36.348889+00:00,11.243,11.989,,-6.527,-3.718,,,,
2025-10-14T07:23:36.958519+00:00,11.251,11.509,,-2.806,-4.550,,,,
2025-10-14T07:23:37.564189+00:00,11.259,10.494,,1.391,-4.961,,,,
2025-10-14T07:23:38.174669+00:00,11.266,9.293,,5.370,-4.919,,,,
2025-10-14T07:23:38.783255+00:00,11.272,8.351,,8.376,-4.424,,,,
2025-10-14T07:23:39.393784+00:00,11.278,8.000,,9.887,-3.519,,,,
2025-10-14T07:23:40.000072+00:00,11.283,8.367,,9.627,-2.298,,,,
2025-10-14T07:23:40.602629+00:00,11.288,9.309,,7.676,-0.877,,,,
2025-10-14T07:23:41.219637+00:00,11.292,10.523,,4.289,0.659,,,,
2025-10-14T07:23:41.827387+00:00,11.295,11.531,,0.178,2.112,,,,
2025-10-14T07:23:42.430441+00:00,11.297,11.991,,-3.934,3.363,,,,
2025-10-14T07:23:43.033770+00:00,11.299,11.748,,-7.357,4.310,,,,
2025-10-14T07:23:43.644788+00:00,11.300,10.874,,-9.504,4.873,,,,
2025-10-14T07:23:44.257416+00:00,11.300,9.680,,-9.937,4.984,,,,
2025-10-14T07:23:44.862905+00:00,11.299,8.613,,-8.596,4.638,,,,
2025-10-14T07:23:45.465318+00:00,11.298,8.041,,-5.752,3.874,,,,
2025-10-14T07:23:46.076509+00:00,11.296,8.165,,-1.840,2.744,,,,
2025-10-14T07:23:46.687864+00:00,11.293,8.954,,2.406,1.359,,,,
2025-10-14T07:23:47.292896+00:00,11.290,10.109,,6.182,-0.136,,,,
2025-10-14T07:23:47.903295+00:00,11.286,11.234,,8.884,-1.632,,,,
2025-10-14T07:23:48.508867+00:00,11.281,11.910,,9.986,-2.967,,,,
2025-10-14T07:23:49.115774+00:00,11.275,11.907,,9.317,-4.034,,,,
2025-10-14T07:23:49.724469+00:00,11.269,11.219,,6.983,-4.734,,,,
2025-10-14T07:23:50.336092+00:00,11.262,10.088,,3.381,-4.999,,,,
2025-10-14T07:23:50.941725+00:00,11.255,8.935,,-0.790,-4.804,,,,
2025-10-14T07:23:51.548591+00:00,11.247,8.160,,-4.828,-4.170,,,,
2025-10-14T07:23:52.156968+00:00,11.238,8.042,,-8.015,-3.153,,,,
2025-10-14T07:23:52.769294+00:00,11.229,8.633,,-9.775,-1.837,,,,
2025-10-14T07:23:53.375041+00:00,11.220,9.708,,-9.777,-0.366,,,,
2025-10-14T07:23:53.978119+00:00,11.210,10.882,,-8.058,1.131,,,,
2025-10-14T07:23:54.591627+00:00,11.200,11.754,,-4.861,2.549,,,,
2025-10-14T07:23:55.201344+00:00,11.189,11.988,,-0.807,3.723,,,,
2025-10-14T07:23:55.807335+00:00,11.178,11.510,,3.367,4.549,,,,
2025-10-14T07:23:56.410184+00:00,11.167,10.501,,6.928,4.960,,,,
2025-10-14T07:23:57.020992+00:00,11.155,9.300,,9.295,4.920,,,,
2025-10-14T07:23:57.633705+00:00,11.143,8.350,,9.987,4.423,,,,
2025-10-14T07:23:58.238952+00:00,11.131,8.000,,8.894,3.527,,,,
2025-10-14T07:23:58.841799+00:00,11.119,8.358,,6.242,2.315,,,,
2025-10-14T07:23:59.451495+00:00,11.107,9.308,,2.448,0.879,,,,
2025-10-14T07:24:00.065811+00:00,11.095,10.516,,-1.817,-0.651,,,,
2025-10-14T07:24:00.669215+00:00,11.083,11.521,,-5.689,-2.094,,,,
2025-10-14T07:24:01.274449+00:00,11.071,11.990,,-8.567,-3.352,,,,
2025-10-14T07:24:01.883292+00:00,11.059,11.748,,-9.933,-4.310,,,,
2025-10-14T07:24:02.493268+00:00,11.047,10.876,,-9.520,-4.872,,,,
2025-10-14T07:24:03.101376+00:00,11.035,9.691,,-7.406,-4.985,,,,
2025-10-14T07:24:03.711084+00:00,11.024,8.615,,-3.960,-4.639,,,,
2025-10-14T07:24:04.317515+00:00,11.013,8.040,,0.173,-3.870,,,,
2025-10-14T07:24:04.920536+00:00,11.002,8.161,,4.254,-2.756,,,,
2025-10-14T07:24:05.527559+00:00,10.992,8.937,,7.607,-1.383,,,,
2025-10-14T07:24:06.140201+00:00,10.982,10.104,,9.617,0.131,,,,
2025-10-14T07:24:06.747675+00:00,10.972,11.226,,9.891,1.620,,,,
2025-10-14T07:24:07.351390+00:00,10.963,11.906,,8.418,2.953,,,,
2025-10-14T07:24:07.957799+00:00,10.954,11.911,,5.447,4.023,,,,
2025-10-14T07:24:08.570578+00:00,10.946,11.225,,1.466,4.731,,,,
2025-10-14T07:24:09.178693+00:00,10.939,10.102,,-2.750,4.998,,,,
2025-10-14T07:24:09.781387+00:00,10.932,8.951,,-6.446,4.811,,,,
2025-10-14T07:24:10.388924+00:00,10.926,8.167,,-9.026,4.183,,,,
2025-10-14T07:24:11.005133+00:00,10.920,8.042,,-9.999,3.156,,,,
2025-10-14T07:24:11.610533+00:00,10.915,8.621,,-9.171,1.856,,,,
2025-10-14T07:24:12.214098+00:00,10.911,9.687,,-6.730,0.392,,,,
2025-10-14T07:24:12.821676+00:00,10.907,10.871,,-3.079,-1.117,,,,
2025-10-14T07:24:13.430847+00:00,10.904,11.744,,1.132,-2.527,,,,
2025-10-14T07:24:14.039913+00:00,10.902,11.990,,5.140,-3.704,,,,
2025-10-14T07:24:14.644780+00:00,10.901,11.526,,8.210,-4.537,,,,
2025-10-14T07:24:15.252553+00:00,10.900,10.515,,9.835,-4.958,,,,
2025-10-14T07:24:15.861961+00:00,10.900,9.316,,9.703,-4.924,,,,
2025-10-14T07:24:16.472086+00:00,10.901,8.362,,7.829,-4.436,,,,
2025-10-14T07:24:17.084195+00:00,10.902,8.000,,4.536,-3.534,,,,
2025-10-14T07:24:17.690913+00:00,10.905,8.358,,0.461,-2.316,,,,
2025-10-14T07:24:18.294098+00:00,10.908,9.295,,-3.674,-0.896,,,,
2025-10-14T07:24:18.908652+00:00,10.911,10.503,,-7.218,0.634,,,,
2025-10-14T07:24:19.519673+00:00,10.916,11.523,,-9.438,2.097,,,,
2025-10-14T07:24:20.125725+00:00,10.921,11.990,,-9.962,3.356,,,,
2025-10-14T07:24:20.729015+00:00,10.927,11.751,,-8.728,4.305,,,,
2025-10-14T07:24:21.335565+00:00,10.933,10.889,,-5.943,4.868,,,,
2025-10-14T07:24:21.948500+00:00,10.940,9.696,,-2.059,4.985,,,,
2025-10-14T07:24:22.555969+00:00,10.948,8.622,,2.162,4.643,,,,
2025-10-14T07:24:23.158590+00:00,10.956,8.043,,5.970,3.884,,,,
2025-10-14T07:24:23.773745+00:00,10.964,8.163,,8.774,2.748,,,,
2025-10-14T07:24:24.384831+00:00,10.974,8.950,,9.974,1.364,,,,
2025-10-14T07:24:24.990043+00:00,10.983,10.105,,9.391,-0.131,,,,
2025-10-14T07:24:25.592879+00:00,10.993,11.219,,7.159,-1.609,,,,
2025-10-14T07:24:26.200236+00:00,11.004,11.906,,3.642,-2.951,,,,
2025-10-14T07:24:26.814979+00:00,11.015,11.907,,-0.576,-4.034,,,,
2025-10-14T07:24:27.420148+00:00,11.026,11.225,,-4.629,-4.731,,,,
2025-10-14T07:24:28.022887+00:00,11.037,10.112,,-7.853,-4.998,,,,
2025-10-14T07:24:28.631932+00:00,11.049,8.950,,-9.710,-4.810,,,,
2025-10-14T07:24:29.241308+00:00,11.061,8.165,,-9.829,-4.179,,,,
2025-10-14T07:24:29.850355+00:00,11.073,8.040,,-8.188,-3.164,,,,
2025-10-14T07:24:30.459949+00:00,11.085,8.621,,-5.077,-1.856,,,,
2025-10-14T07:24:31.065490+00:00,11.097,9.691,,-1.084,-0.388,,,,
2025-10-14T07:24:31.672917+00:00,11.109,10.874,,3.113,1.121,,,,
2025-10-14T07:24:32.281677+00:00,11.121,11.746,,6.763,2.530,,,,
2025-10-14T07:24:32.892123+00:00,11.133,11.990,,9.207,3.709,,,,
2025-10-14T07:24:33.498310+00:00,11.145,11.521,,9.997,4.541,,,,
2025-10-14T07:24:34.101352+00:00,11.157,10.516,,9.023,4.958,,,,
2025-10-14T07:24:34.713082+00:00,11.168,9.313,,6.419,4.923,,,,
2025-10-14T07:24:35.322842+00:00,11.180,8.361,,2.668,4.434,,,,
2025-10-14T07:24:35.928309+00:00,11.191,8.000,,-1.531,3.544,,,,
2025-10-14T07:24:36.531926+00:00,11.201,8.348,,-5.449,2.335,,,,
2025-10-14T07:24:37.144066+00:00,11.212,9.296,,-8.440,0.895,,,,
2025-10-14T07:24:37.755404+00:00,11.222,10.498,,-9.905,-0.627,,,,
2025-10-14T07:24:38.360835+00:00,11.231,11.512,,-9.595,-2.077,,,,
2025-10-14T07:24:38.963690+00:00,11.240,11.988,,-7.599,-3.334,,,,
2025-10-14T07:24:39.574565+00:00,11.248,11.755,,-4.219,-4.300,,,,
2025-10-14T07:24:40.185444+00:00,11.256,10.888,,-0.079,-4.868,,,,
2025-10-14T07:24:40.790831+00:00,11.263,9.710,,4.040,-4.987,,,,
2025-10-14T07:24:41.394084+00:00,11.270,8.639,,7.434,-4.654,,,,
2025-10-14T07:24:42.001292+00:00,11.276,8.046,,9.531,-3.894,,,,
2025-10-14T07:24:42.615980+00:00,11.282,8.158,,9.925,-2.763,,,,
2025-10-14T07:24:43.221318+00:00,11.286,8.928,,8.544,-1.396,,,,
2025-10-14T07:24:43.830186+00:00,11.290,10.086,,5.631,0.108,,,,
2025-10-14T07:24:44.436097+00:00,11.294,11.209,,1.731,1.594,,,,
2025-10-14T07:24:45.043111+00:00,11.296,11.902,,-2.483,2.938,,,,
2025-10-14T07:24:45.651389+00:00,11.298,11.914,,-6.262,4.015,,,,
2025-10-14T07:24:46.260963+00:00,11.300,11.238,,-8.927,4.724,,,,
2025-10-14T07:24:46.866754+00:00,11.300,10.124,,-9.991,4.998,,,,
2025-10-14T07:24:47.473236+00:00,11.300,8.964,,-9.282,4.816,,,,
2025-10-14T07:24:48.082077+00:00,11.299,8.172,,-6.914,4.191,,,,
2025-10-14T07:24:48.692665+00:00,11.297,8.037,,-3.297,3.178,,,,
2025-10-14T07:24:49.298780+00:00,11.294,8.606,,0.882,1.881,,,,
2025-10-14T07:24:49.902116+00:00,11.291,9.665,,4.887,0.420,,,,
2025-10-14T07:24:50.517973+00:00,11.287,10.866,,8.086,-1.110,,,,
2025-10-14T07:24:51.126306+00:00,11.283,11.741,,9.794,-2.519,,,,
2025-10-14T07:24:51.729525+00:00,11.277,11.992,,9.761,-3.688,,,,
2025-10-14T07:24:52.332055+00:00,11.272,11.541,,8.016,-4.524,,,,
2025-10-14T07:24:52.945364+00:00,11.265,10.527,,4.800,-4.956,,,,
2025-10-14T07:24:53.556496+00:00,11.258,9.324,,0.728,-4.926,,,,
2025-10-14T07:24:54.161596+00:00,11.250,8.373,,-3.435,-4.447,,,,
2025-10-14T07:24:54.764496+00:00,11.242,8.000,,-6.981,-3.567,,,,
2025-10-14T07:24:55.375330+00:00,11.233,8.341,,-9.321,-2.349,,,,
2025-10-14T07:24:55.988860+00:00,11.223,9.287,,-9.983,-0.906,,,,
2025-10-14T07:24:56.593733+00:00,11.214,10.476,,-8.859,0.599,,,,
2025-10-14T07:24:57.201118+00:00,11.203,11.499,,-6.157,2.056,,,,
2025-10-14T07:24:57.807220+00:00,11.193,11.986,,-2.367,3.323,,,,
2025-10-14T07:24:58.419054+00:00,11.182,11.760,,1.882,4.294,,,,
2025-10-14T07:24:59.024346+00:00,11.171,10.907,,5.753,4.862,,,,
2025-10-14T07:24:59.631788+00:00,11.159,9.727,,8.615,4.988,,,,
2025-10-14T07:25:00.237410+00:00,11.148,8.648,,9.941,4.659,,,,
2025-10-14T07:25:00.844884+00:00,11.136,8.049,,9.503,3.904,,,,
2025-10-14T07:25:01.453100+00:00,11.124,8.148,,7.369,2.789,,,,
2025-10-14T07:25:02.062472+00:00,11.111,8.914,,3.912,1.416,,,,
2025-10-14T07:25:02.668502+00:00,11.099,10.064,,-0.223,-0.080,,,,
2025-10-14T07:25:03.274869+00:00,11.087,11.192,,-4.321,-1.569,,,,
2025-10-14T07:25:03.890734+00:00,11.075,11.901,,-7.694,-2.934,,,,
2025-10-14T07:25:04.498436+00:00,11.063,11.916,,-9.644,-4.011,,,,
2025-10-14T07:25:05.101539+00:00,11.051,11.252,,-9.881,-4.717,,,,
2025-10-14T07:25:05.704926+00:00,11.040,10.146,,-8.381,-4.997,,,,
2025-10-14T07:25:06.321064+00:00,11.028,8.967,,-5.333,-4.817,,,,
2025-10-14T07:25:06.931155+00:00,11.017,8.172,,-1.350,-4.192,,,,
2025-10-14T07:25:07.534370+00:00,11.006,8.034,,2.829,-3.193,,,,
2025-10-14T07:25:08.137298+00:00,10.995,8.590,,6.510,-1.907,,,,
2025-10-14T07:25:08.749776+00:00,10.985,9.662,,9.076,-0.425,,,,
2025-10-14T07:25:09.361132+00:00,10.975,10.854,,10.000,1.094,,,,
2025-10-14T07:25:09.965840+00:00,10.966,11.731,,9.139,2.497,,,,
2025-10-14T07:25:10.573318+00:00,10.957,11.993,,6.650,3.679,,,,
2025-10-14T07:25:11.182538+00:00,10.949,11.540,,2.965,4.525,,,,
2025-10-14T07:25:11.791318+00:00,10.941,10.534,,-1.248,4.954,,,,
2025-10-14T07:25:12.396659+00:00,10.934,9.342,,-5.217,4.930,,,,
2025-10-14T07:25:13.004188+00:00,10.928,8.382,,-8.272,4.455,,,,
2025-10-14T07:25:13.609971+00:00,10.922,8.000,,-9.851,3.575,,,,
2025-10-14T07:25:14.222072+00:00,10.917,8.338,,-9.675,2.355,,,,
2025-10-14T07:25:14.827310+00:00,10.912,9.266,,-7.779,0.934,,,,
2025-10-14T07:25:15.435101+00:00,10.908,10.460,,-4.492,-0.579,,,,
2025-10-14T07:25:16.041074+00:00,10.905,11.487,,-0.417,-2.034,,,,
2025-10-14T07:25:16.647605+00:00,10.903,11.984,,3.736,-3.306,,,,
2025-10-14T07:25:17.260738+00:00,10.901,11.768,,7.257,-4.284,,,,
2025-10-14T07:25:17.868047+00:00,10.900,10.917,,9.449,-4.859,,,,
2025-10-14T07:25:18.471429+00:00,10.900,9.747,,9.961,-4.990,,,,
2025-10-14T07:25:19.078067+00:00,10.901,8.661,,8.711,-4.668,,,,
2025-10-14T07:25:19.690703+00:00,10.902,8.050,,5.879,-3.910,,,,
2025-10-14T07:25:20.299260+00:00,10.904,8.146,,2.011,-2.796,,,,
2025-10-14T07:25:20.902068+00:00,10.907,8.897,,-2.177,-1.440,,,,
2025-10-14T07:25:21.504996+00:00,10.910,10.038,,-5.984,0.047,,,,
2025-10-14T07:25:22.116314+00:00,10.914,11.179,,-8.769,1.549,,,,
2025-10-14T07:25:22.728659+00:00,10.919,11.893,,-9.974,2.910,,,,
2025-10-14T07:25:23.333733+00:00,10.924,11.924,,-9.391,3.989,,,,
2025-10-14T07:25:23.941196+00:00,10.931,11.268,,-7.137,4.708,,,,
2025-10-14T07:25:24.547733+00:00,10.937,10.160,,-3.618,4.996,,,,
2025-10-14T07:25:25.159599+00:00,10.945,8.986,,0.581,4.824,,,,
2025-10-14T07:25:25.764568+00:00,10.953,8.185,,4.632,4.214,,,,
2025-10-14T07:25:26.371890+00:00,10.961,8.030,,7.875,3.216,,,,
2025-10-14T07:25:26.977893+00:00,10.970,8.577,,9.714,1.927,,,,
2025-10-14T07:25:27.594110+00:00,10.980,9.651,,9.817,0.438,,,,
2025-10-14T07:25:28.199432+00:00,10.990,10.834,,8.167,-1.067,,,,
2025-10-14T07:25:28.810022+00:00,11.000,11.725,,5.040,-2.486,,,,
2025-10-14T07:25:29.416377+00:00,11.011,11.994,,1.035,-3.668,,,,
2025-10-14T07:25:30.023743+00:00,11.022,11.551,,-3.159,-4.516,,,,
2025-10-14T07:25:30.632482+00:00,11.033,10.550,,-6.798,-4.952,,,,
2025-10-14T07:25:31.242324+00:00,11.045,9.349,,-9.225,-4.932,,,,
2025-10-14T07:25:31.848631+00:00,11.056,8.388,,-9.996,-4.460,,,,
2025-10-14T07:25:32.455297+00:00,11.068,8.001,,-8.993,-3.582,,,,
2025-10-14T07:25:33.071227+00:00,11.080,8.338,,-6.342,-2.356,,,,
2025-10-14T07:25:33.679029+00:00,11.093,9.270,,-2.585,-0.928,,,,
2025-10-14T07:25:34.282292+00:00,11.105,10.455,,1.601,0.573,,,,
2025-10-14T07:25:34.885750+00:00,11.117,11.480,,5.507,2.023,,,,
2025-10-14T07:25:35.502569+00:00,11.129,11.985,,8.495,3.316,,,,
2025-10-14T07:25:36.110420+00:00,11.141,11.767,,9.915,4.284,,,,
2025-10-14T07:25:36.713688+00:00,11.153,10.924,,9.577,4.856,,,,
2025-10-14T07:25:37.316459+00:00,11.164,9.756,,7.558,4.991,,,,
2025-10-14T07:25:37.927431+00:00,11.176,8.661,,4.161,4.668,,,,
2025-10-14T07:25:38.539090+00:00,11.187,8.051,,0.010,3.911,,,,
2025-10-14T07:25:39.143551+00:00,11.197,8.142,,-4.097,2.807,,,,
2025-10-14T07:25:39.751355+00:00,11.208,8.897,,-7.497,1.440,,,,
2025-10-14T07:25:40.360583+00:00,11.218,10.050,,-9.563,-0.062,,,,
2025-10-14T07:25:40.969231+00:00,11.228,11.184,,-9.917,-1.557,,,,
2025-10-14T07:25:41.574355+00:00,11.237,11.891,,-8.510,-2.902,,,,
2025-10-14T07:25:42.181424+00:00,11.245,11.925,,-5.588,-3.987,,,,
2025-10-14T07:25:42.787365+00:00,11.253,11.273,,-1.680,-4.705,,,,
2025-10-14T07:25:43.399615+00:00,11.261,10.155,,2.568,-4.996,,,,
2025-10-14T07:25:44.004856+00:00,11.268,8.993,,6.315,-4.827,,,,
2025-10-14T07:25:44.612905+00:00,11.274,8.186,,8.953,-4.215,,,,
2025-10-14T07:25:45.218790+00:00,11.280,8.029,,9.993,-3.221,,,,
2025-10-14T07:25:45.825133+00:00,11.285,8.574,,9.261,-1.933,,,,
2025-10-14T07:25:46.433775+00:00,11.289,9.632,,6.874,-0.462,,,,
2025-10-14T07:25:47.042857+00:00,11.293,10.823,,3.255,1.052,,,,
2025-10-14T07:25:47.648758+00:00,11.296,11.714,,-0.924,2.462,,,,
2025-10-14T07:25:48.255475+00:00,11.298,11.996,,-4.945,3.650,,,,
2025-10-14T07:25:48.867911+00:00,11.299,11.557,,-8.111,4.510,,,,
2025-10-14T07:25:49.476080+00:00,11.300,10.561,,-9.802,4.950,,,,
2025-10-14T07:25:50.079156+00:00,11.300,9.373,,-9.752,4.937,,,,
2025-10-14T07:25:50.681731+00:00,11.299,8.407,,-7.992,4.479,,,,
2025-10-14T07:25:51.298112+00:00,11.298,8.001,,-4.746,3.594,,,,
2025-10-14T07:25:51.906008+00:00,11.295,8.321,,-0.689,2.389,,,,
2025-10-14T07:25:52.509473+00:00,11.292,9.235,,3.462,0.975,,,,
2025-10-14T07:25:53.112465+00:00,11.289,10.418,,7.001,-0.525,,,,
2025-10-14T07:25:53.723298+00:00,11.285,11.464,,9.332,-1.996,,,,
2025-10-14T07:25:54.335026+00:00,11.279,11.981,,9.982,-3.284,,,,
2025-10-14T07:25:54.939738+00:00,11.274,11.786,,8.852,-4.257,,,,
2025-10-14T07:25:55.548374+00:00,11.267,10.951,,6.138,-4.847,,,,
2025-10-14T07:25:56.159399+00:00,11.260,9.769,,2.311,-4.992,,,,
2025-10-14T07:25:56.768075+00:00,11.253,8.675,,-1.917,-4.676,,,,
2025-10-14T07:25:57.373155+00:00,11.245,8.058,,-5.781,-3.935,,,,
2025-10-14T07:25:57.980385+00:00,11.236,8.132,,-8.632,-2.833,,,,
2025-10-14T07:25:58.586105+00:00,11.227,8.872,,-9.945,-1.476,,,,
2025-10-14T07:25:59.198198+00:00,11.217,10.026,,-9.482,0.032,,,,
2025-10-14T07:25:59.803281+00:00,11.207,11.159,,-7.339,1.521,,,,
2025-10-14T07:26:00.410451+00:00,11.197,11.882,,-3.885,2.875,,,,
2025-10-14T07:26:01.016628+00:00,11.186,11.933,,0.253,3.965,,,,
2025-10-14T07:26:01.623297+00:00,11.175,11.294,,4.349,4.694,,,,
2025-10-14T07:26:02.232011+00:00,11.164,10.189,,7.682,4.994,,,,
2025-10-14T07:26:02.843102+00:00,11.152,9.013,,9.646,4.834,,,,
2025-10-14T07:26:03.448719+00:00,11.140,8.198,,9.877,4.234,,,,
2025-10-14T07:26:04.055933+00:00,11.128,8.025,,8.354,3.245,,,,
2025-10-14T07:26:04.668632+00:00,11.116,8.566,,5.311,1.947,,,,
2025-10-14T07:26:05.276114+00:00,11.104,9.618,,1.342,0.480,,,,
2025-10-14T07:26:05.879607+00:00,11.092,10.799,,-2.838,-1.021,,,,
2025-10-14T07:26:06.482187+00:00,11.080,11.698,,-6.515,-2.427,,,,
2025-10-14T07:26:07.098437+00:00,11.068,11.997,,-9.090,-3.639,,,,
2025-10-14T07:26:07.706727+00:00,11.056,11.571,,-10.000,-4.499,,,,
2025-10-14T07:26:08.309800+00:00,11.044,10.592,,-9.138,-4.944,,,,
2025-10-14T07:26:08.913228+00:00,11.032,9.403,,-6.671,-4.943,,,,
2025-10-14T07:26:09.523909+00:00,11.021,8.416,,-2.982,-4.487,,,,
2025-10-14T07:26:10.136894+00:00,11.010,8.002,,1.260,-3.612,,,,
2025-10-14T07:26:10.742079+00:00,10.999,8.307,,5.226,-2.418,,,,
2025-10-14T07:26:11.348988+00:00,10.989,9.216,,8.276,-1.000,,,,
2025-10-14T07:26:11.960612+00:00,10.979,10.415,,9.859,0.521,,,,
2025-10-14T07:26:12.569337+00:00,10.970,11.459,,9.668,1.988,,,,
2025-10-14T07:26:13.174140+00:00,10.961,11.978,,7.766,3.264,,,,
2025-10-14T07:26:13.782152+00:00,10.952,11.792,,4.472,4.248,,,,
2025-10-14T07:26:14.388110+00:00,10.944,10.968,,0.394,4.841,,,,
2025-10-14T07:26:14.999858+00:00,10.937,9.787,,-3.791,4.993,,,,
2025-10-14T07:26:15.605362+00:00,10.930,8.693,,-7.261,4.686,,,,
2025-10-14T07:26:16.212433+00:00,10.924,8.063,,-9.450,3.951,,,,
2025-10-14T07:26:16.818766+00:00,10.919,8.125,,-9.958,2.856,,,,
2025-10-14T07:26:17.425222+00:00,10.914,8.855,,-8.699,1.501,,,,
2025-10-14T07:26:18.038419+00:00,10.910,10.007,,-5.858,-0.009,,,,
2025-10-14T07:26:18.646805+00:00,10.906,11.149,,-1.986,-1.506,,,,
2025-10-14T07:26:19.249959+00:00,10.904,11.875,,2.204,-2.854,,,,
2025-10-14T07:26:19.857694+00:00,10.902,11.937,,6.033,-3.952,,,,
2025-10-14T07:26:20.470966+00:00,10.900,11.297,,8.805,-4.692,,,,
2025-10-14T07:26:21.078337+00:00,10.900,10.196,,9.976,-4.994,,,,
2025-10-14T07:26:21.681452+00:00,10.900,9.032,,9.382,-4.841,,,,
2025-10-14T07:26:22.284293+00:00,10.901,8.211,,7.141,-4.252,,,,
2025-10-14T07:26:22.900116+00:00,10.903,8.023,,3.562,-3.255,,,,
2025-10-14T07:26:23.508644+00:00,10.905,8.552,,-0.617,-1.969,,,,
2025-10-14T07:26:24.111882+00:00,10.909,9.591,,-4.653,-0.514,,,,
2025-10-14T07:26:24.718877+00:00,10.912,10.780,,-7.888,0.995,,,,
2025-10-14T07:26:25.328697+00:00,10.917,11.694,,-9.725,2.420,,,,
2025-10-14T07:26:25.937547+00:00,10.922,11.998,,-9.818,3.621,,,,
2025-10-14T07:26:26.542585+00:00,10.928,11.588,,-8.169,4.484,,,,
2025-10-14T07:26:27.149935+00:00,10.935,10.610,,-5.063,4.940,,,,
2025-10-14T07:26:27.759222+00:00,10.942,9.410,,-1.043,4.944,,,,
2025-10-14T07:26:28.368147+00:00,10.950,8.423,,3.163,4.493,,,,
2025-10-14T07:26:28.973019+00:00,10.958,8.003,,6.781,3.636,,,,
2025-10-14T07:26:29.580182+00:00,10.967,8.295,,9.208,2.443,,,,
2025-10-14T07:26:30.186448+00:00,10.976,9.194,,9.997,1.030,,,,
2025-10-14T07:26:30.797734+00:00,10.986,10.391,,8.997,-0.490,,,,
2025-10-14T07:26:31.407673+00:00,10.996,11.444,,6.382,-1.962,,,,
2025-10-14T07:26:32.013709+00:00,11.006,11.975,,2.647,-3.245,,,,
2025-10-14T07:26:32.616804+00:00,11.017,11.805,,-1.537,-4.228,,,,
2025-10-14T07:26:33.223962+00:00,11.028,10.992,,-5.474,-4.833,,,,
2025-10-14T07:26:33.836408+00:00,11.040,9.813,,-8.458,-4.995,,,,
2025-10-14T07:26:34.443930+00:00,11.052,8.710,,-9.906,-4.696,,,,
2025-10-14T07:26:35.047409+00:00,11.063,8.070,,-9.597,-3.973,,,,
2025-10-14T07:26:35.653373+00:00,11.075,8.114,,-7.590,-2.887,,,,
2025-10-14T07:26:36.268852+00:00,11.088,8.845,,-4.177,-1.515,,,,
2025-10-14T07:26:36.876695+00:00,11.100,9.985,,-0.054,-0.019,,,,
2025-10-14T07:26:37.479474+00:00,11.112,11.121,,4.046,1.466,,,,
2025-10-14T07:26:38.087481+00:00,11.124,11.866,,7.461,2.830,,,,
2025-10-14T07:26:38.703522+00:00,11.136,11.939,,9.561,3.946,,,,
2025-10-14T07:26:39.308905+00:00,11.148,11.314,,9.920,4.682,,,,
2025-10-14T07:26:39.911891+00:00,11.160,10.228,,8.533,4.992,,,,
2025-10-14T07:26:40.519133+00:00,11.171,9.053,,5.624,4.849,,,,
2025-10-14T07:26:41.128614+00:00,11.182,8.215,,1.698,4.259,,,,
2025-10-14T07:26:41.738820+00:00,11.193,8.020,,-2.537,3.276,,,,
2025-10-14T07:26:42.343652+00:00,11.204,8.532,,-6.287,2.002,,,,
2025-10-14T07:26:42.951462+00:00,11.214,9.571,,-8.936,0.539,,,,
2025-10-14T07:26:43.560912+00:00,11.224,10.767,,-9.992,-0.977,,,,
2025-10-14T07:26:44.169558+00:00,11.233,11.685,,-9.260,-2.401,,,,
2025-10-14T07:26:44.778974+00:00,11.242,11.998,,-6.867,-3.607,,,,
2025-10-14T07:26:45.384695+00:00,11.250,11.597,,-3.269,-4.475,,,,
2025-10-14T07:26:45.988103+00:00,11.258,10.631,,0.893,-4.936,,,,
2025-10-14T07:26:46.600085+00:00,11.265,9.426,,4.950,-4.947,,,,
2025-10-14T07:26:47.215586+00:00,11.272,8.425,,8.126,-4.495,,,,
2025-10-14T07:26:47.821674+00:00,11.278,8.003,,9.805,-3.637,,,,
2025-10-14T07:26:48.424525+00:00,11.283,8.289,,9.750,-2.455,,,,
2025-10-14T07:26:49.031147+00:00,11.287,9.185,,7.968,-1.041,,,,
2025-10-14T07:26:49.644037+00:00,11.291,10.384,,4.733,0.482,,,,
2025-10-14T07:26:50.251542+00:00,11.295,11.436,,0.677,1.949,,,,
2025-10-14T07:26:50.854282+00:00,11.297,11.972,,-3.467,3.228,,,,
2025-10-14T07:26:51.464803+00:00,11.299,11.807,,-7.043,4.226,,,,
2025-10-14T07:26:52.076094+00:00,11.300,10.987,,-9.354,4.834,,,,
2025-10-14T07:26:52.681656+00:00,11.300,9.822,,-9.980,4.995,,,,
2025-10-14T07:26:53.284541+00:00,11.300,8.724,,-8.849,4.704,,,,
2025-10-14T07:26:53.891786+00:00,11.298,8.073,,-6.141,3.981,,,,
2025-10-14T07:26:54.506139+00:00,11.296,8.116,,-2.291,2.880,,,,
2025-10-14T07:26:55.114597+00:00,11.294,8.839,,1.935,1.524,,,,
2025-10-14T07:26:55.719600+00:00,11.290,9.971,,5.796,0.036,,,,
2025-10-14T07:26:56.327297+00:00,11.286,11.118,,8.642,-1.462,,,,
2025-10-14T07:26:56.936533+00:00,11.281,11.866,,9.949,-2.829,,,,
2025-10-14T07:26:57.545698+00:00,11.276,11.942,,9.474,-3.935,,,,
2025-10-14T07:26:58.154821+00:00,11.270,11.320,,7.302,-4.679,,,,
2025-10-14T07:26:58.760669+00:00,11.263,10.229,,3.844,-4.992,,,,
2025-10-14T07:26:59.364173+00:00,11.256,9.061,,-0.279,-4.852,,,,
2025-10-14T07:26:59.975796+00:00,11.248,8.217,,-4.404,-4.262,,,,
2025-10-14T07:27:00.584141+00:00,11.239,8.019,,-7.719,-3.284,,,,
2025-10-14T07:27:01.191754+00:00,11.230,8.530,,-9.655,-2.005,,,,
2025-10-14T07:27:01.795180+00:00,11.221,9.560,,-9.874,-0.554,,,,
2025-10-14T07:27:02.398882+00:00,11.211,10.745,,-8.357,0.949,,,,
2025-10-14T07:27:03.014473+00:00,11.201,11.680,,-5.299,2.391,,,,
2025-10-14T07:27:03.622563+00:00,11.190,11.999,,-1.325,3.596,,,,
2025-10-14T07:27:04.226076+00:00,11.179,11.606,,2.856,4.466,,,,
2025-10-14T07:27:04.833239+00:00,11.168,10.640,,6.553,4.934,,,,
2025-10-14T07:27:05.443022+00:00,11.156,9.439,,9.093,4.950,,,,
2025-10-14T07:27:06.051594+00:00,11.145,8.442,,10.000,4.510,,,,
2025-10-14T07:27:06.656361+00:00,11.133,8.005,,9.131,3.662,,,,
2025-10-14T07:27:07.264273+00:00,11.121,8.279,,6.633,2.476,,,,
2025-10-14T07:27:07.873617+00:00,11.109,9.172,,2.943,1.059,,,,
2025-10-14T07:27:08.481987+00:00,11.096,10.361,,-1.268,-0.454,,,,
2025-10-14T07:27:09.087170+00:00,11.084,11.416,,-5.234,-1.917,,,,
2025-10-14T07:27:09.694560+00:00,11.072,11.969,,-8.282,-3.210,,,,
2025-10-14T07:27:10.300521+00:00,11.060,11.818,,-9.855,-4.208,,,,
2025-10-14T07:27:10.912489+00:00,11.048,11.010,,-9.670,-4.826,,,,
2025-10-14T07:27:11.523757+00:00,11.037,9.837,,-7.741,-4.996,,,,
2025-10-14T07:27:12.129947+00:00,11.025,8.730,,-4.447,-4.707,,,,
2025-10-14T07:27:12.733374+00:00,11.014,8.078,,-0.385,-3.993,,,,
2025-10-14T07:27:13.340192+00:00,11.003,8.106,,3.768,-2.912,,,,
2025-10-14T07:27:13.953582+00:00,10.993,8.822,,7.282,-1.549,,,,
2025-10-14T07:27:14.561221+00:00,10.983,9.955,,9.461,-0.056,,,,
2025-10-14T07:27:15.164486+00:00,10.973,11.098,,9.957,1.432,,,,
2025-10-14T07:27:15.771144+00:00,10.964,11.855,,8.692,2.798,,,,
2025-10-14T07:27:16.384140+00:00,10.955,11.947,,5.847,3.918,,,,
2025-10-14T07:27:16.992706+00:00,10.947,11.337,,1.972,4.668,,,,
2025-10-14T07:27:17.595884+00:00,10.940,10.258,,-2.218,4.990,,,,
2025-10-14T07:27:18.203171+00:00,10.933,9.080,,-6.042,4.858,,,,
2025-10-14T07:27:18.817808+00:00,10.926,8.224,,-8.815,4.272,,,,
2025-10-14T07:27:19.422921+00:00,10.921,8.016,,-9.977,3.304,,,,
2025-10-14T07:27:20.026279+00:00,10.916,8.510,,-9.379,2.040,,,,
2025-10-14T07:27:20.634007+00:00,10.911,9.539,,-7.112,0.580,,,,
2025-10-14T07:27:21.243348+00:00,10.908,10.736,,-3.566,-0.936,,,,
2025-10-14T07:27:21.852607+00:00,10.905,11.668,,0.618,-2.366,,,,
2025-10-14T07:27:22.457564+00:00,10.902,12.000,,4.665,-3.571,,,,
2025-10-14T07:27:23.064876+00:00,10.901,11.619,,7.898,-4.454,,,,
2025-10-14T07:27:23.674708+00:00,10.900,10.655,,9.729,-4.931,,,,
2025-10-14T07:27:24.283488+00:00,10.900,9.457,,9.815,-4.953,,,,
2025-10-14T07:27:24.894028+00:00,10.901,8.451,,8.139,-4.518,,,,
2025-10-14T07:27:25.499885+00:00,10.902,8.006,,5.027,-3.673,,,,
2025-10-14T07:27:26.103206+00:00,10.904,8.268,,1.042,-2.499,,,,
2025-10-14T07:27:26.715130+00:00,10.907,9.158,,-3.184,-1.078,,,,
2025-10-14T07:27:27.324812+00:00,10.911,10.348,,-6.822,0.437,,,,
2025-10-14T07:27:27.931643+00:00,10.915,11.409,,-9.229,1.905,,,,
2025-10-14T07:27:28.535138+00:00,10.920,11.966,,-9.996,3.193,,,,
2025-10-14T07:27:29.141876+00:00,10.926,11.825,,-8.996,4.197,,,,
2025-10-14T07:27:29.755504+00:00,10.932,11.021,,-6.360,4.822,,,,
2025-10-14T07:27:30.363446+00:00,10.939,9.856,,-2.607,4.997,,,,
2025-10-14T07:27:30.966329+00:00,10.946,8.750,,1.576,4.718,,,,
2025-10-14T07:27:31.574478+00:00,10.955,8.082,,5.513,4.006,,,,
2025-10-14T07:27:32.192321+00:00,10.963,8.108,,8.502,2.907,,,,
2025-10-14T07:27:32.797556+00:00,10.972,8.813,,9.915,1.562,,,,
2025-10-14T07:27:33.400687+00:00,10.982,9.935,,9.578,0.081,,,,
2025-10-14T07:27:34.008399+00:00,10.992,11.088,,7.539,-1.419,,,,
2025-10-14T07:27:34.617892+00:00,11.002,11.853,,4.144,-2.792,,,,
2025-10-14T07:27:35.226845+00:00,11.013,11.950,,0.010,-3.907,,,,
2025-10-14T07:27:35.831576+00:00,11.024,11.353,,-4.099,-4.659,,,,
2025-10-14T07:27:36.439707+00:00,11.036,10.269,,-7.500,-4.989,,,,
2025-10-14T07:27:37.051306+00:00,11.047,9.082,,-9.569,-4.859,,,,
2025-10-14T07:27:37.659598+00:00,11.059,8.231,,-9.914,-4.282,,,,
2025-10-14T07:27:38.264951+00:00,11.071,8.014,,-8.500,-3.318,,,,
2025-10-14T07:27:38.872292+00:00,11.083,8.505,,-5.570,-2.048,,,,
2025-10-14T07:27:39.478087+00:00,11.095,9.528,,-1.659,-0.594,,,,
2025-10-14T07:27:40.089839+00:00,11.107,10.730,,2.585,0.929,,,,
2025-10-14T07:27:40.699157+00:00,11.120,11.664,,6.350,2.360,,,,
2025-10-14T07:27:41.305479+00:00,11.132,12.000,,8.968,3.568,,,,
2025-10-14T07:27:41.908787+00:00,11.143,11.626,,9.994,4.448,,,,
2025-10-14T07:27:42.515266+00:00,11.155,10.672,,9.255,4.927,,,,
2025-10-14T07:27:43.128484+00:00,11.167,9.465,,6.839,4.954,,,,
2025-10-14T07:27:43.739498+00:00,11.178,8.456,,3.196,4.522,,,,
2025-10-14T07:27:44.343013+00:00,11.189,8.007,,-0.970,3.684,,,,
2025-10-14T07:27:44.949841+00:00,11.200,8.266,,-4.985,2.505,,,,
2025-10-14T07:27:45.562568+00:00,11.210,9.154,,-8.139,1.084,,,,
2025-10-14T07:27:46.170883+00:00,11.220,10.341,,-9.812,-0.428,,,,
2025-10-14T07:27:46.773581+00:00,11.230,11.398,,-9.742,-1.887,,,,
2025-10-14T07:27:47.380871+00:00,11.239,11.964,,-7.944,-3.185,,,,
2025-10-14T07:27:47.995118+00:00,11.247,11.822,,-4.688,-4.202,,,,
2025-10-14T07:27:48.600305+00:00,11.255,11.030,,-0.643,-4.818,,,,
2025-10-14T07:27:49.203302+00:00,11.263,9.876,,3.502,-4.998,,,,
2025-10-14T07:27:49.810963+00:00,11.269,8.758,,7.055,-4.722,,,,
2025-10-14T07:27:50.421616+00:00,11.275,8.084,,9.358,-4.010,,,,
2025-10-14T07:27:51.030735+00:00,11.281,8.101,,9.978,-2.929,,,,
2025-10-14T07:27:51.635566+00:00,11.286,8.794,,8.826,-1.590,,,,
2025-10-14T07:27:52.243127+00:00,11.290,9.921,,6.099,-0.099,,,,
2025-10-14T07:27:52.852874+00:00,11.293,11.080,,2.271,1.406,,,,
2025-10-14T07:27:53.461195+00:00,11.296,11.848,,-1.954,2.779,,,,
2025-10-14T07:27:54.070604+00:00,11.298,11.953,,-5.837,3.898,,,,
2025-10-14T07:27:54.676277+00:00,11.299,11.360,,-8.660,4.654,,,,
2025-10-14T07:27:55.279553+00:00,11.300,10.288,,-9.949,4.987,,,,
2025-10-14T07:27:55.894320+00:00,11.300,9.094,,-9.463,4.863,,,,
2025-10-14T07:27:56.504046+00:00,11.299,8.236,,-7.277,4.289,,,,
2025-10-14T07:27:57.109712+00:00,11.297,8.013,,-3.811,3.327,,,,
2025-10-14T07:27:57.713001+00:00,11.295,8.494,,0.313,2.068,,,,
2025-10-14T07:27:58.319475+00:00,11.292,9.512,,4.403,0.614,,,,
2025-10-14T07:27:58.932270+00:00,11.288,10.717,,7.738,-0.911,,,,
2025-10-14T07:27:59.540095+00:00,11.283,11.655,,9.663,-2.340,,,,
2025-10-14T07:28:00.142914+00:00,11.278,12.000,,9.870,-3.547,,,,
2025-10-14T07:28:00.753894+00:00,11.272,11.631,,8.314,-4.442,,,,
2025-10-14T07:28:01.365162+00:00,11.266,10.671,,5.259,-4.927,,,,
2025-10-14T07:28:01.970607+00:00,11.259,9.480,,1.296,-4.957,,,,
2025-10-14T07:28:02.573834+00:00,11.251,8.476,,-2.882,-4.538,,,,
2025-10-14T07:28:03.181347+00:00,11.243,8.009,,-6.576,-3.703,,,,
2025-10-14T07:28:03.796082+00:00,11.234,8.262,,-9.119,-2.512,,,,
2025-10-14T07:28:04.401562+00:00,11.225,9.135,,-10.000,-1.109,,,,
2025-10-14T07:28:05.004208+00:00,11.215,10.309,,-9.119,0.388,,,,
2025-10-14T07:28:05.612056+00:00,11.205,11.382,,-6.613,1.862,,,,
2025-10-14T07:28:06.221390+00:00,11.194,11.961,,-2.917,3.168,,,,
2025-10-14T07:28:06.829828+00:00,11.183,11.834,,1.296,4.181,,,,
2025-10-14T07:28:07.439354+00:00,11.172,11.048,,5.283,4.811,,,,
2025-10-14T07:28:08.045131+00:00,11.161,9.891,,8.309,4.998,,,,
2025-10-14T07:28:08.651945+00:00,11.149,8.772,,9.864,4.729,,,,
2025-10-14T07:28:09.260631+00:00,11.137,8.090,,9.662,4.025,,,,
2025-10-14T07:28:09.869781+00:00,11.125,8.094,,7.731,2.951,,,,
2025-10-14T07:28:10.476142+00:00,11.113,8.780,,4.433,1.611,,,,
2025-10-14T07:28:11.079043+00:00,11.101,9.894,,0.372,0.133,,,,
2025-10-14T07:28:11.690516+00:00,11.089,11.060,,-3.810,-1.378,,,,
2025-10-14T07:28:12.300544+00:00,11.077,11.840,,-7.297,-2.758,,,,
2025-10-14T07:28:12.906011+00:00,11.065,11.959,,-9.463,-3.876,,,,
2025-10-14T07:28:13.509219+00:00,11.053,11.384,,-9.957,-4.639,,,,
2025-10-14T07:28:14.120332+00:00,11.041,10.306,,-8.674,-4.985,,,,
2025-10-14T07:28:14.731182+00:00,11.030,9.117,,-5.829,-4.870,,,,
2025-10-14T07:28:15.337125+00:00,11.018,8.252,,-1.968,-4.310,,,,
2025-10-14T07:28:15.939678+00:00,11.008,8.009,,2.218,-3.363,,,,
2025-10-14T07:28:16.552298+00:00,10.997,8.480,,6.072,-2.091,,,,
2025-10-14T07:28:17.163863+00:00,10.987,9.502,,8.822,-0.627,,,,
2025-10-14T07:28:17.768646+00:00,10.977,10.692,,9.978,0.879,,,,
2025-10-14T07:28:18.371702+00:00,10.968,11.634,,9.376,2.301,,,,
2025-10-14T07:28:18.979270+00:00,10.959,12.000,,7.105,3.523,,,,
2025-10-14T07:28:19.593774+00:00,10.950,11.642,,3.523,4.431,,,,
2025-10-14T07:28:20.199692+00:00,10.942,10.699,,-0.640,4.920,,,,
2025-10-14T07:28:20.807140+00:00,10.935,9.505,,-4.700,4.961,,,,
2025-10-14T07:28:21.412850+00:00,10.929,8.490,,-7.915,4.549,,,,
2025-10-14T07:28:22.020049+00:00,10.923,8.012,,-9.731,3.721,,,,
2025-10-14T07:28:22.628454+00:00,10.917,8.246,,-9.814,2.549,,,,
2025-10-14T07:28:23.237978+00:00,10.913,9.111,,-8.138,1.141,,,,
2025-10-14T07:28:23.843940+00:00,10.909,10.290,,-5.026,-0.363,,,,
2025-10-14T07:28:24.450634+00:00,10.906,11.366,,-1.017,-1.836,,,,
2025-10-14T07:28:25.059584+00:00,10.903,11.956,,3.187,-3.146,,,,
2025-10-14T07:28:25.669013+00:00,10.901,11.842,,6.824,-4.167,,,,
2025-10-14T07:28:26.274940+00:00,10.900,11.071,,9.227,-4.802,,,,
2025-10-14T07:28:26.878063+00:00,10.900,9.924,,9.996,-4.999,,,,
2025-10-14T07:28:27.493814+00:00,10.900,8.784,,8.971,-4.735,,,,
2025-10-14T07:28:28.101300+00:00,10.902,8.095,,6.350,-4.038,,,,
2025-10-14T07:28:28.704813+00:00,10.903,8.086,,2.624,-2.980,,,,
2025-10-14T07:28:29.307523+00:00,10.906,8.751,,-1.557,-1.654,,,,
2025-10-14T07:28:29.918879+00:00,10.909,9.874,,-5.516,-0.157,,,,
2025-10-14T07:28:30.529900+00:00,10.913,11.042,,-8.479,1.353,,,,
2025-10-14T07:28:31.134920+00:00,10.918,11.828,,-9.909,2.726,,,,
2025-10-14T07:28:31.738153+00:00,10.924,11.966,,-9.591,3.848,,,,
2025-10-14T07:28:32.350549+00:00,10.930,11.396,,-7.546,4.631,,,,
2025-10-14T07:28:32.962170+00:00,10.936,10.321,,-4.141,4.984,,,,
2025-10-14T07:28:33.567407+00:00,10.944,9.141,,-0.033,4.877,,,,
2025-10-14T07:28:34.174618+00:00,10.951,8.264,,4.093,4.325,,,,
2025-10-14T07:28:34.780815+00:00,10.960,8.008,,7.487,3.379,,,,
2025-10-14T07:28:35.392972+00:00,10.969,8.469,,9.565,2.111,,,,
2025-10-14T07:28:35.998142+00:00,10.978,9.473,,9.919,0.665,,,,
2025-10-14T07:28:36.605916+00:00,10.988,10.669,,8.510,-0.848,,,,
2025-10-14T07:28:37.211599+00:00,10.998,11.623,,5.597,-2.279,,,,
2025-10-14T07:28:37.818706+00:00,11.009,12.000,,1.682,-3.505,,,,
2025-10-14T07:28:38.427159+00:00,11.020,11.660,,-2.541,-4.412,,,,
2025-10-14T07:28:39.036573+00:00,11.031,10.723,,-6.315,-4.915,,,,
2025-10-14T07:28:39.642780+00:00,11.043,9.532,,-8.947,-4.965,,,,
2025-10-14T07:28:40.249344+00:00,11.054,8.507,,-9.993,-4.563,,,,
2025-10-14T07:28:40.861762+00:00,11.066,8.013,,-9.248,-3.734,,,,
2025-10-14T07:28:41.469927+00:00,11.078,8.238,,-6.851,-2.567,,,,
2025-10-14T07:28:42.073169+00:00,11.091,9.085,,-3.264,-1.176,,,,
2025-10-14T07:28:42.676161+00:00,11.103,10.255,,0.895,0.320,,,,
2025-10-14T07:28:43.292290+00:00,11.115,11.355,,4.977,1.818,,,,
2025-10-14T07:28:43.900654+00:00,11.127,11.953,,8.115,3.129,,,,
2025-10-14T07:28:44.504059+00:00,11.139,11.853,,9.797,4.147,,,,
2025-10-14T07:28:45.106590+00:00,11.151,11.101,,9.759,4.789,,,,
2025-10-14T07:28:45.717811+00:00,11.162,9.944,,7.973,5.000,,,,
2025-10-14T07:28:46.329199+00:00,11.174,8.806,,4.749,4.747,,,,
2025-10-14T07:28:46.934104+00:00,11.185,8.106,,0.713,4.063,,,,
2025-10-14T07:28:47.541576+00:00,11.196,8.078,,-3.465,3.005,,,,
2025-10-14T07:28:48.151536+00:00,11.206,8.743,,-7.039,1.667,,,,
2025-10-14T07:28:48.760142+00:00,11.216,9.858,,-9.345,0.178,,,,
2025-10-14T07:28:49.365548+00:00,11.226,11.018,,-9.982,-1.320,,,,
2025-10-14T07:28:49.973032+00:00,11.235,11.819,,-8.846,-2.702,,,,
2025-10-14T07:28:50.578658+00:00,11.244,11.969,,-6.145,-3.833,,,,
2025-10-14T07:28:51.191400+00:00,11.252,11.409,,-2.308,-4.623,,,,
2025-10-14T07:28:51.796628+00:00,11.260,10.351,,1.896,-4.981,,,,
2025-10-14T07:28:52.404395+00:00,11.267,9.164,,5.779,-4.884,,,,
2025-10-14T07:28:53.010597+00:00,11.273,8.278,,8.627,-4.342,,,,
2025-10-14T07:28:53.617183+00:00,11.279,8.005,,9.944,-3.403,,,,
2025-10-14T07:28:54.233208+00:00,11.284,8.457,,9.475,-2.133,,,,
2025-10-14T07:28:54.841187+00:00,11.288,9.460,,7.309,-0.681,,,,
2025-10-14T07:28:55.444270+00:00,11.292,10.648,,3.871,0.821,,,,
2025-10-14T07:28:56.051198+00:00,11.295,11.611,,-0.274,2.257,,,,
2025-10-14T07:28:56.663568+00:00,11.297,12.000,,-4.404,3.497,,,,
2025-10-14T07:28:57.271349+00:00,11.299,11.666,,-7.717,4.406,,,,
2025-10-14T07:28:57.874534+00:00,11.300,10.745,,-9.645,4.909,,,,
2025-10-14T07:28:58.477309+00:00,11.300,9.561,,-9.880,4.969,,,,
2025-10-14T07:28:59.094054+00:00,11.299,8.513,,-8.328,4.568,,,,
2025-10-14T07:28:59.701982+00:00,11.298,8.016,,-5.300,3.749,,,,
2025-10-14T07:29:00.305050+00:00,11.296,8.224,,-1.361,2.598,,,,
2025-10-14T07:29:00.912705+00:00,11.293,9.068,,2.848,1.201,,,,
2025-10-14T07:29:01.521933+00:00,11.289,10.248,,6.559,-0.310,,,,
2025-10-14T07:29:02.131335+00:00,11.285,11.339,,9.094,-1.793,,,,
2025-10-14T07:29:02.736524+00:00,11.280,11.946,,10.000,-3.103,,,,
2025-10-14T07:29:03.344139+00:00,11.275,11.861,,9.131,-4.134,,,,
2025-10-14T07:29:03.955359+00:00,11.268,11.103,,6.616,-4.788,,,,
2025-10-14T07:29:04.563705+00:00,11.262,9.951,,2.927,-5.000,,,,
2025-10-14T07:29:05.168584+00:00,11.254,8.823,,-1.260,-4.755,,,,
2025-10-14T07:29:05.776157+00:00,11.246,8.110,,-5.241,-4.074,,,,
2025-10-14T07:29:06.381942+00:00,11.238,8.073,,-8.281,-3.024,,,,
2025-10-14T07:29:06.993856+00:00,11.228,8.732,,-9.861,-1.684,,,,
2025-10-14T07:29:07.603702+00:00,11.219,9.846,,-9.663,-0.193,,,,
2025-10-14T07:29:08.209459+00:00,11.209,11.009,,-7.749,1.306,,,,
2025-10-14T07:29:08.813086+00:00,11.199,11.811,,-4.476,2.682,,,,
2025-10-14T07:29:09.419690+00:00,11.188,11.972,,-0.394,3.820,,,,
2025-10-14T07:29:10.033768+00:00,11.177,11.419,,3.806,4.616,,,,
2025-10-14T07:29:10.641594+00:00,11.165,10.360,,7.283,4.980,,,,
2025-10-14T07:29:11.244417+00:00,11.154,9.181,,9.451,4.889,,,,
2025-10-14T07:29:11.851048+00:00,11.142,8.287,,9.958,4.353,,,,
2025-10-14T07:29:12.464346+00:00,11.130,8.005,,8.673,3.408,,,,
2025-10-14T07:29:13.072210+00:00,11.118,8.444,,5.845,2.156,,,,
2025-10-14T07:29:13.675369+00:00,11.106,9.431,,2.007,0.719,,,,
2025-10-14T07:29:14.282862+00:00,11.094,10.627,,-2.213,-0.794,,,,
2025-10-14T07:29:14.899516+00:00,11.081,11.610,,-6.090,-2.254,,,,
2025-10-14T07:29:15.505165+00:00,11.069,11.999,,-8.814,-3.483,,,,
2025-10-14T07:29:16.107671+00:00,11.057,11.681,,-9.975,-4.390,,,,
2025-10-14T07:29:16.715196+00:00,11.046,10.761,,-9.376,-4.905,,,,
2025-10-14T07:29:17.324732+00:00,11.034,9.565,,-7.097,-4.970,,,,
2025-10-14T07:29:17.933155+00:00,11.023,8.527,,-3.553,-4.578,,,,
2025-10-14T07:29:18.538489+00:00,11.012,8.019,,0.605,-3.771,,,,
2025-10-14T07:29:19.146088+00:00,11.001,8.217,,4.670,-2.616,,,,
2025-10-14T07:29:19.755390+00:00,10.991,9.056,,7.909,-1.217,,,,
2025-10-14T07:29:20.364211+00:00,10.981,10.233,,9.731,0.292,,,,
2025-10-14T07:29:20.973373+00:00,10.971,11.328,,9.812,1.776,,,,
2025-10-14T07:29:21.579245+00:00,10.962,11.943,,8.149,3.089,,,,
2025-10-14T07:29:22.182646+00:00,10.954,11.869,,5.057,4.118,,,,
2025-10-14T07:29:22.794187+00:00,10.945,11.120,,1.019,4.781,,,,
2025-10-14T07:29:23.404784+00:00,10.938,9.968,,-3.196,5.000,,,,
2025-10-14T07:29:24.010453+00:00,10.931,8.835,,-6.811,4.760,,,,
2025-10-14T07:29:24.613326+00:00,10.925,8.119,,-9.213,4.092,,,,
2025-10-14T07:29:25.220430+00:00,10.919,8.068,,-9.997,3.046,,,,
2025-10-14T07:29:25.833390+00:00,10.915,8.716,,-8.985,1.707,,,,
2025-10-14T07:29:26.440981+00:00,10.910,9.821,,-6.372,0.223,,,,
2025-10-14T07:29:27.044100+00:00,10.907,10.983,,-2.655,-1.270,,,,
2025-10-14T07:29:28.267311+00:00,10.902,11.972,,5.543,-3.817,,,,
2025-10-14T07:29:28.881315+00:00,10.901,11.422,,8.507,-4.614,,,,
2025-10-14T07:29:29.486444+00:00,10.900,10.369,,9.916,-4.978,,,,
2025-10-14T07:29:30.089160+00:00,10.900,9.190,,9.577,-4.892,,,,
2025-10-14T07:29:30.700253+00:00,10.901,8.287,,7.520,-4.354,,,,
2025-10-14T07:29:31.313530+00:00,10.903,8.005,,4.093,-3.408,,,,
2025-10-14T07:29:31.919020+00:00,10.905,8.440,,-0.021,-2.163,,,,
2025-10-14T07:29:32.522506+00:00,10.908,9.426,,-4.119,-0.725,,,,
2025-10-14T07:29:33.129635+00:00,10.912,10.622,,-7.510,0.787,,,,
2025-10-14T07:29:33.744641+00:00,10.916,11.604,,-9.580,2.244,,,,
2025-10-14T07:29:34.349590+00:00,10.921,11.999,,-9.912,3.473,,,,
2025-10-14T07:29:34.957033+00:00,10.927,11.681,,-8.484,4.390,,,,
2025-10-14T07:29:35.563010+00:00,10.934,10.764,,-5.553,4.904,,,,
2025-10-14T07:29:36.169760+00:00,10.941,9.574,,-1.632,4.971,,,,
2025-10-14T07:29:36.778525+00:00,10.948,8.533,,2.592,4.582,,,,
2025-10-14T07:29:37.388028+00:00,10.957,8.019,,6.356,3.771,,,,
2025-10-14T07:29:37.993634+00:00,10.965,8.215,,8.969,2.620,,,,
2025-10-14T07:29:38.600594+00:00,10.975,9.048,,9.994,1.228,,,,
2025-10-14T07:29:39.208644+00:00,10.984,10.223,,9.240,-0.280,,,,
2025-10-14T07:29:39.818138+00:00,10.994,11.321,,6.829,-1.765,,,,
2025-10-14T07:29:40.424123+00:00,11.005,11.941,,3.217,-3.080,,,,
2025-10-14T07:29:41.027061+00:00,11.016,11.872,,-0.944,-4.111,,,,
