ts_iso,batt_v,airspeed_ms,groundspeed_ms,roll_deg,pitch_deg,yaw_deg,lat,lon,alt_m
2025-10-14T07:03:24.645446+00:00,,,,,,,,,
2025-10-14T07:03:25.729880+00:00,,,,,,,,,
2025-10-14T07:03:26.332664+00:00,,,,,,,,,
2025-10-14T07:03:41.292107+00:00,,,,,,,,,
2025-10-14T07:03:41.894885+00:00,,,,,,,,,
2025-10-14T07:03:42.924025+00:00,,,,,,,,,
2025-10-14T07:03:43.531664+00:00,,,,,,,,,
2025-10-14T07:03:43.733940+00:00,11.112,11.144,,4.134,1.499,,,,
2025-10-14T07:03:44.409076+00:00,11.126,11.918,,7.826,2.994,,,,
2025-10-14T07:03:45.039882+00:00,11.138,11.883,,9.736,4.089,,,,
2025-10-14T07:03:45.664970+00:00,11.150,11.132,,9.786,4.776,,,,
2025-10-14T07:03:46.270380+00:00,11.162,9.992,,8.074,5.000,,,,
2025-10-14T07:03:46.875325+00:00,11.173,8.856,,4.937,4.770,,,,
2025-10-14T07:03:47.478233+00:00,11.184,8.128,,0.942,4.110,,,,
2025-10-14T07:03:48.087109+00:00,11.195,8.062,,-3.259,3.068,,,,
2025-10-14T07:03:48.696700+00:00,11.206,8.694,,-6.879,1.741,,,,
2025-10-14T07:03:49.301312+00:00,11.216,9.787,,-9.253,0.267,,,,
2025-10-14T07:03:49.903335+00:00,11.225,10.950,,-9.995,-1.225,,,,
2025-10-14T07:03:50.512208+00:00,11.235,11.786,,-8.966,-2.622,,,,
2025-10-14T07:03:51.121320+00:00,11.243,11.980,,-6.332,-3.778,,,,
2025-10-14T07:03:51.725078+00:00,11.252,11.469,,-2.601,-4.581,,,,
2025-10-14T07:03:52.327540+00:00,11.259,10.441,,1.580,-4.969,,,,
2025-10-14T07:03:52.933146+00:00,11.266,9.252,,5.502,-4.908,,,,
2025-10-14T07:03:53.544163+00:00,11.273,8.323,,8.470,-4.395,,,,
2025-10-14T07:03:54.148316+00:00,11.278,8.001,,9.905,-3.486,,,,
2025-10-14T07:03:54.754004+00:00,11.284,8.388,,9.593,-2.258,,,,
2025-10-14T07:03:55.358700+00:00,11.288,9.347,,7.586,-0.828,,,,
2025-10-14T07:03:55.963926+00:00,11.292,10.538,,4.237,0.679,,,,
2025-10-14T07:03:56.570408+00:00,11.295,11.540,,0.130,2.128,,,,
2025-10-14T07:03:57.177663+00:00,11.297,11.993,,-4.006,3.383,,,,
2025-10-14T07:03:57.781872+00:00,11.299,11.736,,-7.413,4.325,,,,
2025-10-14T07:03:58.386959+00:00,11.300,10.863,,-9.517,4.876,,,,
2025-10-14T07:03:58.993502+00:00,11.300,9.680,,-9.937,4.984,,,,
2025-10-14T07:03:59.600708+00:00,11.299,8.611,,-8.590,4.636,,,,
2025-10-14T07:04:00.207091+00:00,11.298,8.039,,-5.720,3.866,,,,
2025-10-14T07:04:00.811034+00:00,11.296,8.164,,-1.850,2.747,,,,
2025-10-14T07:04:01.428557+00:00,11.293,8.962,,2.437,1.348,,,,
2025-10-14T07:04:02.039290+00:00,11.290,10.129,,6.239,-0.162,,,,
2025-10-14T07:04:02.642820+00:00,11.286,11.239,,8.894,-1.640,,,,
2025-10-14T07:04:03.246522+00:00,11.281,11.911,,9.986,-2.970,,,,
2025-10-14T07:04:03.859111+00:00,11.275,11.902,,9.299,-4.045,,,,
2025-10-14T07:04:04.471942+00:00,11.269,11.201,,6.926,-4.743,,,,
2025-10-14T07:04:05.077475+00:00,11.262,10.077,,3.346,-4.999,,,,
2025-10-14T07:04:05.681449+00:00,11.255,8.929,,-0.815,-4.802,,,,
2025-10-14T07:04:06.292885+00:00,11.247,8.153,,-4.878,-4.159,,,,
2025-10-14T07:04:06.906923+00:00,11.238,8.048,,-8.072,-3.126,,,,
2025-10-14T07:04:07.511337+00:00,11.229,8.642,,-9.784,-1.823,,,,
2025-10-14T07:04:08.117440+00:00,11.220,9.720,,-9.768,-0.350,,,,
2025-10-14T07:04:08.722438+00:00,11.210,10.896,,-8.024,1.151,,,,
2025-10-14T07:04:09.332479+00:00,11.200,11.759,,-4.832,2.559,,,,
2025-10-14T07:04:09.936468+00:00,11.189,11.988,,-0.814,3.721,,,,
2025-10-14T07:04:10.542276+00:00,11.178,11.512,,3.359,4.548,,,,
2025-10-14T07:04:11.146327+00:00,11.167,10.501,,6.928,4.960,,,,
2025-10-14T07:04:11.751525+00:00,11.155,9.310,,9.280,4.923,,,,
2025-10-14T07:04:12.357767+00:00,11.143,8.363,,9.991,4.437,,,,
2025-10-14T07:04:12.967356+00:00,11.131,8.000,,8.919,3.540,,,,
2025-10-14T07:04:13.573560+00:00,11.119,8.353,,6.266,2.325,,,,
2025-10-14T07:04:14.176333+00:00,11.107,9.287,,2.524,0.906,,,,
2025-10-14T07:04:14.783255+00:00,11.095,10.480,,-1.688,-0.604,,,,
2025-10-14T07:04:15.396749+00:00,11.083,11.510,,-5.639,-2.075,,,,
2025-10-14T07:04:16.004437+00:00,11.071,11.989,,-8.544,-3.341,,,,
2025-10-14T07:04:16.607890+00:00,11.059,11.759,,-9.923,-4.295,,,,
2025-10-14T07:04:17.218790+00:00,11.047,10.895,,-9.542,-4.866,,,,
2025-10-14T07:04:17.831877+00:00,11.035,9.702,,-7.432,-4.986,,,,
2025-10-14T07:04:18.437405+00:00,11.024,8.630,,-4.023,-4.648,,,,
2025-10-14T07:04:19.040445+00:00,11.013,8.045,,0.081,-3.891,,,,
2025-10-14T07:04:19.648374+00:00,11.002,8.154,,4.202,-2.773,,,,
2025-10-14T07:04:20.264058+00:00,10.992,8.938,,7.609,-1.382,,,,
2025-10-14T07:04:20.870250+00:00,10.982,10.092,,9.605,0.115,,,,
2025-10-14T07:04:21.474022+00:00,10.972,11.210,,9.901,1.596,,,,
2025-10-14T07:04:22.080958+00:00,10.963,11.902,,8.442,2.939,,,,
2025-10-14T07:04:22.690738+00:00,10.954,11.913,,5.466,4.018,,,,
2025-10-14T07:04:23.299488+00:00,10.946,11.236,,1.516,4.725,,,,
2025-10-14T07:04:23.908702+00:00,10.939,10.114,,-2.709,4.998,,,,
2025-10-14T07:04:24.514602+00:00,10.932,8.956,,-6.430,4.813,,,,
2025-10-14T07:04:25.121588+00:00,10.926,8.170,,-9.015,4.188,,,,
2025-10-14T07:04:25.730357+00:00,10.920,8.037,,-9.998,3.177,,,,
2025-10-14T07:04:26.339889+00:00,10.915,8.612,,-9.190,1.872,,,,
2025-10-14T07:04:26.945947+00:00,10.911,9.679,,-6.752,0.403,,,,
2025-10-14T07:04:27.549116+00:00,10.907,10.855,,-3.136,-1.096,,,,
2025-10-14T07:04:28.160976+00:00,10.904,11.739,,1.091,-2.514,,,,
2025-10-14T07:04:28.770472+00:00,10.902,11.991,,5.106,-3.695,,,,
2025-10-14T07:04:29.376266+00:00,10.901,11.532,,8.192,-4.532,,,,
2025-10-14T07:04:29.979756+00:00,10.900,10.532,,9.823,-4.955,,,,
2025-10-14T07:04:30.590936+00:00,10.900,9.329,,9.715,-4.927,,,,
2025-10-14T07:04:31.203323+00:00,10.901,8.368,,7.850,-4.441,,,,
2025-10-14T07:04:31.814942+00:00,10.902,8.000,,4.569,-3.544,,,,
2025-10-14T07:04:32.420916+00:00,10.905,8.351,,0.503,-2.330,,,,
2025-10-14T07:04:33.035738+00:00,10.908,9.305,,-3.709,-0.882,,,,
2025-10-14T07:04:33.648490+00:00,10.911,10.510,,-7.236,0.643,,,,
2025-10-14T07:04:34.257036+00:00,10.916,11.524,,-9.441,2.099,,,,
2025-10-14T07:04:34.863991+00:00,10.921,11.991,,-9.960,3.360,,,,
2025-10-14T07:04:35.474831+00:00,10.927,11.742,,-8.695,4.318,,,,
2025-10-14T07:04:36.090038+00:00,10.933,10.855,,-5.839,4.878,,,,
2025-10-14T07:04:36.698231+00:00,10.940,9.669,,-1.965,4.983,,,,
2025-10-14T07:04:37.308982+00:00,10.948,8.598,,2.277,4.627,,,,
2025-10-14T07:04:37.918148+00:00,10.956,8.034,,6.100,3.846,,,,
2025-10-14T07:04:38.524477+00:00,10.965,8.175,,8.822,2.717,,,,
2025-10-14T07:04:39.136184+00:00,10.974,8.976,,9.981,1.328,,,,
2025-10-14T07:04:39.748552+00:00,10.984,10.150,,9.336,-0.187,,,,
2025-10-14T07:04:40.357537+00:00,10.994,11.264,,7.018,-1.677,,,,
2025-10-14T07:04:40.965338+00:00,11.004,11.923,,3.452,-3.009,,,,
2025-10-14T07:04:41.576676+00:00,11.015,11.891,,-0.754,-4.071,,,,
2025-10-14T07:04:42.189367+00:00,11.026,11.172,,-4.833,-4.757,,,,
2025-10-14T07:04:42.798984+00:00,11.038,10.032,,-8.023,-5.000,,,,
2025-10-14T07:04:43.401851+00:00,11.049,8.893,,-9.764,-4.786,,,,
2025-10-14T07:04:44.021947+00:00,11.062,8.131,,-9.767,-4.117,,,,
2025-10-14T07:04:44.630136+00:00,11.074,8.059,,-8.008,-3.079,,,,
2025-10-14T07:04:45.233359+00:00,11.086,8.676,,-4.850,-1.769,,,,
2025-10-14T07:04:45.836301+00:00,11.098,9.760,,-0.843,-0.301,,,,
2025-10-14T07:04:46.446849+00:00,11.110,10.941,,3.363,1.213,,,,
2025-10-14T07:04:47.058309+00:00,11.122,11.784,,6.969,2.617,,,,
2025-10-14T07:04:47.663918+00:00,11.134,11.981,,9.302,3.768,,,,
2025-10-14T07:04:48.266710+00:00,11.146,11.478,,9.989,4.574,,,,
2025-10-14T07:04:48.877966+00:00,11.158,10.437,,8.898,4.970,,,,
2025-10-14T07:04:49.489828+00:00,11.169,9.237,,6.198,4.905,,,,
2025-10-14T07:04:50.095179+00:00,11.180,8.321,,2.423,4.392,,,,
2025-10-14T07:04:50.702718+00:00,11.191,8.001,,-1.796,3.476,,,,
2025-10-14T07:04:51.308634+00:00,11.202,8.395,,-5.685,2.245,,,,
2025-10-14T07:04:51.920590+00:00,11.212,9.372,,-8.589,0.795,,,,
2025-10-14T07:04:52.526399+00:00,11.222,10.565,,-9.935,-0.714,,,,
2025-10-14T07:04:53.133716+00:00,11.232,11.559,,-9.519,-2.161,,,,
2025-10-14T07:04:53.739900+00:00,11.240,11.995,,-7.413,-3.408,,,,
2025-10-14T07:04:54.346955+00:00,11.249,11.719,,-3.987,-4.346,,,,
2025-10-14T07:04:54.955238+00:00,11.257,10.827,,0.157,-4.887,,,,
2025-10-14T07:04:55.565187+00:00,11.264,9.635,,4.284,-4.979,,,,
2025-10-14T07:04:56.170969+00:00,11.271,8.580,,7.622,-4.616,,,,
2025-10-14T07:04:56.777970+00:00,11.277,8.030,,9.613,-3.830,,,,
2025-10-14T07:04:57.391436+00:00,11.282,8.190,,9.887,-2.681,,,,
2025-10-14T07:04:57.998926+00:00,11.287,8.999,,8.389,-1.296,,,,
2025-10-14T07:04:58.602280+00:00,11.291,10.158,,5.421,0.198,,,,
2025-10-14T07:04:59.205662+00:00,11.294,11.261,,1.500,1.673,,,,
2025-10-14T07:04:59.821953+00:00,11.297,11.926,,-2.771,3.023,,,,
2025-10-14T07:05:00.430352+00:00,11.298,11.888,,-6.493,4.077,,,,
2025-10-14T07:05:01.033208+00:00,11.300,11.181,,-9.039,4.753,,,,
2025-10-14T07:05:01.636178+00:00,11.300,10.057,,-9.998,4.999,,,,
2025-10-14T07:05:02.247716+00:00,11.300,8.899,,-9.179,4.789,,,,
2025-10-14T07:05:02.858746+00:00,11.299,8.140,,-6.706,4.135,,,,
2025-10-14T07:05:03.463806+00:00,11.297,8.052,,-3.065,3.110,,,,
2025-10-14T07:05:04.071414+00:00,11.294,8.659,,1.136,1.796,,,,
2025-10-14T07:05:04.678070+00:00,11.291,9.744,,5.129,0.321,,,,
2025-10-14T07:05:05.289998+00:00,11.287,10.930,,8.231,-1.197,,,,
2025-10-14T07:05:05.895098+00:00,11.282,11.772,,9.838,-2.589,,,,
2025-10-14T07:05:06.502541+00:00,11.277,11.984,,9.702,-3.750,,,,
2025-10-14T07:05:07.108771+00:00,11.271,11.488,,7.843,-4.566,,,,
2025-10-14T07:05:07.720563+00:00,11.264,10.451,,4.559,-4.968,,,,
2025-10-14T07:05:08.326142+00:00,11.257,9.262,,0.494,-4.911,,,,
2025-10-14T07:05:08.934358+00:00,11.249,8.332,,-3.675,-4.404,,,,
2025-10-14T07:05:09.540175+00:00,11.241,8.000,,-7.176,-3.497,,,,
2025-10-14T07:05:10.147610+00:00,11.232,8.383,,-9.410,-2.269,,,,
2025-10-14T07:05:10.755993+00:00,11.223,9.345,,-9.967,-0.830,,,,
2025-10-14T07:05:11.365485+00:00,11.213,10.545,,-8.741,0.688,,,,
2025-10-14T07:05:11.971948+00:00,11.203,11.545,,-5.964,2.135,,,,
2025-10-14T07:05:12.578340+00:00,11.192,11.993,,-2.128,3.388,,,,
2025-10-14T07:05:13.190965+00:00,11.181,11.725,,2.127,4.339,,,,
2025-10-14T07:05:13.798867+00:00,11.170,10.838,,5.971,4.884,,,,
2025-10-14T07:05:14.402143+00:00,11.159,9.660,,8.734,4.982,,,,
2025-10-14T07:05:15.005190+00:00,11.147,8.602,,9.963,4.630,,,,
2025-10-14T07:05:15.621239+00:00,11.135,8.033,,9.412,3.840,,,,
2025-10-14T07:05:16.234818+00:00,11.123,8.184,,7.149,2.694,,,,
2025-10-14T07:05:16.838173+00:00,11.111,8.981,,3.655,1.321,,,,
2025-10-14T07:05:17.440763+00:00,11.099,10.136,,-0.476,-0.170,,,,
2025-10-14T07:05:18.051958+00:00,11.086,11.256,,-4.577,-1.666,,,,
2025-10-14T07:05:18.663524+00:00,11.074,11.922,,-7.855,-3.008,,,,
2025-10-14T07:05:19.268651+00:00,11.062,11.895,,-9.705,-4.061,,,,
2025-10-14T07:05:19.876247+00:00,11.050,11.191,,-9.835,-4.748,,,,
2025-10-14T07:05:20.485420+00:00,11.039,10.058,,-8.207,-4.999,,,,
2025-10-14T07:05:21.094056+00:00,11.027,8.904,,-5.113,-4.791,,,,
2025-10-14T07:05:21.699908+00:00,11.016,8.147,,-1.123,-4.147,,,,
2025-10-14T07:05:22.307488+00:00,11.005,8.049,,3.077,-3.121,,,,
2025-10-14T07:05:22.913612+00:00,10.995,8.648,,6.721,-1.813,,,,
2025-10-14T07:05:23.526259+00:00,10.985,9.741,,9.191,-0.324,,,,
2025-10-14T07:05:24.131369+00:00,10.975,10.915,,9.998,1.177,,,,
2025-10-14T07:05:24.739465+00:00,10.966,11.767,,9.029,2.578,,,,
2025-10-14T07:05:25.345205+00:00,10.957,11.986,,6.461,3.739,,,,
2025-10-14T07:05:25.952351+00:00,10.949,11.496,,2.739,4.560,,,,
2025-10-14T07:05:26.566306+00:00,10.941,10.458,,-1.517,4.967,,,,
2025-10-14T07:05:27.173752+00:00,10.934,9.265,,-5.460,4.912,,,,
2025-10-14T07:05:27.779330+00:00,10.927,8.337,,-8.422,4.410,,,,
2025-10-14T07:05:28.385984+00:00,10.922,8.000,,-9.895,3.504,,,,
2025-10-14T07:05:28.999314+00:00,10.916,8.385,,-9.598,2.264,,,,
2025-10-14T07:05:29.607460+00:00,10.912,9.349,,-7.582,0.825,,,,
2025-10-14T07:05:30.210442+00:00,10.908,10.536,,-4.245,-0.676,,,,
2025-10-14T07:05:30.813284+00:00,10.905,11.534,,-0.164,-2.117,,,,
2025-10-14T07:05:31.430141+00:00,10.903,11.994,,4.036,-3.392,,,,
2025-10-14T07:05:32.038122+00:00,10.901,11.727,,7.453,-4.336,,,,
2025-10-14T07:05:32.641189+00:00,10.900,10.851,,9.530,-4.880,,,,
2025-10-14T07:05:33.248688+00:00,10.900,9.666,,9.931,-4.982,,,,
2025-10-14T07:05:33.858252+00:00,10.901,8.597,,8.555,-4.627,,,,
2025-10-14T07:05:34.467525+00:00,10.902,8.034,,5.647,-3.845,,,,
2025-10-14T07:05:35.072174+00:00,10.904,8.174,,1.758,-2.719,,,,
2025-10-14T07:05:35.679821+00:00,10.907,8.967,,-2.460,-1.340,,,,
2025-10-14T07:05:36.289533+00:00,10.910,10.134,,-6.252,0.168,,,,
2025-10-14T07:05:36.897971+00:00,10.914,11.251,,-8.918,1.657,,,,
2025-10-14T07:05:37.502949+00:00,10.919,11.916,,-9.989,2.987,,,,
2025-10-14T07:05:38.111130+00:00,10.925,11.900,,-9.288,4.051,,,,
2025-10-14T07:05:38.717075+00:00,10.931,11.205,,-6.939,4.741,,,,
2025-10-14T07:05:39.329260+00:00,10.938,10.069,,-3.320,4.999,,,,
2025-10-14T07:05:39.938937+00:00,10.945,8.912,,0.883,4.795,,,,
2025-10-14T07:05:40.544746+00:00,10.953,8.150,,4.903,4.154,,,,
2025-10-14T07:05:41.148332+00:00,10.962,8.045,,8.046,3.138,,,,
2025-10-14T07:05:41.754974+00:00,10.971,8.636,,9.778,1.833,,,,
2025-10-14T07:05:42.367926+00:00,10.980,9.726,,9.764,0.344,,,,
2025-10-14T07:05:42.975876+00:00,10.990,10.906,,8.000,-1.165,,,,
2025-10-14T07:05:43.579112+00:00,11.000,11.758,,4.839,-2.557,,,,
2025-10-14T07:05:44.186256+00:00,11.011,11.988,,0.800,-3.725,,,,
2025-10-14T07:05:44.799304+00:00,11.022,11.500,,-3.420,-4.557,,,,
2025-10-14T07:05:45.407251+00:00,11.034,10.475,,-6.994,-4.964,,,,
2025-10-14T07:05:46.010993+00:00,11.045,9.288,,-9.310,-4.917,,,,
2025-10-14T07:05:46.618244+00:00,11.057,8.349,,-9.987,-4.422,,,,
2025-10-14T07:05:47.233220+00:00,11.069,8.000,,-8.861,-3.508,,,,
2025-10-14T07:05:47.838976+00:00,11.081,8.374,,-6.169,-2.286,,,,
2025-10-14T07:05:48.441769+00:00,11.093,9.320,,-2.404,-0.863,,,,
2025-10-14T07:05:49.049678+00:00,11.105,10.516,,1.817,0.651,,,,
2025-10-14T07:05:49.659296+00:00,11.117,11.529,,5.724,2.108,,,,
2025-10-14T07:05:50.268103+00:00,11.129,11.992,,8.602,3.370,,,,
2025-10-14T07:05:50.873399+00:00,11.141,11.742,,9.938,4.318,,,,
2025-10-14T07:05:51.480791+00:00,11.153,10.869,,9.512,4.874,,,,
2025-10-14T07:05:52.090387+00:00,11.165,9.681,,7.382,4.984,,,,
2025-10-14T07:05:52.699242+00:00,11.176,8.609,,3.933,4.635,,,,
2025-10-14T07:05:53.308571+00:00,11.187,8.037,,-0.223,3.859,,,,
2025-10-14T07:05:53.917364+00:00,11.198,8.171,,-4.336,2.729,,,,
2025-10-14T07:05:54.520431+00:00,11.208,8.952,,-7.647,1.361,,,,
2025-10-14T07:05:55.132636+00:00,11.219,10.121,,-9.633,-0.152,,,,
2025-10-14T07:05:55.742871+00:00,11.228,11.244,,-9.879,-1.646,,,,
2025-10-14T07:05:56.348276+00:00,11.237,11.914,,-8.368,-2.979,,,,
2025-10-14T07:05:56.951533+00:00,11.246,11.905,,-5.389,-4.037,,,,
2025-10-14T07:05:57.558190+00:00,11.254,11.219,,-1.440,-4.734,,,,
2025-10-14T07:05:58.171197+00:00,11.261,10.084,,2.808,-4.999,,,,
2025-10-14T07:05:58.778973+00:00,11.268,8.928,,6.519,-4.801,,,,
2025-10-14T07:05:59.382108+00:00,11.274,8.160,,9.054,-4.170,,,,
2025-10-14T07:05:59.993321+00:00,11.280,8.044,,9.999,-3.147,,,,
2025-10-14T07:06:00.602402+00:00,11.285,8.633,,9.149,-1.837,,,,
2025-10-14T07:06:01.210186+00:00,11.289,9.711,,6.667,-0.362,,,,
2025-10-14T07:06:01.813242+00:00,11.293,10.885,,3.027,1.136,,,,
2025-10-14T07:06:02.421077+00:00,11.296,11.751,,-1.176,2.541,,,,
2025-10-14T07:06:03.035399+00:00,11.298,11.988,,-5.209,3.724,,,,
2025-10-14T07:06:03.640717+00:00,11.299,11.510,,-8.258,4.549,,,,
2025-10-14T07:06:04.243252+00:00,11.300,10.501,,-9.843,4.960,,,,
2025-10-14T07:06:04.850653+00:00,11.300,9.307,,-9.695,4.922,,,,
2025-10-14T07:06:05.460434+00:00,11.299,8.357,,-7.809,4.431,,,,
2025-10-14T07:06:06.068511+00:00,11.298,8.000,,-4.533,3.534,,,,
2025-10-14T07:06:06.673342+00:00,11.295,8.356,,-0.471,2.320,,,,
2025-10-14T07:06:07.281090+00:00,11.292,9.301,,3.694,0.888,,,,
2025-10-14T07:06:07.890440+00:00,11.289,10.499,,7.207,-0.629,,,,
2025-10-14T07:06:08.499148+00:00,11.284,11.517,,9.428,-2.086,,,,
2025-10-14T07:06:09.108816+00:00,11.279,11.990,,9.962,-3.354,,,,
2025-10-14T07:06:09.714753+00:00,11.273,11.750,,8.722,-4.308,,,,
2025-10-14T07:06:10.318632+00:00,11.267,10.890,,5.948,-4.868,,,,
2025-10-14T07:06:10.930002+00:00,11.260,9.701,,2.076,-4.986,,,,
2025-10-14T07:06:11.540020+00:00,11.252,8.622,,-2.163,-4.643,,,,
2025-10-14T07:06:12.146235+00:00,11.244,8.042,,-5.991,-3.878,,,,
2025-10-14T07:06:12.749029+00:00,11.236,8.157,,-8.744,-2.766,,,,
2025-10-14T07:06:13.355826+00:00,11.227,8.928,,-9.967,-1.395,,,,
2025-10-14T07:06:13.968482+00:00,11.217,10.094,,-9.404,0.118,,,,
2025-10-14T07:06:14.576300+00:00,11.207,11.218,,-7.161,1.608,,,,
2025-10-14T07:06:15.179343+00:00,11.196,11.903,,-3.673,2.942,,,,
2025-10-14T07:06:15.789519+00:00,11.185,11.912,,0.510,4.020,,,,
2025-10-14T07:06:16.400913+00:00,11.174,11.230,,4.609,4.728,,,,
2025-10-14T07:06:17.006116+00:00,11.163,10.114,,7.850,4.998,,,,
2025-10-14T07:06:17.608956+00:00,11.151,8.962,,9.699,4.815,,,,
2025-10-14T07:06:18.216597+00:00,11.139,8.172,,9.840,4.191,,,,
2025-10-14T07:06:18.831130+00:00,11.127,8.039,,8.200,3.170,,,,
2025-10-14T07:06:19.436682+00:00,11.115,8.611,,5.120,1.873,,,,
2025-10-14T07:06:20.039838+00:00,11.103,9.672,,1.151,0.411,,,,
2025-10-14T07:06:20.647194+00:00,11.091,10.857,,-3.049,-1.097,,,,
2025-10-14T07:06:21.256814+00:00,11.079,11.737,,-6.717,-2.511,,,,
2025-10-14T07:06:21.865514+00:00,11.067,11.992,,-9.179,-3.691,,,,
2025-10-14T07:06:22.474906+00:00,11.055,11.530,,-9.998,-4.533,,,,
2025-10-14T07:06:23.081072+00:00,11.043,10.524,,-9.036,-4.956,,,,
2025-10-14T07:06:23.688080+00:00,11.032,9.329,,-6.466,-4.927,,,,
2025-10-14T07:06:24.296795+00:00,11.020,8.372,,-2.735,-4.446,,,,
2025-10-14T07:06:24.906411+00:00,11.009,8.000,,1.491,-3.554,,,,
2025-10-14T07:06:25.512029+00:00,10.999,8.344,,5.427,-2.344,,,,
2025-10-14T07:06:26.115216+00:00,10.989,9.272,,8.392,-0.926,,,,
2025-10-14T07:06:26.727472+00:00,10.979,10.475,,9.893,0.598,,,,
2025-10-14T07:06:27.337076+00:00,10.969,11.502,,9.610,2.060,,,,
2025-10-14T07:06:27.943234+00:00,10.960,11.987,,7.618,3.326,,,,
2025-10-14T07:06:28.546077+00:00,10.952,11.767,,4.297,4.284,,,,
2025-10-14T07:06:29.156881+00:00,10.944,10.910,,0.166,4.861,,,,
2025-10-14T07:06:29.768599+00:00,10.937,9.722,,-4.001,4.988,,,,
2025-10-14T07:06:30.373591+00:00,10.930,8.645,,-7.414,4.658,,,,
2025-10-14T07:06:30.976454+00:00,10.924,8.050,,-9.512,3.908,,,,
2025-10-14T07:06:31.587561+00:00,10.918,8.148,,-9.935,2.789,,,,
2025-10-14T07:06:32.198468+00:00,10.914,8.917,,-8.568,1.412,,,,
2025-10-14T07:06:32.802118+00:00,10.910,10.062,,-5.700,-0.078,,,,
2025-10-14T07:06:33.406809+00:00,10.906,11.188,,-1.822,-1.563,,,,
2025-10-14T07:06:34.014433+00:00,10.904,11.894,,2.397,-2.912,,,,
2025-10-14T07:06:34.624553+00:00,10.902,11.921,,6.204,-3.998,,,,
2025-10-14T07:06:35.232485+00:00,10.900,11.258,,8.888,-4.714,,,,
2025-10-14T07:06:35.842202+00:00,10.900,10.141,,9.988,-4.997,,,,
2025-10-14T07:06:36.448220+00:00,10.900,8.979,,9.305,-4.822,,,,
2025-10-14T07:06:37.051268+00:00,10.901,8.184,,6.988,-4.211,,,,
2025-10-14T07:06:37.663341+00:00,10.903,8.032,,3.384,-3.203,,,,
2025-10-14T07:06:38.272839+00:00,10.906,8.592,,-0.813,-1.904,,,,
2025-10-14T07:06:38.878788+00:00,10.909,9.651,,-4.843,-0.438,,,,
2025-10-14T07:06:39.482405+00:00,10.913,10.831,,-8.005,1.062,,,,
2025-10-14T07:06:40.088615+00:00,10.917,11.719,,-9.763,2.472,,,,
2025-10-14T07:06:40.701863+00:00,10.923,11.994,,-9.778,3.669,,,,
2025-10-14T07:06:41.309726+00:00,10.928,11.549,,-8.042,4.517,,,,
2025-10-14T07:06:41.912932+00:00,10.935,10.558,,-4.900,4.950,,,,
2025-10-14T07:06:42.524153+00:00,10.942,9.355,,-0.842,4.933,,,,
2025-10-14T07:06:43.135260+00:00,10.950,8.385,,3.368,4.458,,,,
2025-10-14T07:06:43.740522+00:00,10.958,8.001,,6.941,3.581,,,,
2025-10-14T07:06:44.343843+00:00,10.967,8.324,,9.282,2.383,,,,
2025-10-14T07:06:44.951098+00:00,10.976,9.247,,9.990,0.960,,,,
2025-10-14T07:06:45.565992+00:00,10.986,10.453,,8.897,-0.570,,,,
2025-10-14T07:06:46.171254+00:00,10.996,11.481,,6.233,-2.025,,,,
2025-10-14T07:06:46.773822+00:00,11.007,11.982,,2.485,-3.290,,,,
2025-10-14T07:06:47.381625+00:00,11.018,11.780,,-1.735,-4.266,,,,
2025-10-14T07:06:47.991507+00:00,11.029,10.937,,-5.657,-4.852,,,,
2025-10-14T07:06:48.599993+00:00,11.041,9.758,,-8.559,-4.991,,,,
2025-10-14T07:06:49.209766+00:00,11.052,8.665,,-9.932,-4.670,,,,
2025-10-14T07:06:49.815246+00:00,11.064,8.055,,-9.532,-3.925,,,,
2025-10-14T07:06:50.421958+00:00,11.076,8.137,,-7.440,-2.820,,,,
2025-10-14T07:06:51.031012+00:00,11.088,8.888,,-4.010,-1.453,,,,
2025-10-14T07:06:51.640394+00:00,11.100,10.040,,0.139,0.050,,,,
2025-10-14T07:06:52.246440+00:00,11.113,11.172,,4.243,1.539,,,,
2025-10-14T07:06:52.849274+00:00,11.125,11.884,,7.579,2.882,,,,
2025-10-14T07:06:53.461416+00:00,11.137,11.927,,9.605,3.979,,,,
2025-10-14T07:06:54.069314+00:00,11.148,11.277,,9.897,4.703,,,,
2025-10-14T07:06:54.676593+00:00,11.160,10.171,,8.427,4.995,,,,
2025-10-14T07:06:55.279296+00:00,11.172,9.011,,5.484,4.834,,,,
2025-10-14T07:06:55.890848+00:00,11.183,8.192,,1.518,4.225,,,,
2025-10-14T07:06:56.501956+00:00,11.194,8.028,,-2.719,3.225,,,,
2025-10-14T07:06:57.107291+00:00,11.204,8.570,,-6.436,1.939,,,,
2025-10-14T07:06:57.709970+00:00,11.214,9.615,,-9.005,0.484,,,,
2025-10-14T07:06:58.317630+00:00,11.224,10.804,,-9.997,-1.027,,,,
2025-10-14T07:06:58.932530+00:00,11.234,11.713,,-9.187,-2.460,,,,
2025-10-14T07:06:59.537499+00:00,11.242,11.996,,-6.752,-3.645,,,,
2025-10-14T07:07:00.140744+00:00,11.251,11.572,,-3.136,-4.497,,,,
2025-10-14T07:07:00.748471+00:00,11.258,10.585,,1.062,-4.945,,,,
2025-10-14T07:07:01.355030+00:00,11.265,9.390,,5.064,-4.940,,,,
2025-10-14T07:07:01.966607+00:00,11.272,8.407,,8.187,-4.479,,,,
2025-10-14T07:07:02.571180+00:00,11.278,8.002,,9.823,-3.614,,,,
2025-10-14T07:07:03.178406+00:00,11.283,8.308,,9.722,-2.416,,,,
2025-10-14T07:07:03.788023+00:00,11.288,9.223,,7.880,-0.991,,,,
2025-10-14T07:07:04.396384+00:00,11.291,10.416,,4.633,0.523,,,,
2025-10-14T07:07:05.001456+00:00,11.295,11.455,,0.581,1.981,,,,
2025-10-14T07:07:05.609189+00:00,11.297,11.978,,-3.591,3.264,,,,
2025-10-14T07:07:06.215092+00:00,11.299,11.794,,-7.114,4.245,,,,
2025-10-14T07:07:06.827244+00:00,11.300,10.961,,-9.391,4.844,,,,
2025-10-14T07:07:07.432242+00:00,11.300,9.793,,-9.974,4.993,,,,
2025-10-14T07:07:08.039697+00:00,11.299,8.694,,-8.786,4.687,,,,
2025-10-14T07:07:08.645777+00:00,11.298,8.064,,-6.041,3.954,,,,
2025-10-14T07:07:09.252214+00:00,11.296,8.123,,-2.223,2.860,,,,
2025-10-14T07:07:09.865509+00:00,11.294,8.863,,2.037,1.489,,,,
2025-10-14T07:07:10.473423+00:00,11.290,10.007,,5.897,-0.008,,,,
2025-10-14T07:07:11.076372+00:00,11.286,11.140,,8.688,-1.493,,,,
2025-10-14T07:07:11.683302+00:00,11.281,11.873,,9.957,-2.850,,,,
2025-10-14T07:07:12.295756+00:00,11.276,11.935,,9.442,-3.956,,,,
2025-10-14T07:07:12.903583+00:00,11.270,11.301,,7.242,-4.690,,,,
2025-10-14T07:07:13.506751+00:00,11.263,10.209,,3.780,-4.993,,,,
2025-10-14T07:07:14.109426+00:00,11.256,9.045,,-0.343,-4.846,,,,
2025-10-14T07:07:14.725454+00:00,11.248,8.205,,-4.489,-4.245,,,,
2025-10-14T07:07:15.333718+00:00,11.239,8.023,,-7.779,-3.258,,,,
2025-10-14T07:07:15.936953+00:00,11.230,8.543,,-9.671,-1.985,,,,
2025-10-14T07:07:16.544650+00:00,11.221,9.586,,-9.859,-0.521,,,,
2025-10-14T07:07:17.154129+00:00,11.211,10.780,,-8.283,0.995,,,,
2025-10-14T07:07:17.763013+00:00,11.201,11.693,,-5.225,2.418,,,,
2025-10-14T07:07:18.368273+00:00,11.190,11.998,,-1.258,3.613,,,,
2025-10-14T07:07:18.975513+00:00,11.179,11.590,,2.945,4.481,,,,
2025-10-14T07:07:19.584931+00:00,11.168,10.610,,6.635,4.940,,,,
2025-10-14T07:07:20.193764+00:00,11.156,9.411,,9.135,4.944,,,,
2025-10-14T07:07:20.798645+00:00,11.144,8.429,,10.000,4.498,,,,
2025-10-14T07:07:21.406533+00:00,11.132,8.003,,9.090,3.638,,,,
2025-10-14T07:07:22.012261+00:00,11.120,8.291,,6.571,2.450,,,,
2025-10-14T07:07:22.623845+00:00,11.108,9.198,,2.848,1.024,,,,
2025-10-14T07:07:23.233839+00:00,11.096,10.392,,-1.377,-0.493,,,,
2025-10-14T07:07:23.839414+00:00,11.084,11.439,,-5.329,-1.954,,,,
2025-10-14T07:07:24.442888+00:00,11.072,11.973,,-8.330,-3.233,,,,
2025-10-14T07:07:25.049776+00:00,11.060,11.807,,-9.870,-4.225,,,,
2025-10-14T07:07:25.663047+00:00,11.048,10.985,,-9.643,-4.835,,,,
2025-10-14T07:07:26.271553+00:00,11.036,9.813,,-7.688,-4.995,,,,
2025-10-14T07:07:26.874588+00:00,11.025,8.717,,-4.394,-4.700,,,,
2025-10-14T07:07:27.481104+00:00,11.014,8.071,,-0.303,-3.976,,,,
2025-10-14T07:07:28.094514+00:00,11.003,8.118,,3.885,-2.875,,,,
2025-10-14T07:07:28.702144+00:00,10.993,8.842,,7.341,-1.519,,,,
2025-10-14T07:07:29.305423+00:00,10.983,9.972,,9.479,-0.036,,,,
2025-10-14T07:07:29.913597+00:00,10.973,11.119,,9.948,1.463,,,,
2025-10-14T07:07:30.522856+00:00,10.964,11.866,,8.638,2.830,,,,
2025-10-14T07:07:31.132010+00:00,10.955,11.942,,5.780,3.936,,,,
2025-10-14T07:07:31.736764+00:00,10.947,11.325,,1.918,4.676,,,,
2025-10-14T07:07:32.344285+00:00,10.940,10.233,,-2.302,4.991,,,,
2025-10-14T07:07:32.954125+00:00,10.933,9.054,,-6.125,4.849,,,,
2025-10-14T07:07:33.562228+00:00,10.926,8.217,,-8.842,4.261,,,,
2025-10-14T07:07:34.167435+00:00,10.921,8.018,,-9.981,3.288,,,,
2025-10-14T07:07:34.775347+00:00,10.916,8.528,,-9.347,2.010,,,,
2025-10-14T07:07:35.381463+00:00,10.911,9.561,,-7.056,0.552,,,,
2025-10-14T07:07:35.993818+00:00,10.908,10.762,,-3.472,-0.971,,,,
2025-10-14T07:07:36.603618+00:00,10.905,11.684,,0.722,-2.399,,,,
2025-10-14T07:07:37.209432+00:00,10.902,11.999,,4.762,-3.598,,,,
2025-10-14T07:07:37.812796+00:00,10.901,11.605,,7.948,-4.467,,,,
2025-10-14T07:07:38.419128+00:00,10.900,10.639,,9.742,-4.934,,,,
2025-10-14T07:07:39.032057+00:00,10.900,9.433,,9.798,-4.948,,,,
2025-10-14T07:07:39.640167+00:00,10.901,8.439,,8.098,-4.507,,,,
2025-10-14T07:07:40.243170+00:00,10.902,8.005,,4.983,-3.661,,,,
2025-10-14T07:07:40.849863+00:00,10.904,8.279,,0.968,-2.476,,,,
2025-10-14T07:07:41.462863+00:00,10.907,9.179,,-3.260,-1.050,,,,
2025-10-14T07:07:42.070971+00:00,10.911,10.368,,-6.873,0.462,,,,
2025-10-14T07:07:42.674196+00:00,10.915,11.418,,-9.246,1.920,,,,
2025-10-14T07:07:43.281313+00:00,10.920,11.969,,-9.994,3.212,,,,
2025-10-14T07:07:43.895941+00:00,10.926,11.810,,-8.941,4.221,,,,
2025-10-14T07:07:44.501478+00:00,10.932,11.004,,-6.307,4.828,,,,
2025-10-14T07:07:45.104021+00:00,10.939,9.847,,-2.577,4.996,,,,
2025-10-14T07:07:45.711903+00:00,10.947,8.736,,1.641,4.710,,,,
2025-10-14T07:07:46.321268+00:00,10.955,8.076,,5.575,3.990,,,,
2025-10-14T07:07:46.929818+00:00,10.963,8.109,,8.507,2.904,,,,
2025-10-14T07:07:47.535200+00:00,10.972,8.815,,9.916,1.559,,,,
2025-10-14T07:07:48.142442+00:00,10.982,9.947,,9.567,0.067,,,,
2025-10-14T07:07:48.752034+00:00,10.992,11.101,,7.504,-1.437,,,,
2025-10-14T07:07:49.361078+00:00,11.003,11.858,,4.099,-2.806,,,,
2025-10-14T07:07:49.970232+00:00,11.013,11.947,,-0.041,-3.918,,,,
2025-10-14T07:07:50.576097+00:00,11.024,11.341,,-4.152,-4.666,,,,
2025-10-14T07:07:51.179043+00:00,11.036,10.263,,-7.515,-4.989,,,,
2025-10-14T07:07:51.790783+00:00,11.047,9.076,,-9.576,-4.857,,,,
2025-10-14T07:07:52.400960+00:00,11.059,8.227,,-9.909,-4.275,,,,
2025-10-14T07:07:53.006251+00:00,11.071,8.016,,-8.480,-3.308,,,,
2025-10-14T07:07:53.609508+00:00,11.083,8.507,,-5.564,-2.045,,,,
2025-10-14T07:07:54.216385+00:00,11.095,9.532,,-1.644,-0.589,,,,
2025-10-14T07:07:54.829361+00:00,11.108,10.736,,2.608,0.937,,,,
2025-10-14T07:07:55.437761+00:00,11.120,11.667,,6.364,2.365,,,,
2025-10-14T07:07:56.040425+00:00,11.132,12.000,,8.964,3.566,,,,
2025-10-14T07:07:56.648025+00:00,11.144,11.622,,9.994,4.451,,,,
2025-10-14T07:07:57.257610+00:00,11.155,10.660,,9.238,4.929,,,,
2025-10-14T07:07:57.866200+00:00,11.167,9.462,,6.830,4.954,,,,
2025-10-14T07:07:58.471217+00:00,11.178,8.462,,3.225,4.527,,,,
2025-10-14T07:07:59.079218+00:00,11.189,8.007,,-0.970,3.683,,,,
2025-10-14T07:07:59.688870+00:00,11.200,8.268,,-5.003,2.499,,,,
2025-10-14T07:08:00.297684+00:00,11.210,9.152,,-8.135,1.086,,,,
2025-10-14T07:08:00.902606+00:00,11.220,10.333,,-9.806,-0.417,,,,
2025-10-14T07:08:01.510235+00:00,11.230,11.399,,-9.741,-1.889,,,,
2025-10-14T07:08:02.116527+00:00,11.239,11.964,,-7.946,-3.185,,,,
2025-10-14T07:08:02.727917+00:00,11.247,11.825,,-4.709,-4.197,,,,
2025-10-14T07:08:03.337447+00:00,11.255,11.028,,-0.636,-4.819,,,,
2025-10-14T07:08:03.943650+00:00,11.263,9.867,,3.529,-4.997,,,,
2025-10-14T07:08:04.546827+00:00,11.269,8.759,,7.054,-4.722,,,,
2025-10-14T07:08:05.153494+00:00,11.275,8.086,,9.348,-4.016,,,,
2025-10-14T07:08:05.766677+00:00,11.281,8.101,,9.978,-2.930,,,,
2025-10-14T07:08:06.374512+00:00,11.286,8.799,,8.816,-1.583,,,,
2025-10-14T07:08:07.004421+00:00,11.290,9.971,,5.959,-0.036,,,,
2025-10-14T07:08:07.610481+00:00,11.294,11.116,,2.125,1.458,,,,
2025-10-14T07:08:08.223273+00:00,11.296,11.867,,-2.132,2.833,,,,
2025-10-14T07:08:08.831596+00:00,11.298,11.942,,-5.977,3.937,,,,
2025-10-14T07:08:09.434539+00:00,11.299,11.327,,-8.737,4.674,,,,
2025-10-14T07:08:10.042264+00:00,11.300,10.236,,-9.966,4.991,,,,
2025-10-14T07:08:10.656741+00:00,11.300,9.047,,-9.402,4.847,,,,
2025-10-14T07:08:11.262048+00:00,11.299,8.216,,-7.171,4.260,,,,
2025-10-14T07:08:11.865381+00:00,11.297,8.018,,-3.684,3.290,,,,
2025-10-14T07:08:12.472372+00:00,11.295,8.525,,0.476,2.015,,,,
2025-10-14T07:08:13.081801+00:00,11.292,9.563,,4.566,0.549,,,,
2025-10-14T07:08:13.690779+00:00,11.288,10.758,,7.836,-0.966,,,,
2025-10-14T07:08:14.295446+00:00,11.283,11.676,,9.696,-2.383,,,,
2025-10-14T07:08:14.903278+00:00,11.278,11.999,,9.841,-3.589,,,,
2025-10-14T07:08:15.512398+00:00,11.272,11.605,,8.226,-4.468,,,,
2025-10-14T07:08:16.120979+00:00,11.266,10.634,,5.141,-4.935,,,,
2025-10-14T07:08:16.730905+00:00,11.258,9.433,,1.128,-4.948,,,,
2025-10-14T07:08:17.336296+00:00,11.251,8.442,,-3.058,-4.510,,,,
2025-10-14T07:08:17.939643+00:00,11.242,8.006,,-6.692,-3.665,,,,
2025-10-14T07:08:18.551663+00:00,11.234,8.282,,-9.174,-2.470,,,,
2025-10-14T07:08:19.161319+00:00,11.224,9.178,,-9.998,-1.052,,,,
2025-10-14T07:08:19.767722+00:00,11.215,10.363,,-9.039,0.456,,,,
2025-10-14T07:08:20.370754+00:00,11.204,11.415,,-6.493,1.914,,,,
2025-10-14T07:08:20.977536+00:00,11.194,11.968,,-2.782,3.207,,,,
2025-10-14T07:08:21.590863+00:00,11.183,11.814,,1.469,4.215,,,,
2025-10-14T07:08:22.198000+00:00,11.172,11.009,,5.416,4.826,,,,
2025-10-14T07:08:22.801085+00:00,11.160,9.851,,8.385,4.997,,,,
2025-10-14T07:08:23.412057+00:00,11.149,8.734,,9.890,4.709,,,,
2025-10-14T07:08:24.023311+00:00,11.137,8.075,,9.612,3.986,,,,
2025-10-14T07:08:24.628672+00:00,11.125,8.109,,7.629,2.904,,,,
2025-10-14T07:08:25.231304+00:00,11.113,8.810,,4.313,1.566,,,,
2025-10-14T07:08:25.839185+00:00,11.101,9.942,,0.204,0.073,,,,
2025-10-14T07:08:26.454214+00:00,11.088,11.106,,-3.987,-1.444,,,,
2025-10-14T07:08:27.059179+00:00,11.076,11.857,,-7.404,-2.804,,,,
2025-10-14T07:08:27.662099+00:00,11.064,11.950,,-9.508,-3.907,,,,
2025-10-14T07:08:28.269990+00:00,11.052,11.348,,-9.939,-4.662,,,,
2025-10-14T07:08:28.879540+00:00,11.041,10.260,,-8.592,-4.989,,,,
2025-10-14T07:08:29.488429+00:00,11.029,9.079,,-5.708,-4.858,,,,
2025-10-14T07:08:30.097680+00:00,11.018,8.229,,-1.800,-4.279,,,,
2025-10-14T07:08:30.703501+00:00,11.007,8.015,,2.407,-3.312,,,,
2025-10-14T07:08:31.310465+00:00,10.996,8.509,,6.194,-2.041,,,,
2025-10-14T07:08:31.918548+00:00,10.986,9.538,,8.883,-0.581,,,,
2025-10-14T07:08:32.528054+00:00,10.976,10.735,,9.987,0.936,,,,
2025-10-14T07:08:33.134154+00:00,10.967,11.664,,9.310,2.359,,,,
2025-10-14T07:08:33.736852+00:00,10.958,12.000,,6.999,3.561,,,,
2025-10-14T07:08:34.348954+00:00,10.950,11.620,,3.398,4.453,,,,
2025-10-14T07:08:34.958519+00:00,10.942,10.657,,-0.799,4.930,,,,
2025-10-14T07:08:35.564369+00:00,10.935,9.464,,-4.830,4.954,,,,
2025-10-14T07:08:36.167733+00:00,10.929,8.465,,-7.995,4.529,,,,
2025-10-14T07:08:36.778402+00:00,10.923,8.007,,-9.766,3.683,,,,
2025-10-14T07:08:37.389652+00:00,10.917,8.270,,-9.778,2.495,,,,
2025-10-14T07:08:37.995186+00:00,10.913,9.149,,-8.052,1.090,,,,
2025-10-14T07:08:38.597834+00:00,10.909,10.325,,-4.918,-0.407,,,,
2025-10-14T07:08:39.205626+00:00,10.906,11.394,,-0.885,-1.880,,,,
2025-10-14T07:08:39.820385+00:00,10.903,11.966,,3.351,-3.194,,,,
2025-10-14T07:08:40.425560+00:00,10.901,11.826,,6.928,-4.195,,,,
2025-10-14T07:08:41.028611+00:00,10.900,11.041,,9.274,-4.814,,,,
2025-10-14T07:08:41.635800+00:00,10.900,9.881,,9.991,-4.998,,,,
2025-10-14T07:08:42.245545+00:00,10.900,8.759,,8.922,-4.723,,,,
2025-10-14T07:08:42.854128+00:00,10.902,8.085,,6.259,-4.014,,,,
2025-10-14T07:08:43.463611+00:00,10.904,8.099,,2.471,-2.934,,,,
2025-10-14T07:08:44.069642+00:00,10.906,8.792,,-1.737,-1.592,,,,
2025-10-14T07:08:44.678511+00:00,10.910,9.921,,-5.653,-0.098,,,,
2025-10-14T07:08:45.286980+00:00,10.914,11.078,,-8.556,1.404,,,,
2025-10-14T07:08:45.896500+00:00,10.918,11.848,,-9.931,2.779,,,,
2025-10-14T07:08:46.501768+00:00,10.924,11.955,,-9.535,3.892,,,,
2025-10-14T07:08:47.105012+00:00,10.930,11.370,,-7.462,4.648,,,,
2025-10-14T07:08:47.717500+00:00,10.937,10.283,,-4.018,4.987,,,,
2025-10-14T07:08:48.327031+00:00,10.944,9.099,,0.131,4.864,,,,
2025-10-14T07:08:48.933151+00:00,10.952,8.242,,4.236,4.297,,,,
2025-10-14T07:08:49.536162+00:00,10.960,8.011,,7.575,3.343,,,,
2025-10-14T07:08:50.142965+00:00,10.969,8.487,,9.592,2.080,,,,
2025-10-14T07:08:50.756112+00:00,10.979,9.515,,9.898,0.611,,,,
2025-10-14T07:08:51.363535+00:00,10.988,10.709,,8.430,-0.901,,,,
2025-10-14T07:08:51.966873+00:00,10.999,11.645,,5.485,-2.322,,,,
2025-10-14T07:08:52.577808+00:00,11.009,12.000,,1.523,-3.546,,,,
2025-10-14T07:08:53.189106+00:00,11.020,11.631,,-2.716,-4.442,,,,
2025-10-14T07:08:53.795090+00:00,11.032,10.681,,-6.436,-4.925,,,,
2025-10-14T07:08:54.398341+00:00,11.043,9.494,,-9.007,-4.959,,,,
2025-10-14T07:08:55.006213+00:00,11.055,8.480,,-9.997,-4.541,,,,
2025-10-14T07:08:55.624213+00:00,11.067,8.008,,-9.176,-3.690,,,,
2025-10-14T07:08:56.229367+00:00,11.079,8.260,,-6.731,-2.517,,,,
2025-10-14T07:08:56.832656+00:00,11.091,9.127,,-3.109,-1.119,,,,
2025-10-14T07:08:57.441287+00:00,11.103,10.313,,1.097,0.392,,,,
2025-10-14T07:08:58.051172+00:00,11.115,11.388,,5.114,1.871,,,,
