ts_iso,batt_v,airspeed_ms,groundspeed_ms,roll_deg,pitch_deg,yaw_deg,lat,lon,alt_m
2025-10-17T14:43:09.147897+00:00,,,,,,,,,
2025-10-17T14:43:09.764827+00:00,,,,,,,,,
2025-10-17T14:43:10.366243+00:00,,,,,,,,,
2025-10-17T14:43:10.970366+00:00,,,,,,,,,
2025-10-17T14:43:11.952891+00:00,,,,,,,,,
2025-10-17T14:43:12.557889+00:00,,,,,,,,,
2025-10-17T14:43:13.160811+00:00,,,,,,,,,
2025-10-17T14:43:13.778209+00:00,11.112,11.158,,4.189,1.519,,,,
2025-10-17T14:43:14.381505+00:00,11.124,11.879,,7.543,2.866,,,,
2025-10-17T14:43:15.001892+00:00,11.137,11.927,,9.605,3.980,,,,
2025-10-17T14:43:15.614769+00:00,11.149,11.269,,9.892,4.707,,,,
2025-10-17T14:43:16.223110+00:00,11.160,10.158,,8.403,4.996,,,,
2025-10-17T14:43:16.842897+00:00,11.172,8.971,,5.346,4.818,,,,
2025-10-17T14:43:17.449921+00:00,11.183,8.176,,1.387,4.199,,,,
2025-10-17T14:43:18.052628+00:00,11.194,8.032,,-2.790,3.204,,,,
2025-10-17T14:43:18.658585+00:00,11.205,8.586,,-6.495,1.913,,,,
2025-10-17T14:43:19.270084+00:00,11.215,9.654,,-9.065,0.434,,,,
2025-10-17T14:43:19.875088+00:00,11.224,10.836,,-9.999,-1.070,,,,
2025-10-17T14:43:20.482534+00:00,11.234,11.723,,-9.160,-2.482,,,,
2025-10-17T14:43:21.087127+00:00,11.242,11.995,,-6.703,-3.661,,,,
2025-10-17T14:43:21.695786+00:00,11.251,11.554,,-3.037,-4.513,,,,
2025-10-17T14:43:22.302111+00:00,11.258,10.559,,1.156,-4.950,,,,
2025-10-17T14:43:22.913209+00:00,11.266,9.356,,5.172,-4.933,,,,
2025-10-17T14:43:23.522483+00:00,11.272,8.388,,8.249,-4.461,,,,
2025-10-17T14:43:24.135882+00:00,11.278,8.000,,9.854,-3.571,,,,
2025-10-17T14:43:24.743888+00:00,11.283,8.335,,9.678,-2.360,,,,
2025-10-17T14:43:25.347638+00:00,11.288,9.259,,7.795,-0.943,,,,
2025-10-17T14:43:25.950919+00:00,11.292,10.444,,4.543,0.558,,,,
2025-10-17T14:43:26.563219+00:00,11.295,11.484,,0.430,2.030,,,,
2025-10-17T14:43:27.172372+00:00,11.297,11.984,,-3.741,3.307,,,,
2025-10-17T14:43:27.779175+00:00,11.299,11.773,,-7.230,4.276,,,,
2025-10-17T14:43:28.381823+00:00,11.300,10.936,,-9.425,4.853,,,,
2025-10-17T14:43:28.988374+00:00,11.300,9.761,,-9.965,4.991,,,,
2025-10-17T14:43:29.592434+00:00,11.299,8.676,,-8.744,4.676,,,,
2025-10-17T14:43:30.197438+00:00,11.298,8.058,,-5.977,3.936,,,,
2025-10-17T14:43:30.803116+00:00,11.296,8.131,,-2.150,2.838,,,,
2025-10-17T14:43:31.408975+00:00,11.294,8.869,,2.060,1.481,,,,
2025-10-17T14:43:32.017211+00:00,11.290,10.014,,5.917,-0.017,,,,
2025-10-17T14:43:32.622830+00:00,11.286,11.150,,8.710,-1.508,,,,
2025-10-17T14:43:33.226399+00:00,11.281,11.876,,9.958,-2.856,,,,
2025-10-17T14:43:33.834231+00:00,11.276,11.936,,9.446,-3.954,,,,
2025-10-17T14:43:34.443422+00:00,11.270,11.301,,7.243,-4.690,,,,
2025-10-17T14:43:35.055900+00:00,11.263,10.192,,3.721,-4.994,,,,
2025-10-17T14:43:35.664574+00:00,11.256,9.019,,-0.447,-4.837,,,,
2025-10-17T14:43:36.274734+00:00,11.248,8.197,,-4.546,-4.232,,,,
2025-10-17T14:43:36.880220+00:00,11.239,8.025,,-7.807,-3.246,,,,
2025-10-17T14:43:37.484080+00:00,11.230,8.552,,-9.683,-1.969,,,,
2025-10-17T14:43:38.091086+00:00,11.221,9.598,,-9.852,-0.505,,,,
2025-10-17T14:43:38.704276+00:00,11.211,10.799,,-8.243,1.020,,,,
2025-10-17T14:43:39.318266+00:00,11.200,11.709,,-5.135,2.451,,,,
2025-10-17T14:43:39.921875+00:00,11.190,11.997,,-1.165,3.636,,,,
2025-10-17T14:43:40.526980+00:00,11.179,11.577,,3.021,4.493,,,,
2025-10-17T14:43:41.134734+00:00,11.167,10.592,,6.686,4.944,,,,
2025-10-17T14:43:41.743941+00:00,11.156,9.392,,9.163,4.940,,,,
2025-10-17T14:43:42.352242+00:00,11.144,8.412,,9.999,4.483,,,,
2025-10-17T14:43:42.955921+00:00,11.132,8.002,,9.063,3.623,,,,
2025-10-17T14:43:43.568713+00:00,11.120,8.309,,6.484,2.414,,,,
2025-10-17T14:43:44.176592+00:00,11.108,9.221,,2.764,0.993,,,,
2025-10-17T14:43:44.780173+00:00,11.096,10.404,,-1.420,-0.508,,,,
2025-10-17T14:43:45.382930+00:00,11.084,11.444,,-5.349,-1.962,,,,
2025-10-17T14:43:45.994552+00:00,11.072,11.977,,-8.374,-3.255,,,,
2025-10-17T14:43:46.605359+00:00,11.060,11.794,,-9.887,-4.246,,,,
2025-10-17T14:43:47.214185+00:00,11.048,10.966,,-9.623,-4.842,,,,
2025-10-17T14:43:47.820133+00:00,11.036,9.796,,-7.651,-4.994,,,,
2025-10-17T14:43:48.427572+00:00,11.025,8.697,,-4.313,-4.689,,,,
2025-10-17T14:43:49.033415+00:00,11.014,8.065,,-0.218,-3.957,,,,
2025-10-17T14:43:49.647852+00:00,11.003,8.127,,3.970,-2.848,,,,
2025-10-17T14:43:50.254543+00:00,10.992,8.862,,7.399,-1.490,,,,
2025-10-17T14:43:50.864613+00:00,10.982,10.010,,9.521,0.012,,,,
2025-10-17T14:43:51.469620+00:00,10.973,11.145,,9.937,1.501,,,,
2025-10-17T14:43:52.075385+00:00,10.964,11.875,,8.594,2.855,,,,
2025-10-17T14:43:52.678251+00:00,10.955,11.939,,5.745,3.945,,,,
2025-10-17T14:43:53.285976+00:00,10.947,11.312,,1.855,4.684,,,,
2025-10-17T14:43:53.916411+00:00,10.939,10.170,,-2.519,4.995,,,,
2025-10-17T14:43:54.521545+00:00,10.932,9.006,,-6.275,4.832,,,,
2025-10-17T14:43:55.132311+00:00,10.926,8.190,,-8.938,4.222,,,,
2025-10-17T14:43:55.745328+00:00,10.920,8.030,,-9.994,3.217,,,,
2025-10-17T14:43:56.414360+00:00,10.915,8.668,,-9.079,1.781,,,,
2025-10-17T14:43:57.018780+00:00,10.911,9.752,,-6.558,0.310,,,,
2025-10-17T14:43:57.630874+00:00,10.907,10.938,,-2.829,-1.208,,,,
2025-10-17T14:43:58.243611+00:00,10.904,11.783,,1.416,-2.615,,,,
2025-10-17T14:43:58.857513+00:00,10.902,11.979,,5.412,-3.780,,,,
2025-10-17T14:43:59.462928+00:00,10.901,11.465,,8.391,-4.584,,,,
2025-10-17T14:44:00.065584+00:00,10.900,10.434,,9.883,-4.970,,,,
2025-10-17T14:44:00.673682+00:00,10.900,9.241,,9.631,-4.906,,,,
2025-10-17T14:44:01.282649+00:00,10.901,8.319,,7.657,-4.390,,,,
2025-10-17T14:44:01.891340+00:00,10.903,8.001,,4.314,-3.471,,,,
2025-10-17T14:44:02.499737+00:00,10.905,8.401,,0.202,-2.234,,,,
2025-10-17T14:44:03.107241+00:00,10.908,9.373,,-3.941,-0.794,,,,
2025-10-17T14:44:03.719088+00:00,10.912,10.578,,-7.402,0.730,,,,
2025-10-17T14:44:04.322176+00:00,10.916,11.562,,-9.507,2.166,,,,
2025-10-17T14:44:04.927026+00:00,10.921,11.995,,-9.942,3.410,,,,
2025-10-17T14:44:05.546280+00:00,10.927,11.706,,-8.569,4.362,,,,
2025-10-17T14:44:06.159424+00:00,10.934,10.794,,-5.646,4.896,,,,
2025-10-17T14:44:06.766426+00:00,10.941,9.605,,-1.742,4.975,,,,
2025-10-17T14:44:07.372568+00:00,10.948,8.559,,2.466,4.601,,,,
2025-10-17T14:44:07.978130+00:00,10.956,8.026,,6.234,3.807,,,,
2025-10-17T14:44:08.583645+00:00,10.965,8.195,,8.898,2.668,,,,
2025-10-17T14:44:09.192729+00:00,10.974,9.012,,9.989,1.277,,,,
2025-10-17T14:44:09.800909+00:00,10.984,10.183,,9.293,-0.229,,,,
2025-10-17T14:44:10.414022+00:00,10.994,11.296,,6.914,-1.725,,,,
2025-10-17T14:44:11.021830+00:00,11.005,11.934,,3.315,-3.051,,,,
2025-10-17T14:44:11.624593+00:00,11.015,11.883,,-0.839,-4.089,,,,
2025-10-17T14:44:12.227700+00:00,11.026,11.167,,-4.849,-4.759,,,,
2025-10-17T14:44:12.838039+00:00,11.038,10.026,,-8.037,-5.000,,,,
2025-10-17T14:44:13.449443+00:00,11.050,8.873,,-9.782,-4.778,,,,
2025-10-17T14:44:14.058239+00:00,11.062,8.131,,-9.766,-4.116,,,,
2025-10-17T14:44:14.661349+00:00,11.073,8.057,,-8.027,-3.088,,,,
2025-10-17T14:44:15.271452+00:00,11.086,8.680,,-4.836,-1.764,,,,
2025-10-17T14:44:15.876861+00:00,11.098,9.769,,-0.809,-0.289,,,,
2025-10-17T14:44:16.483320+00:00,11.110,10.943,,3.368,1.215,,,,
2025-10-17T14:44:17.091892+00:00,11.122,11.782,,6.958,2.612,,,,
2025-10-17T14:44:17.699442+00:00,11.134,11.982,,9.302,3.768,,,,
2025-10-17T14:44:18.310932+00:00,11.146,11.467,,9.986,4.582,,,,
2025-10-17T14:44:18.916386+00:00,11.158,10.432,,8.889,4.970,,,,
2025-10-17T14:44:19.518976+00:00,11.169,9.249,,6.234,4.908,,,,
2025-10-17T14:44:20.127082+00:00,11.180,8.325,,2.449,4.396,,,,
2025-10-17T14:44:20.736126+00:00,11.191,8.001,,-1.780,3.480,,,,
2025-10-17T14:44:21.344907+00:00,11.202,8.396,,-5.688,2.244,,,,
2025-10-17T14:44:21.953537+00:00,11.212,9.367,,-8.579,0.802,,,,
2025-10-17T14:44:22.562838+00:00,11.222,10.566,,-9.936,-0.715,,,,
2025-10-17T14:44:23.168540+00:00,11.232,11.558,,-9.521,-2.159,,,,
2025-10-17T14:44:23.776672+00:00,11.240,11.995,,-7.408,-3.410,,,,
2025-10-17T14:44:24.382959+00:00,11.249,11.719,,-3.985,-4.346,,,,
2025-10-17T14:44:24.995903+00:00,11.257,10.818,,0.192,-4.889,,,,
2025-10-17T14:44:25.608434+00:00,11.264,9.620,,4.331,-4.977,,,,
2025-10-17T14:44:26.211795+00:00,11.271,8.573,,7.645,-4.611,,,,
2025-10-17T14:44:26.817088+00:00,11.277,8.029,,9.619,-3.825,,,,
2025-10-17T14:44:27.424132+00:00,11.282,8.187,,9.890,-2.687,,,,
2025-10-17T14:44:28.033183+00:00,11.287,8.996,,8.395,-1.299,,,,
2025-10-17T14:44:28.641876+00:00,11.291,10.166,,5.398,0.207,,,,
2025-10-17T14:44:29.246047+00:00,11.294,11.269,,1.468,1.684,,,,
2025-10-17T14:44:29.860955+00:00,11.297,11.928,,-2.794,3.030,,,,
2025-10-17T14:44:30.468738+00:00,11.298,11.886,,-6.507,4.081,,,,
2025-10-17T14:44:31.071842+00:00,11.300,11.176,,-9.047,4.755,,,,
2025-10-17T14:44:31.674948+00:00,11.300,10.051,,-9.998,5.000,,,,
2025-10-17T14:44:32.285735+00:00,11.300,8.895,,-9.173,4.787,,,,
2025-10-17T14:44:32.896771+00:00,11.299,8.139,,-6.694,4.132,,,,
2025-10-17T14:44:33.505545+00:00,11.297,8.055,,-3.024,3.098,,,,
2025-10-17T14:44:34.110685+00:00,11.294,8.664,,1.161,1.788,,,,
2025-10-17T14:44:34.718691+00:00,11.291,9.754,,5.158,0.308,,,,
2025-10-17T14:44:35.324202+00:00,11.287,10.927,,8.225,-1.194,,,,
2025-10-17T14:44:35.930870+00:00,11.282,11.772,,9.838,-2.589,,,,
2025-10-17T14:44:36.539421+00:00,11.277,11.984,,9.700,-3.752,,,,
2025-10-17T14:44:37.151556+00:00,11.271,11.479,,7.812,-4.573,,,,
2025-10-17T14:44:37.757625+00:00,11.264,10.448,,4.550,-4.968,,,,
2025-10-17T14:44:38.363123+00:00,11.257,9.259,,0.485,-4.910,,,,
2025-10-17T14:44:38.965907+00:00,11.249,8.337,,-3.648,-4.409,,,,
2025-10-17T14:44:39.577042+00:00,11.241,8.001,,-7.182,-3.495,,,,
2025-10-17T14:44:40.189538+00:00,11.232,8.390,,-9.425,-2.255,,,,
2025-10-17T14:44:40.795328+00:00,11.223,9.352,,-9.965,-0.821,,,,
2025-10-17T14:44:41.403976+00:00,11.213,10.550,,-8.731,0.695,,,,
2025-10-17T14:44:42.013430+00:00,11.203,11.552,,-5.931,2.148,,,,
2025-10-17T14:44:42.619066+00:00,11.192,11.994,,-2.094,3.397,,,,
2025-10-17T14:44:43.222252+00:00,11.181,11.729,,2.097,4.333,,,,
2025-10-17T14:44:43.828314+00:00,11.170,10.849,,5.936,4.880,,,,
2025-10-17T14:44:44.441041+00:00,11.158,9.653,,8.745,4.981,,,,
2025-10-17T14:44:45.051639+00:00,11.147,8.587,,9.969,4.620,,,,
2025-10-17T14:44:45.657223+00:00,11.135,8.032,,9.411,3.840,,,,
2025-10-17T14:44:46.260267+00:00,11.123,8.176,,7.200,2.715,,,,
2025-10-17T14:44:46.867609+00:00,11.111,8.970,,3.696,1.336,,,,
2025-10-17T14:44:47.476636+00:00,11.099,10.136,,-0.477,-0.170,,,,
2025-10-17T14:44:48.087636+00:00,11.086,11.256,,-4.577,-1.665,,,,
2025-10-17T14:44:48.695640+00:00,11.074,11.920,,-7.840,-3.000,,,,
2025-10-17T14:44:49.303281+00:00,11.062,11.896,,-9.703,-4.060,,,,
2025-10-17T14:44:49.911008+00:00,11.050,11.193,,-9.837,-4.747,,,,
2025-10-17T14:44:50.513885+00:00,11.039,10.072,,-8.236,-4.999,,,,
2025-10-17T14:44:51.120849+00:00,11.027,8.919,,-5.167,-4.798,,,,
2025-10-17T14:44:51.733026+00:00,11.016,8.149,,-1.141,-4.151,,,,
2025-10-17T14:44:52.338971+00:00,11.005,8.047,,3.048,-3.130,,,,
2025-10-17T14:44:52.947372+00:00,10.995,8.645,,6.711,-1.818,,,,
2025-10-17T14:44:53.552374+00:00,10.985,9.722,,9.165,-0.348,,,,
2025-10-17T14:44:54.160186+00:00,10.975,10.903,,9.999,1.161,,,,
2025-10-17T14:44:54.765837+00:00,10.966,11.758,,9.057,2.558,,,,
2025-10-17T14:44:55.374177+00:00,10.957,11.988,,6.497,3.727,,,,
2025-10-17T14:44:55.982421+00:00,10.949,11.504,,2.777,4.554,,,,
2025-10-17T14:44:56.595100+00:00,10.941,10.472,,-1.469,4.965,,,,
2025-10-17T14:44:57.203191+00:00,10.934,9.277,,-5.423,4.915,,,,
2025-10-17T14:44:57.806456+00:00,10.928,8.347,,-8.390,4.420,,,,
2025-10-17T14:44:58.409180+00:00,10.922,8.000,,-9.882,3.526,,,,
2025-10-17T14:44:59.020269+00:00,10.917,8.368,,-9.626,2.297,,,,
2025-10-17T14:44:59.630976+00:00,10.912,9.326,,-7.637,0.855,,,,
2025-10-17T14:45:00.239111+00:00,10.908,10.522,,-4.289,-0.659,,,,
2025-10-17T14:45:00.842454+00:00,10.905,11.526,,-0.210,-2.102,,,,
2025-10-17T14:45:01.451593+00:00,10.903,11.991,,3.944,-3.365,,,,
2025-10-17T14:45:02.057636+00:00,10.901,11.744,,7.377,-4.316,,,,
2025-10-17T14:45:02.670376+00:00,10.900,10.863,,9.517,-4.876,,,,
2025-10-17T14:45:03.278164+00:00,10.900,9.678,,9.936,-4.984,,,,
2025-10-17T14:45:03.886025+00:00,10.901,8.608,,8.584,-4.634,,,,
2025-10-17T14:45:04.496526+00:00,10.902,8.036,,5.685,-3.856,,,,
2025-10-17T14:45:05.101894+00:00,10.904,8.170,,1.800,-2.732,,,,
2025-10-17T14:45:05.704918+00:00,10.907,8.949,,-2.388,-1.365,,,,
2025-10-17T14:45:06.311925+00:00,10.910,10.108,,-6.179,0.135,,,,
2025-10-17T14:45:06.921185+00:00,10.914,11.231,,-8.878,1.628,,,,
2025-10-17T14:45:07.530052+00:00,10.919,11.911,,-9.986,2.970,,,,
2025-10-17T14:45:08.138309+00:00,10.925,11.905,,-9.310,4.038,,,,
2025-10-17T14:45:08.748375+00:00,10.931,11.212,,-6.962,4.737,,,,
2025-10-17T14:45:09.353812+00:00,10.938,10.092,,-3.393,4.999,,,,
2025-10-17T14:45:09.956946+00:00,10.945,8.942,,0.759,4.807,,,,
2025-10-17T14:45:10.563363+00:00,10.953,8.163,,4.798,4.177,,,,
2025-10-17T14:45:11.175579+00:00,10.962,8.042,,8.010,3.155,,,,
2025-10-17T14:45:11.788448+00:00,10.971,8.633,,9.775,1.838,,,,
2025-10-17T14:45:12.391698+00:00,10.980,9.702,,9.781,0.373,,,,
2025-10-17T14:45:12.997293+00:00,10.990,10.881,,8.060,-1.130,,,,
2025-10-17T14:45:13.604892+00:00,11.000,11.748,,4.900,-2.536,,,,
2025-10-17T14:45:14.213747+00:00,11.011,11.990,,0.857,-3.711,,,,
2025-10-17T14:45:14.822049+00:00,11.022,11.517,,-3.334,-4.544,,,,
2025-10-17T14:45:15.425318+00:00,11.033,10.509,,-6.905,-4.959,,,,
2025-10-17T14:45:16.037441+00:00,11.045,9.305,,-9.286,-4.922,,,,
2025-10-17T14:45:16.645437+00:00,11.057,8.359,,-9.990,-4.432,,,,
2025-10-17T14:45:17.248572+00:00,11.069,8.000,,-8.926,-3.544,,,,
2025-10-17T14:45:17.851764+00:00,11.081,8.347,,-6.294,-2.337,,,,
2025-10-17T14:45:18.462888+00:00,11.093,9.293,,-2.504,-0.899,,,,
2025-10-17T14:45:19.073712+00:00,11.105,10.494,,1.736,0.622,,,,
2025-10-17T14:45:19.682128+00:00,11.117,11.513,,5.650,2.079,,,,
2025-10-17T14:45:20.287469+00:00,11.129,11.988,,8.543,3.340,,,,
2025-10-17T14:45:20.894422+00:00,11.141,11.756,,9.926,4.299,,,,
2025-10-17T14:45:21.499885+00:00,11.153,10.899,,9.547,4.865,,,,
2025-10-17T14:45:22.106448+00:00,11.164,9.720,,7.474,4.988,,,,
2025-10-17T14:45:22.714702+00:00,11.176,8.639,,4.063,4.654,,,,
2025-10-17T14:45:23.327557+00:00,11.187,8.044,,-0.106,3.885,,,,
2025-10-17T14:45:23.933768+00:00,11.198,8.156,,-4.214,2.769,,,,
2025-10-17T14:45:24.538880+00:00,11.208,8.923,,-7.569,1.403,,,,
2025-10-17T14:45:25.142196+00:00,11.218,10.069,,-9.583,-0.087,,,,
2025-10-17T14:45:25.752504+00:00,11.228,11.202,,-9.906,-1.585,,,,
2025-10-17T14:45:26.365505+00:00,11.237,11.903,,-8.438,-2.942,,,,
2025-10-17T14:45:26.968857+00:00,11.245,11.916,,-5.498,-4.010,,,,
2025-10-17T14:45:27.576751+00:00,11.254,11.246,,-1.559,-4.720,,,,
2025-10-17T14:45:28.186891+00:00,11.261,10.124,,2.673,-4.998,,,,
2025-10-17T14:45:28.792403+00:00,11.268,8.966,,6.399,-4.817,,,,
2025-10-17T14:45:29.396709+00:00,11.274,8.176,,8.990,-4.199,,,,
2025-10-17T14:45:30.003513+00:00,11.280,8.034,,9.996,-3.197,,,,
2025-10-17T14:45:30.615633+00:00,11.285,8.600,,9.211,-1.890,,,,
2025-10-17T14:45:31.226579+00:00,11.289,9.673,,6.767,-0.410,,,,
2025-10-17T14:45:31.831950+00:00,11.293,10.854,,3.141,1.094,,,,
2025-10-17T14:45:32.434522+00:00,11.296,11.729,,-1.021,2.493,,,,
2025-10-17T14:45:33.042151+00:00,11.298,11.994,,-5.035,3.675,,,,
2025-10-17T14:45:33.650876+00:00,11.299,11.543,,-8.156,4.522,,,,
2025-10-17T14:45:34.259511+00:00,11.300,10.539,,-9.818,4.954,,,,
2025-10-17T14:45:34.868011+00:00,11.300,9.341,,-9.725,4.930,,,,
2025-10-17T14:45:35.475625+00:00,11.299,8.381,,-7.898,4.454,,,,
2025-10-17T14:45:36.083559+00:00,11.298,8.000,,-4.662,3.570,,,,
2025-10-17T14:45:36.686761+00:00,11.295,8.331,,-0.627,2.369,,,,
2025-10-17T14:45:37.292866+00:00,11.292,9.256,,3.537,0.947,,,,
2025-10-17T14:45:37.905951+00:00,11.289,10.460,,7.109,-0.579,,,,
2025-10-17T14:45:38.511544+00:00,11.284,11.486,,9.372,-2.033,,,,
2025-10-17T14:45:39.122152+00:00,11.279,11.985,,9.975,-3.312,,,,
2025-10-17T14:45:39.727746+00:00,11.274,11.771,,8.799,-4.279,,,,
2025-10-17T14:45:40.334980+00:00,11.267,10.925,,6.056,-4.856,,,,
2025-10-17T14:45:40.940514+00:00,11.260,9.751,,2.247,-4.990,,,,
2025-10-17T14:45:41.547483+00:00,11.253,8.663,,-1.969,-4.669,,,,
2025-10-17T14:45:42.155841+00:00,11.245,8.053,,-5.843,-3.919,,,,
2025-10-17T14:45:42.768872+00:00,11.236,8.145,,-8.690,-2.799,,,,
2025-10-17T14:45:43.376292+00:00,11.227,8.903,,-9.957,-1.432,,,,
2025-10-17T14:45:43.979239+00:00,11.217,10.044,,-9.462,0.055,,,,
2025-10-17T14:45:44.582276+00:00,11.207,11.170,,-7.305,1.538,,,,
2025-10-17T14:45:45.192528+00:00,11.197,11.889,,-3.819,2.896,,,,
2025-10-17T14:45:45.803959+00:00,11.186,11.924,,0.361,3.988,,,,
2025-10-17T14:45:46.412614+00:00,11.175,11.267,,4.459,4.709,,,,
2025-10-17T14:45:47.015577+00:00,11.163,10.166,,7.735,4.996,,,,
2025-10-17T14:45:47.625371+00:00,11.152,8.995,,9.665,4.828,,,,
2025-10-17T14:45:48.231306+00:00,11.140,8.189,,9.865,4.219,,,,
2025-10-17T14:45:48.837478+00:00,11.128,8.028,,8.316,3.227,,,,
2025-10-17T14:45:49.445927+00:00,11.116,8.573,,5.279,1.934,,,,
2025-10-17T14:45:50.053194+00:00,11.104,9.628,,1.306,0.467,,,,
2025-10-17T14:45:50.664236+00:00,11.092,10.823,,-2.924,-1.052,,,,
2025-10-17T14:45:51.272206+00:00,11.079,11.717,,-6.611,-2.467,,,,
2025-10-17T14:45:51.874861+00:00,11.067,11.996,,-9.104,-3.646,,,,
2025-10-17T14:45:52.482550+00:00,11.056,11.566,,-10.000,-4.503,,,,
2025-10-17T14:45:53.091367+00:00,11.044,10.573,,-9.111,-4.947,,,,
2025-10-17T14:45:53.701930+00:00,11.032,9.371,,-6.582,-4.936,,,,
2025-10-17T14:45:54.310508+00:00,11.021,8.398,,-2.883,-4.471,,,,
2025-10-17T14:45:54.920079+00:00,11.010,8.001,,1.338,-3.593,,,,
2025-10-17T14:45:55.526364+00:00,10.999,8.320,,5.300,-2.391,,,,
2025-10-17T14:45:56.129552+00:00,10.989,9.232,,8.310,-0.979,,,,
2025-10-17T14:45:56.735871+00:00,10.979,10.422,,9.863,0.530,,,,
2025-10-17T14:45:57.349115+00:00,10.969,11.470,,9.654,2.006,,,,
2025-10-17T14:45:57.961484+00:00,10.960,11.982,,7.697,3.293,,,,
2025-10-17T14:45:58.564614+00:00,10.952,11.783,,4.405,4.262,,,,
2025-10-17T14:45:59.170012+00:00,10.944,10.950,,0.324,4.848,,,,
2025-10-17T14:45:59.777084+00:00,10.937,9.776,,-3.826,4.992,,,,
2025-10-17T14:46:00.386201+00:00,10.930,8.680,,-7.304,4.679,,,,
2025-10-17T14:46:00.994508+00:00,10.924,8.058,,-9.473,3.935,,,,
2025-10-17T14:46:01.597413+00:00,10.919,8.129,,-9.954,2.842,,,,
2025-10-17T14:46:02.210410+00:00,10.914,8.877,,-8.653,1.469,,,,
2025-10-17T14:46:02.818358+00:00,10.910,10.023,,-5.811,-0.029,,,,
2025-10-17T14:46:03.421448+00:00,10.906,11.154,,-1.967,-1.513,,,,
2025-10-17T14:46:04.024370+00:00,10.904,11.877,,2.222,-2.860,,,,
2025-10-17T14:46:04.634878+00:00,10.902,11.934,,6.063,-3.960,,,,
2025-10-17T14:46:05.246061+00:00,10.900,11.292,,8.816,-4.695,,,,
2025-10-17T14:46:05.854782+00:00,10.900,10.187,,9.979,-4.995,,,,
2025-10-17T14:46:06.459838+00:00,10.900,9.021,,9.366,-4.837,,,,
2025-10-17T14:46:07.067350+00:00,10.901,8.201,,7.086,-4.238,,,,
2025-10-17T14:46:07.672883+00:00,10.903,8.024,,3.556,-3.253,,,,
2025-10-17T14:46:08.279366+00:00,10.905,8.551,,-0.609,-1.971,,,,
2025-10-17T14:46:08.888033+00:00,10.909,9.599,,-4.680,-0.504,,,,
2025-10-17T14:46:09.500468+00:00,10.912,10.798,,-7.930,1.019,,,,
2025-10-17T14:46:10.106395+00:00,10.917,11.701,,-9.735,2.433,,,,
2025-10-17T14:46:10.711888+00:00,10.922,11.997,,-9.814,3.625,,,,
2025-10-17T14:46:11.314389+00:00,10.928,11.588,,-8.170,4.484,,,,
2025-10-17T14:46:11.925347+00:00,10.935,10.603,,-5.042,4.942,,,,
2025-10-17T14:46:12.536227+00:00,10.942,9.400,,-1.006,4.942,,,,
2025-10-17T14:46:13.139308+00:00,10.950,8.424,,3.158,4.494,,,,
2025-10-17T14:46:13.747931+00:00,10.958,8.003,,6.797,3.630,,,,
2025-10-17T14:46:14.357123+00:00,10.967,8.300,,9.222,2.432,,,,
2025-10-17T14:46:14.962713+00:00,10.976,9.202,,9.996,1.019,,,,
2025-10-17T14:46:15.566108+00:00,10.986,10.384,,9.008,-0.482,,,,
2025-10-17T14:46:16.172146+00:00,10.996,11.433,,6.421,-1.945,,,,
2025-10-17T14:46:16.785225+00:00,11.006,11.975,,2.649,-3.244,,,,
2025-10-17T14:46:17.395751+00:00,11.017,11.799,,-1.586,-4.238,,,,
2025-10-17T14:46:18.001200+00:00,11.029,10.982,,-5.506,-4.836,,,,
2025-10-17T14:46:18.604296+00:00,11.040,9.821,,-8.443,-4.995,,,,
2025-10-17T14:46:19.211453+00:00,11.052,8.716,,-9.901,-4.700,,,,
2025-10-17T14:46:19.820970+00:00,11.064,8.070,,-9.593,-3.971,,,,
2025-10-17T14:46:20.429561+00:00,11.076,8.117,,-7.570,-2.878,,,,
2025-10-17T14:46:21.037535+00:00,11.088,8.840,,-4.197,-1.522,,,,
2025-10-17T14:46:21.645597+00:00,11.100,9.979,,-0.074,-0.027,,,,
2025-10-17T14:46:22.253255+00:00,11.112,11.124,,4.059,1.470,,,,
2025-10-17T14:46:22.856209+00:00,11.124,11.864,,7.446,2.823,,,,
2025-10-17T14:46:23.462754+00:00,11.136,11.945,,9.535,3.927,,,,
2025-10-17T14:46:24.075371+00:00,11.148,11.322,,9.925,4.677,,,,
2025-10-17T14:46:24.681395+00:00,11.160,10.232,,8.542,4.992,,,,
2025-10-17T14:46:25.289771+00:00,11.171,9.055,,5.631,4.850,,,,
2025-10-17T14:46:25.894844+00:00,11.182,8.220,,1.737,4.267,,,,
2025-10-17T14:46:26.502534+00:00,11.193,8.018,,-2.482,3.291,,,,
2025-10-17T14:46:27.107943+00:00,11.204,8.522,,-6.246,2.019,,,,
2025-10-17T14:46:27.716944+00:00,11.214,9.559,,-8.916,0.555,,,,
2025-10-17T14:46:28.325242+00:00,11.224,10.753,,-9.990,-0.959,,,,
2025-10-17T14:46:28.937613+00:00,11.233,11.681,,-9.270,-2.393,,,,
2025-10-17T14:46:29.560287+00:00,11.242,11.997,,-6.819,-3.623,,,,
2025-10-17T14:46:30.163493+00:00,11.250,11.588,,-3.223,-4.483,,,,
2025-10-17T14:46:30.766327+00:00,11.258,10.619,,0.937,-4.938,,,,
2025-10-17T14:46:31.377306+00:00,11.265,9.416,,4.982,-4.945,,,,
2025-10-17T14:46:31.987966+00:00,11.272,8.425,,8.128,-4.495,,,,
2025-10-17T14:46:32.596241+00:00,11.278,8.003,,9.809,-3.632,,,,
2025-10-17T14:46:33.199587+00:00,11.283,8.293,,9.745,-2.447,,,,
2025-10-17T14:46:33.808902+00:00,11.287,9.196,,7.943,-1.027,,,,
2025-10-17T14:46:34.414680+00:00,11.291,10.382,,4.740,0.479,,,,
2025-10-17T14:46:35.021462+00:00,11.295,11.433,,0.691,1.944,,,,
2025-10-17T14:46:35.629301+00:00,11.297,11.973,,-3.489,3.234,,,,
2025-10-17T14:46:36.237303+00:00,11.299,11.806,,-7.047,4.227,,,,
2025-10-17T14:46:36.848658+00:00,11.300,10.986,,-9.356,4.835,,,,
2025-10-17T14:46:37.456066+00:00,11.300,9.817,,-9.979,4.995,,,,
2025-10-17T14:46:38.059200+00:00,11.300,8.719,,-8.840,4.701,,,,
2025-10-17T14:46:38.666184+00:00,11.298,8.072,,-6.126,3.977,,,,
2025-10-17T14:46:39.275402+00:00,11.296,8.115,,-2.308,2.886,,,,
2025-10-17T14:46:39.884269+00:00,11.294,8.835,,1.920,1.529,,,,
2025-10-17T14:46:40.492467+00:00,11.290,9.973,,5.802,0.033,,,,
2025-10-17T14:46:41.100393+00:00,11.286,11.120,,8.647,-1.465,,,,
2025-10-17T14:46:41.708108+00:00,11.281,11.866,,9.949,-2.828,,,,
2025-10-17T14:46:42.311144+00:00,11.276,11.945,,9.488,-3.925,,,,
2025-10-17T14:46:42.914363+00:00,11.270,11.338,,7.361,-4.668,,,,
2025-10-17T14:46:43.525041+00:00,11.263,10.244,,3.892,-4.991,,,,
2025-10-17T14:46:44.136150+00:00,11.256,9.061,,-0.280,-4.851,,,,
2025-10-17T14:46:44.744920+00:00,11.248,8.220,,-4.387,-4.266,,,,
2025-10-17T14:46:45.349984+00:00,11.240,8.017,,-7.692,-3.295,,,,
2025-10-17T14:46:45.957824+00:00,11.231,8.523,,-9.644,-2.019,,,,
2025-10-17T14:46:46.563216+00:00,11.221,9.552,,-9.878,-0.563,,,,
2025-10-17T14:46:47.169947+00:00,11.211,10.744,,-8.360,0.947,,,,
2025-10-17T14:46:47.778647+00:00,11.201,11.672,,-5.345,2.374,,,,
2025-10-17T14:46:48.391264+00:00,11.190,11.999,,-1.346,3.591,,,,
2025-10-17T14:46:48.997354+00:00,11.179,11.607,,2.852,4.466,,,,
2025-10-17T14:46:49.602870+00:00,11.168,10.644,,6.542,4.933,,,,
2025-10-17T14:46:50.205721+00:00,11.157,9.457,,9.066,4.953,,,,
2025-10-17T14:46:50.816756+00:00,11.145,8.451,,10.000,4.517,,,,
2025-10-17T14:46:51.429980+00:00,11.133,8.005,,9.126,3.659,,,,
2025-10-17T14:46:52.033184+00:00,11.121,8.276,,6.648,2.482,,,,
2025-10-17T14:46:52.641661+00:00,11.109,9.165,,2.968,1.068,,,,
2025-10-17T14:46:53.251254+00:00,11.096,10.356,,-1.250,-0.447,,,,
2025-10-17T14:46:53.857225+00:00,11.084,11.414,,-5.223,-1.913,,,,
2025-10-17T14:46:54.460528+00:00,11.072,11.967,,-8.259,-3.199,,,,
2025-10-17T14:46:55.066899+00:00,11.060,11.823,,-9.848,-4.200,,,,
2025-10-17T14:46:55.679824+00:00,11.048,11.018,,-9.678,-4.823,,,,
2025-10-17T14:46:56.290575+00:00,11.037,9.846,,-7.763,-4.996,,,,
2025-10-17T14:46:56.896096+00:00,11.025,8.739,,-4.483,-4.712,,,,
2025-10-17T14:46:57.499274+00:00,11.014,8.081,,-0.426,-4.002,,,,
2025-10-17T14:46:58.106465+00:00,11.004,8.103,,3.732,-2.923,,,,
2025-10-17T14:46:58.715766+00:00,10.993,8.806,,7.236,-1.572,,,,
2025-10-17T14:46:59.324544+00:00,10.983,9.938,,9.442,-0.077,,,,
2025-10-17T14:46:59.932482+00:00,10.973,11.091,,9.960,1.423,,,,
2025-10-17T14:47:00.540465+00:00,10.964,11.853,,8.701,2.792,,,,
2025-10-17T14:47:01.148386+00:00,10.955,11.951,,5.890,3.906,,,,
2025-10-17T14:47:01.751551+00:00,10.947,11.357,,2.061,4.657,,,,
2025-10-17T14:47:02.354819+00:00,10.940,10.283,,-2.130,4.987,,,,
2025-10-17T14:47:02.965405+00:00,10.933,9.097,,-5.989,4.863,,,,
2025-10-17T14:47:03.576360+00:00,10.926,8.237,,-8.771,4.289,,,,
2025-10-17T14:47:04.185282+00:00,10.921,8.014,,-9.972,3.322,,,,
2025-10-17T14:47:04.790312+00:00,10.916,8.500,,-9.398,2.058,,,,
2025-10-17T14:47:05.398148+00:00,10.911,9.524,,-7.150,0.600,,,,
2025-10-17T14:47:06.003564+00:00,10.908,10.714,,-3.642,-0.908,,,,
2025-10-17T14:47:06.610014+00:00,10.905,11.651,,0.517,-2.334,,,,
2025-10-17T14:47:07.218616+00:00,10.902,12.000,,4.598,-3.552,,,,
2025-10-17T14:47:07.831195+00:00,10.901,11.626,,7.874,-4.448,,,,
2025-10-17T14:47:08.437375+00:00,10.900,10.672,,9.714,-4.927,,,,
2025-10-17T14:47:09.042736+00:00,10.900,9.481,,9.832,-4.957,,,,
2025-10-17T14:47:09.645428+00:00,10.901,8.477,,8.221,-4.539,,,,
2025-10-17T14:47:10.256604+00:00,10.902,8.009,,5.118,-3.698,,,,
2025-10-17T14:47:10.867701+00:00,10.904,8.261,,1.093,-2.515,,,,
2025-10-17T14:47:11.470932+00:00,10.907,9.129,,-3.077,-1.117,,,,
2025-10-17T14:47:12.079635+00:00,10.911,10.315,,-6.734,0.394,,,,
2025-10-17T14:47:12.688983+00:00,10.915,11.388,,-9.189,1.871,,,,
2025-10-17T14:47:13.294957+00:00,10.920,11.961,,-9.998,3.170,,,,
2025-10-17T14:47:13.898286+00:00,10.926,11.838,,-9.043,4.175,,,,
2025-10-17T14:47:14.504509+00:00,10.932,11.060,,-6.483,4.806,,,,
2025-10-17T14:47:15.117254+00:00,10.939,9.892,,-2.729,4.998,,,,
2025-10-17T14:47:15.727919+00:00,10.946,8.766,,1.505,4.726,,,,
2025-10-17T14:47:16.333473+00:00,10.954,8.090,,5.438,4.025,,,,
2025-10-17T14:47:16.936735+00:00,10.963,8.091,,8.400,2.962,,,,
2025-10-17T14:47:17.543982+00:00,10.972,8.772,,9.890,1.622,,,,
2025-10-17T14:47:18.153494+00:00,10.982,9.897,,9.616,0.128,,,,
2025-10-17T14:47:18.762275+00:00,10.992,11.058,,7.621,-1.375,,,,
2025-10-17T14:47:19.370558+00:00,11.002,11.838,,4.266,-2.752,,,,
2025-10-17T14:47:19.978479+00:00,11.013,11.959,,0.151,-3.875,,,,
2025-10-17T14:47:20.586156+00:00,11.024,11.378,,-3.988,-4.643,,,,
2025-10-17T14:47:21.189387+00:00,11.035,10.313,,-7.396,-4.985,,,,
2025-10-17T14:47:21.795960+00:00,11.047,9.131,,-9.512,-4.874,,,,
2025-10-17T14:47:22.408468+00:00,11.059,8.253,,-9.934,-4.312,,,,
2025-10-17T14:47:23.011515+00:00,11.071,8.009,,-8.591,-3.365,,,,
2025-10-17T14:47:23.624546+00:00,11.083,8.480,,-5.683,-2.092,,,,
2025-10-17T14:47:24.229936+00:00,11.095,9.489,,-1.797,-0.644,,,,
2025-10-17T14:47:24.837540+00:00,11.107,10.685,,2.422,0.869,,,,
2025-10-17T14:47:25.440367+00:00,11.119,11.629,,6.183,2.292,,,,
2025-10-17T14:47:26.049488+00:00,11.131,12.000,,8.880,3.519,,,,
2025-10-17T14:47:26.658042+00:00,11.143,11.652,,9.987,4.421,,,,
2025-10-17T14:47:27.270376+00:00,11.155,10.703,,9.298,4.920,,,,
2025-10-17T14:47:27.875929+00:00,11.166,9.512,,6.962,4.962,,,,
2025-10-17T14:47:28.481933+00:00,11.178,8.494,,3.390,4.553,,,,
2025-10-17T14:47:29.085070+00:00,11.189,8.013,,-0.762,3.734,,,,
2025-10-17T14:47:29.696550+00:00,11.200,8.241,,-4.832,2.559,,,,
2025-10-17T14:47:30.305179+00:00,11.210,9.101,,-8.018,1.155,,,,
2025-10-17T14:47:30.916347+00:00,11.220,10.289,,-9.775,-0.362,,,,
2025-10-17T14:47:31.520019+00:00,11.229,11.361,,-9.780,-1.828,,,,
2025-10-17T14:47:32.129283+00:00,11.238,11.955,,-8.042,-3.140,,,,
2025-10-17T14:47:32.732311+00:00,11.247,11.850,,-4.901,-4.154,,,,
2025-10-17T14:47:33.341664+00:00,11.255,11.081,,-0.856,-4.797,,,,
2025-10-17T14:47:33.949926+00:00,11.262,9.926,,3.336,-4.999,,,,
2025-10-17T14:47:34.557876+00:00,11.269,8.798,,6.930,-4.742,,,,
2025-10-17T14:47:35.166118+00:00,11.275,8.100,,9.289,-4.050,,,,
2025-10-17T14:47:35.774251+00:00,11.281,8.084,,9.989,-2.986,,,,
2025-10-17T14:47:36.377467+00:00,11.286,8.747,,8.922,-1.660,,,,
2025-10-17T14:47:36.984388+00:00,11.290,9.860,,6.267,-0.175,,,,
2025-10-17T14:47:37.591245+00:00,11.293,11.023,,2.499,1.326,,,,
2025-10-17T14:47:38.202246+00:00,11.296,11.824,,-1.742,2.715,,,,
2025-10-17T14:47:38.810578+00:00,11.298,11.966,,-5.654,3.848,,,,
2025-10-17T14:47:39.420477+00:00,11.299,11.400,,-8.562,4.629,,,,
2025-10-17T14:47:40.023381+00:00,11.300,10.344,,-9.927,4.981,,,,
2025-10-17T14:47:40.629213+00:00,11.300,9.161,,-9.544,4.883,,,,
2025-10-17T14:47:41.236223+00:00,11.299,8.275,,-7.464,4.339,,,,
2025-10-17T14:47:41.848616+00:00,11.297,8.007,,-4.023,3.388,,,,
2025-10-17T14:47:42.457053+00:00,11.295,8.458,,0.119,2.131,,,,
2025-10-17T14:47:43.063249+00:00,11.292,9.458,,4.225,0.684,,,,
2025-10-17T14:47:43.668380+00:00,11.288,10.649,,7.577,-0.823,,,,
2025-10-17T14:47:44.275898+00:00,11.284,11.613,,9.595,-2.261,,,,
2025-10-17T14:47:44.882274+00:00,11.278,11.999,,9.904,-3.489,,,,
2025-10-17T14:47:45.493412+00:00,11.273,11.667,,8.438,-4.405,,,,
2025-10-17T14:47:46.096961+00:00,11.266,10.746,,5.495,-4.909,,,,
2025-10-17T14:47:46.709761+00:00,11.259,9.543,,1.522,-4.967,,,,
2025-10-17T14:47:47.315117+00:00,11.251,8.516,,-2.677,-4.570,,,,
2025-10-17T14:47:47.921136+00:00,11.243,8.017,,-6.405,-3.756,,,,
2025-10-17T14:47:48.523720+00:00,11.235,8.220,,-8.988,-2.607,,,,
2025-10-17T14:47:49.134965+00:00,11.225,9.066,,-9.997,-1.203,,,,
2025-10-17T14:47:49.743129+00:00,11.216,10.244,,-9.212,0.306,,,,
2025-10-17T14:47:50.353857+00:00,11.205,11.338,,-6.769,1.792,,,,
2025-10-17T14:47:50.959477+00:00,11.195,11.946,,-3.142,3.102,,,,
2025-10-17T14:47:51.566548+00:00,11.184,11.861,,1.052,4.132,,,,
2025-10-17T14:47:52.169558+00:00,11.173,11.117,,5.034,4.782,,,,
2025-10-17T14:47:52.781226+00:00,11.161,9.962,,8.167,5.000,,,,
2025-10-17T14:47:53.389180+00:00,11.150,8.827,,9.821,4.756,,,,
2025-10-17T14:47:54.002081+00:00,11.138,8.109,,9.715,4.070,,,,
2025-10-17T14:47:54.604990+00:00,11.126,8.073,,7.891,3.024,,,,
2025-10-17T14:47:55.212610+00:00,11.114,8.725,,4.653,1.694,,,,
2025-10-17T14:47:55.815720+00:00,11.102,9.824,,0.618,0.221,,,,
2025-10-17T14:47:56.426389+00:00,11.090,10.998,,-3.576,-1.291,,,,
2025-10-17T14:47:57.034942+00:00,11.077,11.810,,-7.115,-2.679,,,,
2025-10-17T14:47:57.640761+00:00,11.065,11.973,,-9.376,-3.816,,,,
2025-10-17T14:47:58.249380+00:00,11.054,11.429,,-9.975,-4.609,,,,
2025-10-17T14:47:58.859420+00:00,11.042,10.370,,-8.785,-4.978,,,,
2025-10-17T14:47:59.462057+00:00,11.030,9.191,,-6.060,-4.892,,,,
2025-10-17T14:48:00.067746+00:00,11.019,8.294,,-2.250,-4.361,,,,
2025-10-17T14:48:00.674667+00:00,11.008,8.003,,1.966,-3.431,,,,
2025-10-17T14:48:01.286891+00:00,10.997,8.433,,5.862,-2.176,,,,
2025-10-17T14:48:01.895782+00:00,10.987,9.425,,8.687,-0.726,,,,
2025-10-17T14:48:02.504217+00:00,10.977,10.623,,9.957,0.789,,,,
2025-10-17T14:48:03.106911+00:00,10.968,11.591,,9.462,2.219,,,,
2025-10-17T14:48:03.714841+00:00,10.959,11.998,,7.281,3.458,,,,
2025-10-17T14:48:04.321141+00:00,10.951,11.691,,3.813,4.379,,,,
2025-10-17T14:48:04.932363+00:00,10.943,10.772,,-0.366,4.902,,,,
2025-10-17T14:48:05.540650+00:00,10.936,9.579,,-4.462,4.972,,,,
2025-10-17T14:48:06.148095+00:00,10.929,8.539,,-7.756,4.586,,,,
2025-10-17T14:48:06.753428+00:00,10.923,8.021,,-9.665,3.784,,,,
2025-10-17T14:48:07.359189+00:00,10.918,8.208,,-9.865,2.637,,,,
2025-10-17T14:48:07.965889+00:00,10.913,9.033,,-8.313,1.248,,,,
2025-10-17T14:48:08.578605+00:00,10.909,10.216,,-5.249,-0.270,,,,
2025-10-17T14:48:09.181717+00:00,10.906,11.306,,-1.300,-1.741,,,,
2025-10-17T14:48:09.794890+00:00,10.903,11.940,,2.944,-3.074,,,,
2025-10-17T14:48:10.400316+00:00,10.901,11.872,,6.614,-4.110,,,,
2025-10-17T14:48:11.007365+00:00,10.900,11.137,,9.118,-4.773,,,,
2025-10-17T14:48:11.610547+00:00,10.900,10.003,,10.000,-5.000,,,,
2025-10-17T14:48:12.222070+00:00,10.900,8.854,,9.102,-4.769,,,,
2025-10-17T14:48:12.829889+00:00,10.901,8.123,,6.581,-4.101,,,,
2025-10-17T14:48:13.443116+00:00,10.903,8.067,,2.850,-3.047,,,,
2025-10-17T14:48:14.048386+00:00,10.906,8.704,,-1.343,-1.727,,,,
2025-10-17T14:48:14.654011+00:00,10.909,9.801,,-5.300,-0.249,,,,
2025-10-17T14:48:15.258834+00:00,10.913,10.968,,-8.316,1.250,,,,
2025-10-17T14:48:15.869370+00:00,10.918,11.797,,-9.870,2.647,,,,
2025-10-17T14:48:16.478045+00:00,10.923,11.976,,-9.652,3.796,,,,
2025-10-17T14:48:17.091671+00:00,10.929,11.440,,-7.686,4.602,,,,
2025-10-17T14:48:17.694817+00:00,10.936,10.398,,-4.389,4.975,,,,
2025-10-17T14:48:18.304871+00:00,10.943,9.203,,-0.274,4.895,,,,
2025-10-17T14:48:18.907936+00:00,10.951,8.303,,3.846,4.373,,,,
2025-10-17T14:48:19.517169+00:00,10.959,8.003,,7.320,3.444,,,,
2025-10-17T14:48:20.125699+00:00,10.968,8.420,,9.481,2.200,,,,
2025-10-17T14:48:20.732998+00:00,10.978,9.402,,9.949,0.756,,,,
2025-10-17T14:48:21.341512+00:00,10.987,10.600,,8.641,-0.759,,,,
2025-10-17T14:48:21.949851+00:00,10.998,11.583,,5.790,-2.204,,,,
2025-10-17T14:48:22.552445+00:00,11.008,11.997,,1.944,-3.437,,,,
2025-10-17T14:48:23.160143+00:00,11.019,11.702,,-2.277,-4.366,,,,
2025-10-17T14:48:23.766280+00:00,11.030,10.801,,-6.084,-4.894,,,,
2025-10-17T14:48:24.377135+00:00,11.042,9.605,,-8.827,-4.975,,,,
2025-10-17T14:48:24.985760+00:00,11.054,8.555,,-9.980,-4.598,,,,
2025-10-17T14:48:25.594849+00:00,11.066,8.024,,-9.348,-3.798,,,,
2025-10-17T14:48:26.197914+00:00,11.078,8.198,,-7.071,-2.660,,,,
2025-10-17T14:48:26.803853+00:00,11.090,9.013,,-3.535,-1.276,,,,
2025-10-17T14:48:27.410432+00:00,11.102,10.181,,0.633,0.226,,,,
2025-10-17T14:48:28.023234+00:00,11.114,11.293,,4.727,1.722,,,,
2025-10-17T14:48:28.631299+00:00,11.126,11.933,,7.944,3.048,,,,
2025-10-17T14:48:29.237394+00:00,11.138,11.881,,9.740,4.092,,,,
2025-10-17T14:48:29.842972+00:00,11.150,11.160,,9.810,4.763,,,,
2025-10-17T14:48:30.449883+00:00,11.162,10.023,,8.138,5.000,,,,
2025-10-17T14:48:31.056335+00:00,11.173,8.879,,5.022,4.781,,,,
2025-10-17T14:48:31.667744+00:00,11.184,8.131,,0.980,4.118,,,,
2025-10-17T14:48:32.270661+00:00,11.195,8.057,,-3.183,3.090,,,,
2025-10-17T14:48:32.883662+00:00,11.206,8.682,,-6.838,1.760,,,,
2025-10-17T14:48:33.488926+00:00,11.216,9.772,,-9.233,0.285,,,,
2025-10-17T14:48:34.094573+00:00,11.225,10.944,,-9.996,-1.216,,,,
2025-10-17T14:48:34.697991+00:00,11.235,11.778,,-8.995,-2.602,,,,
2025-10-17T14:48:35.308756+00:00,11.243,11.982,,-6.373,-3.766,,,,
2025-10-17T14:48:35.917222+00:00,11.252,11.472,,-2.620,-4.578,,,,
2025-10-17T14:48:36.528615+00:00,11.259,10.429,,1.622,-4.971,,,,
2025-10-17T14:48:37.133707+00:00,11.266,9.241,,5.534,-4.906,,,,
2025-10-17T14:48:37.741537+00:00,11.273,8.321,,8.479,-4.392,,,,
2025-10-17T14:48:38.344414+00:00,11.278,8.001,,9.907,-3.484,,,,
2025-10-17T14:48:38.953613+00:00,11.284,8.394,,9.584,-2.248,,,,
2025-10-17T14:48:39.562144+00:00,11.288,9.363,,7.547,-0.807,,,,
2025-10-17T14:48:40.174304+00:00,11.292,10.568,,4.139,0.717,,,,
2025-10-17T14:48:40.777680+00:00,11.295,11.556,,0.044,2.155,,,,
2025-10-17T14:48:41.385000+00:00,11.297,11.995,,-4.085,3.406,,,,
2025-10-17T14:48:41.987695+00:00,11.299,11.725,,-7.464,4.339,,,,
2025-10-17T14:48:42.598615+00:00,11.300,10.832,,-9.552,4.885,,,,
2025-10-17T14:48:43.206618+00:00,11.300,9.644,,-9.922,4.980,,,,
2025-10-17T14:48:43.812635+00:00,11.299,8.587,,-8.529,4.620,,,,
2025-10-17T14:48:44.421599+00:00,11.298,8.031,,-5.607,3.834,,,,
2025-10-17T14:48:45.030885+00:00,11.296,8.184,,-1.679,2.695,,,,
2025-10-17T14:48:45.633936+00:00,11.293,8.979,,2.507,1.323,,,,
2025-10-17T14:48:46.240052+00:00,11.290,10.141,,6.270,-0.176,,,,
2025-10-17T14:48:46.846366+00:00,11.286,11.253,,8.922,-1.660,,,,
2025-10-17T14:48:47.459736+00:00,11.281,11.922,,9.992,-3.006,,,,
2025-10-17T14:48:48.068229+00:00,11.275,11.893,,9.262,-4.065,,,,
2025-10-17T14:48:48.676561+00:00,11.269,11.186,,6.877,-4.750,,,,
2025-10-17T14:48:49.279535+00:00,11.262,10.063,,3.299,-4.999,,,,
2025-10-17T14:48:49.886612+00:00,11.255,8.911,,-0.886,-4.794,,,,
2025-10-17T14:48:50.493352+00:00,11.247,8.149,,-4.912,-4.152,,,,
2025-10-17T14:48:51.104316+00:00,11.238,8.049,,-8.082,-3.121,,,,
2025-10-17T14:48:51.712612+00:00,11.229,8.651,,-9.793,-1.808,,,,
2025-10-17T14:48:52.320534+00:00,11.220,9.736,,-9.755,-0.330,,,,
2025-10-17T14:48:52.925861+00:00,11.210,10.911,,-7.989,1.172,,,,
2025-10-17T14:48:53.531690+00:00,11.199,11.763,,-4.806,2.569,,,,
2025-10-17T14:48:54.138149+00:00,11.189,11.987,,-0.767,3.732,,,,
2025-10-17T14:48:54.750385+00:00,11.178,11.494,,3.445,4.561,,,,
2025-10-17T14:48:55.353450+00:00,11.166,10.477,,6.989,4.964,,,,
2025-10-17T14:48:55.964431+00:00,11.155,9.276,,9.326,4.915,,,,
2025-10-17T14:48:56.569666+00:00,11.143,8.344,,9.985,4.417,,,,
2025-10-17T14:48:57.177410+00:00,11.131,8.000,,8.871,3.514,,,,
2025-10-17T14:48:57.780381+00:00,11.119,8.367,,6.201,2.299,,,,
2025-10-17T14:48:58.389642+00:00,11.107,9.321,,2.400,0.861,,,,
2025-10-17T14:48:58.998157+00:00,11.095,10.519,,-1.826,-0.654,,,,
2025-10-17T14:48:59.610209+00:00,11.083,11.534,,-5.745,-2.117,,,,
2025-10-17T14:49:00.215513+00:00,11.071,11.992,,-8.602,-3.371,,,,
2025-10-17T14:49:00.821608+00:00,11.059,11.741,,-9.939,-4.319,,,,
2025-10-17T14:49:01.424555+00:00,11.047,10.875,,-9.519,-4.872,,,,
2025-10-17T14:49:02.035782+00:00,11.035,9.685,,-7.391,-4.984,,,,
2025-10-17T14:49:02.644125+00:00,11.024,8.613,,-3.948,-4.637,,,,
2025-10-17T14:49:03.255193+00:00,11.013,8.037,,0.219,-3.860,,,,
2025-10-17T14:49:03.858677+00:00,11.002,8.166,,4.299,-2.741,,,,
2025-10-17T14:49:04.467809+00:00,10.992,8.953,,7.648,-1.361,,,,
2025-10-17T14:49:05.070819+00:00,10.982,10.103,,9.616,0.129,,,,
2025-10-17T14:49:05.680267+00:00,10.972,11.228,,9.890,1.623,,,,
2025-10-17T14:49:06.288299+00:00,10.963,11.910,,8.396,2.964,,,,
2025-10-17T14:49:06.896313+00:00,10.954,11.907,,5.404,4.034,,,,
2025-10-17T14:49:07.504519+00:00,10.946,11.220,,1.446,4.733,,,,
2025-10-17T14:49:08.112863+00:00,10.939,10.096,,-2.770,4.999,,,,
2025-10-17T14:49:08.716146+00:00,10.932,8.945,,-6.465,4.808,,,,
2025-10-17T14:49:09.323146+00:00,10.926,8.164,,-9.035,4.179,,,,
2025-10-17T14:49:09.929739+00:00,10.920,8.039,,-9.998,3.168,,,,
2025-10-17T14:49:10.540733+00:00,10.915,8.620,,-9.174,1.858,,,,
2025-10-17T14:49:11.148919+00:00,10.911,9.695,,-6.711,0.383,,,,
2025-10-17T14:49:11.759039+00:00,10.907,10.882,,-3.037,-1.132,,,,
2025-10-17T14:49:12.361682+00:00,10.904,11.744,,1.130,-2.526,,,,
2025-10-17T14:49:12.967425+00:00,10.902,11.991,,5.118,-3.698,,,,
2025-10-17T14:49:13.574131+00:00,10.901,11.528,,8.203,-4.535,,,,
2025-10-17T14:49:14.186324+00:00,10.900,10.509,,9.838,-4.959,,,,
2025-10-17T14:49:14.795005+00:00,10.900,9.312,,9.699,-4.923,,,,
2025-10-17T14:49:15.400678+00:00,10.901,8.365,,7.840,-4.439,,,,
2025-10-17T14:49:16.005637+00:00,10.902,8.000,,4.596,-3.551,,,,
2025-10-17T14:49:16.613213+00:00,10.905,8.348,,0.522,-2.336,,,,
2025-10-17T14:49:17.219761+00:00,10.908,9.285,,-3.638,-0.909,,,,
2025-10-17T14:49:17.831125+00:00,10.911,10.486,,-7.176,0.613,,,,
2025-10-17T14:49:18.434613+00:00,10.916,11.501,,-9.400,2.060,,,,
2025-10-17T14:49:19.047117+00:00,10.921,11.988,,-9.967,3.337,,,,
2025-10-17T14:49:19.652449+00:00,10.927,11.759,,-8.754,4.296,,,,
2025-10-17T14:49:20.260397+00:00,10.933,10.900,,-5.978,4.865,,,,
2025-10-17T14:49:20.863239+00:00,10.940,9.728,,-2.171,4.988,,,,
2025-10-17T14:49:21.474164+00:00,10.947,8.641,,2.073,4.655,,,,
2025-10-17T14:49:22.082336+00:00,10.956,8.046,,5.928,3.895,,,,
2025-10-17T14:49:22.693289+00:00,10.964,8.154,,8.734,2.772,,,,
2025-10-17T14:49:23.298901+00:00,10.973,8.921,,9.964,1.405,,,,
2025-10-17T14:49:23.906202+00:00,10.983,10.075,,9.426,-0.094,,,,
2025-10-17T14:49:24.509319+00:00,10.993,11.196,,7.230,-1.575,,,,
2025-10-17T14:49:25.120750+00:00,11.004,11.899,,3.711,-2.930,,,,
2025-10-17T14:49:25.729165+00:00,11.014,11.917,,-0.457,-4.009,,,,
2025-10-17T14:49:26.342199+00:00,11.026,11.239,,-4.572,-4.724,,,,
2025-10-17T14:49:26.945309+00:00,11.037,10.130,,-7.815,-4.997,,,,
2025-10-17T14:49:27.552876+00:00,11.049,8.967,,-9.693,-4.817,,,,
2025-10-17T14:49:28.156338+00:00,11.060,8.178,,-9.849,-4.201,,,,
2025-10-17T14:49:28.766836+00:00,11.072,8.034,,-8.246,-3.192,,,,
2025-10-17T14:49:29.374916+00:00,11.084,8.598,,-5.174,-1.894,,,,
2025-10-17T14:49:29.981048+00:00,11.097,9.660,,-1.192,-0.426,,,,
2025-10-17T14:49:30.589074+00:00,11.109,10.847,,3.013,1.084,,,,
2025-10-17T14:49:31.199694+00:00,11.121,11.733,,6.695,2.502,,,,
2025-10-17T14:49:31.802606+00:00,11.133,11.994,,9.150,3.674,,,,
2025-10-17T14:49:32.408407+00:00,11.145,11.548,,10.000,4.518,,,,
2025-10-17T14:49:33.015421+00:00,11.156,10.549,,9.074,4.952,,,,
2025-10-17T14:49:33.627790+00:00,11.168,9.344,,6.506,4.930,,,,
2025-10-17T14:49:34.236537+00:00,11.179,8.381,,2.785,4.454,,,,
2025-10-17T14:49:34.845069+00:00,11.190,8.000,,-1.432,3.569,,,,
2025-10-17T14:49:35.447929+00:00,11.201,8.331,,-5.360,2.369,,,,
2025-10-17T14:49:36.055582+00:00,11.211,9.259,,-8.366,0.943,,,,
2025-10-17T14:49:36.661821+00:00,11.221,10.450,,-9.880,-0.566,,,,
2025-10-17T14:49:37.273123+00:00,11.231,11.487,,-9.631,-2.035,,,,
2025-10-17T14:49:37.881512+00:00,11.240,11.985,,-7.659,-3.309,,,,
2025-10-17T14:49:38.488633+00:00,11.248,11.771,,-4.326,-4.278,,,,
2025-10-17T14:49:39.094045+00:00,11.256,10.928,,-0.236,-4.855,,,,
2025-10-17T14:49:39.699764+00:00,11.263,9.754,,3.898,-4.991,,,,
2025-10-17T14:49:40.306098+00:00,11.270,8.667,,7.344,-4.671,,,,
2025-10-17T14:49:40.919040+00:00,11.276,8.052,,9.502,-3.915,,,,
2025-10-17T14:49:41.522091+00:00,11.281,8.139,,9.945,-2.815,,,,
2025-10-17T14:49:42.135182+00:00,11.286,8.899,,8.606,-1.437,,,,
2025-10-17T14:49:42.740669+00:00,11.290,10.045,,5.750,0.056,,,,
2025-10-17T14:49:43.347639+00:00,11.294,11.177,,1.866,1.548,,,,
2025-10-17T14:49:43.950609+00:00,11.296,11.887,,-2.323,2.890,,,,
2025-10-17T14:49:44.561853+00:00,11.298,11.926,,-6.149,3.984,,,,
2025-10-17T14:49:45.170012+00:00,11.300,11.273,,-8.857,4.706,,,,
2025-10-17T14:49:45.783291+00:00,11.300,10.153,,-9.986,4.996,,,,
2025-10-17T14:49:46.388589+00:00,11.300,8.991,,-9.323,4.826,,,,
2025-10-17T14:49:46.994230+00:00,11.299,8.187,,-7.009,4.217,,,,
2025-10-17T14:49:47.597208+00:00,11.297,8.028,,-3.472,3.229,,,,
2025-10-17T14:49:48.207998+00:00,11.295,8.575,,0.729,1.932,,,,
2025-10-17T14:49:48.816436+00:00,11.291,9.632,,4.784,0.462,,,,
2025-10-17T14:49:49.427909+00:00,11.287,10.827,,7.998,-1.058,,,,
2025-10-17T14:49:50.030730+00:00,11.283,11.714,,9.755,-2.461,,,,
2025-10-17T14:49:50.640630+00:00,11.278,11.995,,9.791,-3.655,,,,
2025-10-17T14:49:51.243743+00:00,11.272,11.566,,8.097,-4.503,,,,
2025-10-17T14:49:51.853132+00:00,11.265,10.572,,4.943,-4.948,,,,
2025-10-17T14:49:52.461691+00:00,11.258,9.373,,0.909,-4.937,,,,
2025-10-17T14:49:53.068860+00:00,11.250,8.402,,-3.278,-4.474,,,,
2025-10-17T14:49:53.677307+00:00,11.242,8.001,,-6.888,-3.599,,,,
2025-10-17T14:49:54.285786+00:00,11.233,8.318,,-9.268,-2.394,,,,
2025-10-17T14:49:54.888249+00:00,11.224,9.228,,-9.993,-0.984,,,,
2025-10-17T14:49:55.495933+00:00,11.214,10.420,,-8.951,0.528,,,,
2025-10-17T14:49:56.102032+00:00,11.204,11.459,,-6.322,1.987,,,,
2025-10-17T14:49:56.713162+00:00,11.193,11.980,,-2.538,3.275,,,,
2025-10-17T14:49:57.321730+00:00,11.182,11.786,,1.686,4.257,,,,
2025-10-17T14:49:57.930926+00:00,11.171,10.950,,5.612,4.848,,,,
2025-10-17T14:49:58.533885+00:00,11.160,9.785,,8.510,4.993,,,,
2025-10-17T14:49:59.140703+00:00,11.148,8.689,,9.918,4.684,,,,
2025-10-17T14:49:59.747173+00:00,11.136,8.062,,9.564,3.948,,,,
2025-10-17T14:50:00.360204+00:00,11.124,8.131,,7.481,2.839,,,,
2025-10-17T14:50:00.968291+00:00,11.112,8.872,,4.074,1.476,,,,
2025-10-17T14:50:01.574137+00:00,11.100,10.013,,-0.045,-0.016,,,,
2025-10-17T14:50:02.179627+00:00,11.088,11.149,,-4.154,-1.506,,,,
2025-10-17T14:50:02.786691+00:00,11.076,11.877,,-7.534,-2.862,,,,
2025-10-17T14:50:03.393274+00:00,11.064,11.935,,-9.574,-3.956,,,,
2025-10-17T14:50:04.006793+00:00,11.052,11.292,,-9.907,-4.695,,,,
2025-10-17T14:50:04.609707+00:00,11.040,10.199,,-8.480,-4.994,,,,
2025-10-17T14:50:05.222707+00:00,11.029,9.018,,-5.506,-4.836,,,,
2025-10-17T14:50:05.828028+00:00,11.017,8.201,,-1.587,-4.238,,,,
2025-10-17T14:50:06.433948+00:00,11.006,8.024,,2.617,-3.253,,,,
2025-10-17T14:50:07.036974+00:00,10.996,8.546,,6.341,-1.979,,,,
2025-10-17T14:50:07.647608+00:00,10.986,9.596,,8.976,-0.507,,,,
2025-10-17T14:50:08.256385+00:00,10.976,10.789,,9.995,1.007,,,,
2025-10-17T14:50:08.869871+00:00,10.967,11.703,,9.214,2.439,,,,
2025-10-17T14:50:09.475188+00:00,10.958,11.997,,6.801,3.629,,,,
2025-10-17T14:50:10.082793+00:00,10.950,11.579,,3.171,4.492,,,,
2025-10-17T14:50:10.685694+00:00,10.942,10.604,,-0.992,4.941,,,,
2025-10-17T14:50:11.296858+00:00,10.935,9.401,,-5.031,4.942,,,,
2025-10-17T14:50:11.905216+00:00,10.928,8.418,,-8.152,4.488,,,,
2025-10-17T14:50:12.517268+00:00,10.922,8.002,,-9.821,3.616,,,,
2025-10-17T14:50:13.120584+00:00,10.917,8.303,,-9.730,2.427,,,,
2025-10-17T14:50:13.728737+00:00,10.912,9.211,,-7.908,1.006,,,,
2025-10-17T14:50:14.331329+00:00,10.909,10.392,,-4.708,-0.492,,,,
2025-10-17T14:50:14.942055+00:00,10.905,11.446,,-0.627,-1.965,,,,
2025-10-17T14:50:15.550292+00:00,10.903,11.976,,3.551,-3.252,,,,
2025-10-17T14:50:16.155943+00:00,10.901,11.800,,7.082,-4.237,,,,
2025-10-17T14:50:16.765041+00:00,10.900,10.977,,9.368,-4.838,,,,
2025-10-17T14:50:17.374101+00:00,10.900,9.803,,9.976,-4.994,,,,
2025-10-17T14:50:17.977421+00:00,10.900,8.709,,8.818,-4.695,,,,
2025-10-17T14:50:18.583314+00:00,10.902,8.069,,6.095,-3.969,,,,
2025-10-17T14:50:19.189950+00:00,10.904,8.117,,2.288,-2.879,,,,
2025-10-17T14:50:19.803059+00:00,10.906,8.847,,-1.971,-1.512,,,,
2025-10-17T14:50:20.411245+00:00,10.910,9.988,,-5.844,-0.015,,,,
2025-10-17T14:50:21.019379+00:00,10.914,11.133,,-8.673,1.483,,,,
2025-10-17T14:50:21.622381+00:00,10.919,11.868,,-9.951,2.834,,,,
2025-10-17T14:50:22.229516+00:00,10.924,11.942,,-9.473,3.936,,,,
2025-10-17T14:50:22.836130+00:00,10.930,11.323,,-7.312,4.677,,,,
2025-10-17T14:50:23.447610+00:00,10.937,10.222,,-3.821,4.992,,,,
2025-10-17T14:50:24.055754+00:00,10.944,9.047,,0.337,4.846,,,,
2025-10-17T14:50:24.664014+00:00,10.952,8.213,,4.434,4.256,,,,
2025-10-17T14:50:25.269004+00:00,10.961,8.019,,7.726,3.281,,,,
2025-10-17T14:50:25.874583+00:00,10.969,8.530,,9.654,2.007,,,,
2025-10-17T14:50:26.481164+00:00,10.979,9.565,,9.871,0.547,,,,
2025-10-17T14:50:27.093268+00:00,10.989,10.766,,8.314,-0.976,,,,
2025-10-17T14:50:27.696486+00:00,10.999,11.679,,5.307,-2.388,,,,
2025-10-17T14:50:28.309405+00:00,11.010,11.999,,1.300,-3.602,,,,
2025-10-17T14:50:28.914436+00:00,11.021,11.600,,-2.890,-4.472,,,,
2025-10-17T14:50:29.521829+00:00,11.032,10.630,,-6.581,-4.936,,,,
2025-10-17T14:50:30.125139+00:00,11.044,9.441,,-9.089,-4.950,,,,
2025-10-17T14:50:30.734393+00:00,11.055,8.443,,-10.000,-4.511,,,,
2025-10-17T14:50:31.342845+00:00,11.067,8.005,,-9.122,-3.657,,,,
2025-10-17T14:50:31.955063+00:00,11.079,8.287,,-6.594,-2.460,,,,
2025-10-17T14:50:32.560414+00:00,11.092,9.179,,-2.919,-1.050,,,,
2025-10-17T14:50:33.168458+00:00,11.104,10.368,,1.290,0.461,,,,
2025-10-17T14:50:33.771230+00:00,11.116,11.417,,5.238,1.918,,,,
2025-10-17T14:50:34.382112+00:00,11.128,11.970,,8.299,3.218,,,,
2025-10-17T14:50:34.990216+00:00,11.140,11.813,,9.862,4.216,,,,
2025-10-17T14:50:35.601440+00:00,11.152,11.000,,9.660,4.829,,,,
2025-10-17T14:50:36.205024+00:00,11.163,9.841,,7.749,4.996,,,,
2025-10-17T14:50:36.814345+00:00,11.175,8.728,,4.440,4.706,,,,
2025-10-17T14:50:37.417218+00:00,11.186,8.077,,0.381,3.993,,,,
2025-10-17T14:50:38.026668+00:00,11.197,8.108,,-3.788,2.906,,,,
2025-10-17T14:50:38.634493+00:00,11.207,8.818,,-7.270,1.555,,,,
2025-10-17T14:50:39.242214+00:00,11.217,9.951,,-9.456,0.062,,,,
2025-10-17T14:50:39.850414+00:00,11.227,11.102,,-9.956,-1.438,,,,
2025-10-17T14:50:40.458544+00:00,11.236,11.858,,-8.678,-2.806,,,,
2025-10-17T14:50:41.061836+00:00,11.245,11.950,,-5.879,-3.909,,,,
2025-10-17T14:50:41.668771+00:00,11.253,11.348,,-2.022,-4.662,,,,
2025-10-17T14:50:42.275257+00:00,11.260,10.266,,2.191,-4.989,,,,
2025-10-17T14:50:42.886948+00:00,11.267,9.079,,6.045,-4.858,,,,
2025-10-17T14:50:43.495198+00:00,11.274,8.230,,8.795,-4.280,,,,
2025-10-17T14:50:44.105174+00:00,11.279,8.016,,9.976,-3.306,,,,
2025-10-17T14:50:44.707752+00:00,11.284,8.508,,9.384,-2.044,,,,
2025-10-17T14:50:45.313609+00:00,11.289,9.532,,7.130,-0.590,,,,
2025-10-17T14:50:45.920506+00:00,11.292,10.724,,3.607,0.921,,,,
2025-10-17T14:50:46.533292+00:00,11.295,11.665,,-0.599,2.360,,,,
2025-10-17T14:50:47.142021+00:00,11.298,12.000,,-4.672,3.573,,,,
2025-10-17T14:50:47.750203+00:00,11.299,11.617,,-7.906,4.456,,,,
2025-10-17T14:50:48.355048+00:00,11.300,10.660,,-9.724,4.929,,,,
2025-10-17T14:50:48.962611+00:00,11.300,9.465,,-9.821,4.954,,,,
2025-10-17T14:50:49.568879+00:00,11.299,8.462,,-8.173,4.527,,,,
2025-10-17T14:50:50.180067+00:00,11.298,8.007,,-5.046,3.678,,,,
2025-10-17T14:50:50.783374+00:00,11.296,8.265,,-1.064,2.506,,,,
2025-10-17T14:50:51.395846+00:00,11.293,9.153,,3.166,1.085,,,,
2025-10-17T14:50:52.001510+00:00,11.289,10.335,,6.788,-0.420,,,,
2025-10-17T14:50:52.607323+00:00,11.285,11.398,,9.208,-1.887,,,,
2025-10-17T14:50:53.210218+00:00,11.280,11.963,,9.998,-3.177,,,,
2025-10-17T14:50:53.821279+00:00,11.274,11.828,,9.008,-4.191,,,,
2025-10-17T14:50:54.429325+00:00,11.268,11.038,,6.411,-4.815,,,,
2025-10-17T14:50:55.040642+00:00,11.261,9.868,,2.649,-4.997,,,,
2025-10-17T14:50:55.646289+00:00,11.254,8.756,,-1.553,-4.721,,,,
2025-10-17T14:50:56.253376+00:00,11.245,8.085,,-5.487,-4.013,,,,
2025-10-17T14:50:56.856439+00:00,11.237,8.096,,-8.431,-2.946,,,,
2025-10-17T14:50:57.466296+00:00,11.228,8.789,,-9.901,-1.597,,,,
2025-10-17T14:50:58.075001+00:00,11.218,9.917,,-9.596,-0.103,,,,
2025-10-17T14:50:58.687962+00:00,11.208,11.082,,-7.556,1.410,,,,
2025-10-17T14:50:59.290955+00:00,11.198,11.845,,-4.209,2.771,,,,
2025-10-17T14:50:59.900411+00:00,11.187,11.955,,-0.078,3.892,,,,
2025-10-17T14:51:00.503643+00:00,11.176,11.370,,4.027,4.649,,,,
2025-10-17T14:51:01.114187+00:00,11.165,10.287,,7.459,4.987,,,,
2025-10-17T14:51:01.722461+00:00,11.153,9.104,,9.544,4.866,,,,
2025-10-17T14:51:02.330790+00:00,11.141,8.243,,9.925,4.298,,,,
2025-10-17T14:51:02.939079+00:00,11.129,8.012,,8.533,3.335,,,,
2025-10-17T14:51:03.549125+00:00,11.117,8.497,,5.608,2.063,,,,
2025-10-17T14:51:04.152000+00:00,11.105,9.510,,1.724,0.617,,,,
2025-10-17T14:51:04.757895+00:00,11.093,10.701,,-2.482,-0.891,,,,
2025-10-17T14:51:05.364595+00:00,11.081,11.644,,-6.253,-2.320,,,,
2025-10-17T14:51:05.977133+00:00,11.069,12.000,,-8.931,-3.547,,,,
2025-10-17T14:51:06.585532+00:00,11.057,11.633,,-9.992,-4.440,,,,
2025-10-17T14:51:07.194063+00:00,11.045,10.680,,-9.267,-4.925,,,,
2025-10-17T14:51:07.796426+00:00,11.033,9.495,,-6.917,-4.959,,,,
2025-10-17T14:51:08.404240+00:00,11.022,8.480,,-3.319,-4.542,,,,
2025-10-17T14:51:09.010574+00:00,11.011,8.010,,0.860,-3.710,,,,
2025-10-17T14:51:09.621582+00:00,11.000,8.254,,4.915,-2.530,,,,
2025-10-17T14:51:10.230248+00:00,10.990,9.126,,8.075,-1.122,,,,
2025-10-17T14:51:10.837420+00:00,10.980,10.308,,9.789,0.386,,,,
2025-10-17T14:51:11.442623+00:00,10.970,11.378,,9.764,1.854,,,,
2025-10-17T14:51:12.048662+00:00,10.962,11.958,,8.009,3.155,,,,
2025-10-17T14:51:12.654805+00:00,10.953,11.841,,4.834,4.169,,,,
2025-10-17T14:51:13.267757+00:00,10.945,11.057,,0.754,4.808,,,,
2025-10-17T14:51:13.870795+00:00,10.938,9.907,,-3.398,4.999,,,,
2025-10-17T14:51:14.483837+00:00,10.931,8.775,,-7.003,4.731,,,,
2025-10-17T14:51:15.089001+00:00,10.925,8.093,,-9.318,4.033,,,,
2025-10-17T14:51:15.695881+00:00,10.919,8.090,,-9.986,2.966,,,,
2025-10-17T14:51:16.299014+00:00,10.914,8.763,,-8.890,1.637,,,,
2025-10-17T14:51:16.908197+00:00,10.910,9.885,,-6.200,0.144,,,,
2025-10-17T14:51:17.516444+00:00,10.907,11.046,,-2.406,-1.359,,,,
2025-10-17T14:51:18.129623+00:00,10.904,11.837,,1.852,-2.748,,,,
2025-10-17T14:51:18.734682+00:00,10.902,11.961,,5.727,-3.868,,,,
2025-10-17T14:51:19.340404+00:00,10.901,11.388,,8.592,-4.637,,,,
2025-10-17T14:51:19.943643+00:00,10.900,10.326,,9.934,-4.983,,,,
2025-10-17T14:51:20.554244+00:00,10.900,9.136,,9.515,-4.876,,,,
2025-10-17T14:51:21.162722+00:00,10.901,8.260,,7.394,-4.320,,,,
2025-10-17T14:51:21.774260+00:00,10.903,8.009,,3.932,-3.362,,,,
2025-10-17T14:51:22.377084+00:00,10.905,8.469,,-0.179,-2.112,,,,
2025-10-17T14:51:22.986868+00:00,10.908,9.481,,-4.302,-0.654,,,,
2025-10-17T14:51:23.589789+00:00,10.912,10.668,,-7.622,0.848,,,,
2025-10-17T14:51:24.199111+00:00,10.917,11.627,,-9.617,2.287,,,,
2025-10-17T14:51:24.807663+00:00,10.922,12.000,,-9.890,3.514,,,,
2025-10-17T14:51:25.414920+00:00,10.928,11.656,,-8.400,4.417,,,,
2025-10-17T14:51:26.023393+00:00,10.934,10.718,,-5.407,4.916,,,,
2025-10-17T14:51:26.631784+00:00,10.941,9.523,,-1.449,4.964,,,,
2025-10-17T14:51:27.234451+00:00,10.949,8.506,,2.729,4.562,,,,
2025-10-17T14:51:27.841977+00:00,10.957,8.014,,6.455,3.740,,,,
2025-10-17T14:51:28.448331+00:00,10.966,8.232,,9.028,2.579,,,,
2025-10-17T14:51:29.059016+00:00,10.975,9.088,,9.999,1.172,,,,
2025-10-17T14:51:29.668195+00:00,10.985,10.271,,9.174,-0.339,,,,
2025-10-17T14:51:30.277708+00:00,10.995,11.357,,6.705,-1.821,,,,
2025-10-17T14:51:30.880702+00:00,11.005,11.951,,3.077,-3.121,,,,
2025-10-17T14:51:31.486786+00:00,11.016,11.855,,-1.113,-4.145,,,,
2025-10-17T14:51:32.093753+00:00,11.027,11.096,,-5.110,-4.791,,,,
2025-10-17T14:51:32.707105+00:00,11.039,9.934,,-8.225,-4.999,,,,
2025-10-17T14:51:33.315253+00:00,11.051,8.803,,-9.840,-4.745,,,,
2025-10-17T14:51:33.921293+00:00,11.062,8.104,,-9.702,-4.059,,,,
2025-10-17T14:51:34.526704+00:00,11.074,8.079,,-7.847,-3.004,,,,
2025-10-17T14:51:35.133465+00:00,11.086,8.739,,-4.595,-1.672,,,,
2025-10-17T14:51:35.740108+00:00,11.098,9.849,,-0.528,-0.188,,,,
2025-10-17T14:51:36.351147+00:00,11.111,11.021,,3.662,1.323,,,,
2025-10-17T14:51:36.954475+00:00,11.123,11.816,,7.155,2.696,,,,
2025-10-17T14:51:37.567575+00:00,11.135,11.967,,9.413,3.841,,,,
2025-10-17T14:51:38.172697+00:00,11.147,11.413,,9.969,4.620,,,,
2025-10-17T14:51:38.778417+00:00,11.158,10.355,,8.760,4.980,,,,
2025-10-17T14:51:39.381445+00:00,11.170,9.177,,6.015,4.888,,,,
2025-10-17T14:51:39.992016+00:00,11.181,8.280,,2.163,4.345,,,,
2025-10-17T14:51:40.600609+00:00,11.192,8.005,,-2.065,3.405,,,,
2025-10-17T14:51:41.212110+00:00,11.203,8.450,,-5.940,2.145,,,,
2025-10-17T14:51:41.817563+00:00,11.213,9.445,,-8.723,0.700,,,,
2025-10-17T14:51:42.425040+00:00,11.223,10.641,,-9.963,-0.812,,,,
2025-10-17T14:51:43.027828+00:00,11.232,11.602,,-9.440,-2.240,,,,
2025-10-17T14:51:43.639264+00:00,11.241,11.999,,-7.219,-3.482,,,,
2025-10-17T14:51:44.248104+00:00,11.249,11.674,,-3.713,-4.397,,,,
2025-10-17T14:51:44.860544+00:00,11.257,10.741,,0.483,-4.910,,,,
2025-10-17T14:51:45.463767+00:00,11.264,9.557,,4.534,-4.969,,,,
2025-10-17T14:51:46.071674+00:00,11.271,8.522,,7.809,-4.574,,,,
2025-10-17T14:51:46.674865+00:00,11.277,8.019,,9.683,-3.768,,,,
2025-10-17T14:51:47.285963+00:00,11.282,8.221,,9.847,-2.605,,,,
2025-10-17T14:51:47.894446+00:00,11.287,9.063,,8.246,-1.207,,,,
2025-10-17T14:51:48.500293+00:00,11.291,10.236,,5.188,0.296,,,,
2025-10-17T14:51:49.108984+00:00,11.294,11.329,,1.191,1.778,,,,
2025-10-17T14:51:49.718066+00:00,11.297,11.945,,-3.022,3.097,,,,
2025-10-17T14:51:50.321109+00:00,11.299,11.866,,-6.662,4.123,,,,
2025-10-17T14:51:50.927233+00:00,11.300,11.123,,-9.142,4.779,,,,
2025-10-17T14:51:51.533617+00:00,11.300,9.980,,-10.000,5.000,,,,
2025-10-17T14:51:52.146822+00:00,11.300,8.832,,-9.063,4.759,,,,
2025-10-17T14:51:52.755405+00:00,11.298,8.114,,-6.506,4.081,,,,
2025-10-17T14:51:53.363433+00:00,11.297,8.072,,-2.791,3.029,,,,
2025-10-17T14:51:53.966923+00:00,11.294,8.714,,1.392,1.710,,,,
2025-10-17T14:51:54.573898+00:00,11.291,9.818,,5.350,0.228,,,,
2025-10-17T14:51:55.180447+00:00,11.287,10.986,,8.355,-1.274,,,,
2025-10-17T14:51:55.791958+00:00,11.282,11.806,,9.882,-2.670,,,,
2025-10-17T14:51:56.399877+00:00,11.277,11.973,,9.633,-3.813,,,,
2025-10-17T14:51:57.007949+00:00,11.271,11.433,,7.664,-4.607,,,,
2025-10-17T14:51:57.613298+00:00,11.264,10.384,,4.345,-4.977,,,,
2025-10-17T14:51:58.219199+00:00,11.257,9.198,,0.254,-4.894,,,,
2025-10-17T14:51:58.825927+00:00,11.249,8.297,,-3.888,-4.365,,,,
2025-10-17T14:51:59.438127+00:00,11.241,8.004,,-7.365,-3.427,,,,
2025-10-17T14:52:00.041251+00:00,11.232,8.425,,-9.490,-2.191,,,,
2025-10-17T14:52:00.652167+00:00,11.222,9.416,,-9.943,-0.738,,,,
2025-10-17T14:52:01.257466+00:00,11.212,10.609,,-8.625,0.770,,,,
2025-10-17T14:52:01.865257+00:00,11.202,11.588,,-5.767,2.213,,,,
2025-10-17T14:52:02.468140+00:00,11.192,11.997,,-1.915,3.444,,,,
2025-10-17T14:52:03.077426+00:00,11.181,11.696,,2.317,4.373,,,,
2025-10-17T14:52:03.685969+00:00,11.169,10.786,,6.129,4.898,,,,
2025-10-17T14:52:04.298155+00:00,11.158,9.586,,8.858,4.973,,,,
2025-10-17T14:52:04.903721+00:00,11.146,8.546,,9.983,4.592,,,,
2025-10-17T14:52:05.509556+00:00,11.134,8.023,,9.340,3.792,,,,
2025-10-17T14:52:06.112243+00:00,11.122,8.201,,7.057,2.654,,,,
2025-10-17T14:52:06.723413+00:00,11.110,9.027,,3.482,1.256,,,,
2025-10-17T14:52:07.331643+00:00,11.098,10.200,,-0.701,-0.250,,,,
2025-10-17T14:52:07.943006+00:00,11.086,11.306,,-4.778,-1.742,,,,
2025-10-17T14:52:08.546541+00:00,11.074,11.935,,-7.960,-3.056,,,,
2025-10-17T14:52:09.155860+00:00,11.062,11.876,,-9.751,-4.102,,,,
2025-10-17T14:52:09.758703+00:00,11.050,11.153,,-9.804,-4.766,,,,
2025-10-17T14:52:10.367913+00:00,11.038,10.010,,-8.111,-5.000,,,,
2025-10-17T14:52:10.976014+00:00,11.027,8.866,,-4.972,-4.774,,,,
2025-10-17T14:52:11.583914+00:00,11.016,8.128,,-0.947,-4.111,,,,
2025-10-17T14:52:12.192326+00:00,11.005,8.061,,3.250,-3.070,,,,
2025-10-17T14:52:12.802540+00:00,10.994,8.693,,6.876,-1.743,,,,
2025-10-17T14:52:13.405635+00:00,10.984,9.782,,9.247,-0.272,,,,
2025-10-17T14:52:14.012844+00:00,10.975,10.956,,9.994,1.233,,,,
2025-10-17T14:52:14.619236+00:00,10.965,11.787,,8.965,2.623,,,,
2025-10-17T14:52:15.232504+00:00,10.957,11.978,,6.307,3.786,,,,
2025-10-17T14:52:15.840848+00:00,10.948,11.456,,2.538,4.590,,,,
2025-10-17T14:52:16.450569+00:00,10.941,10.408,,-1.694,4.974,,,,
2025-10-17T14:52:17.053726+00:00,10.934,9.226,,-5.584,4.902,,,,
2025-10-17T14:52:17.659454+00:00,10.927,8.314,,-8.502,4.384,,,,
2025-10-17T14:52:18.266663+00:00,10.921,8.002,,-9.917,3.465,,,,
2025-10-17T14:52:18.878948+00:00,10.916,8.410,,-9.555,2.217,,,,
2025-10-17T14:52:19.487271+00:00,10.912,9.389,,-7.484,0.773,,,,
2025-10-17T14:52:20.093319+00:00,10.908,10.582,,-4.091,-0.736,,,,
2025-10-17T14:52:20.698314+00:00,10.905,11.567,,0.020,-2.176,,,,
2025-10-17T14:52:21.305938+00:00,10.903,11.996,,4.145,-3.423,,,,
2025-10-17T14:52:21.912384+00:00,10.901,11.712,,7.525,-4.355,,,,
2025-10-17T14:52:22.523662+00:00,10.900,10.808,,9.580,-4.892,,,,
2025-10-17T14:52:23.127024+00:00,10.900,9.627,,9.914,-4.978,,,,
2025-10-17T14:52:23.739666+00:00,10.901,8.565,,8.472,-4.605,,,,
2025-10-17T14:52:24.345145+00:00,10.902,8.027,,5.537,-3.815,,,,
2025-10-17T14:52:24.951232+00:00,10.904,8.191,,1.618,-2.677,,,,
2025-10-17T14:52:25.553839+00:00,10.907,8.994,,-2.564,-1.303,,,,
2025-10-17T14:52:26.165235+00:00,10.910,10.168,,-6.344,0.211,,,,
2025-10-17T14:52:26.773229+00:00,10.915,11.277,,-8.970,1.696,,,,
2025-10-17T14:52:27.384298+00:00,10.919,11.929,,-9.995,3.033,,,,
2025-10-17T14:52:27.989929+00:00,10.925,11.887,,-9.235,4.080,,,,
2025-10-17T14:52:28.597019+00:00,10.931,11.171,,-6.831,4.757,,,,
2025-10-17T14:52:29.200123+00:00,10.938,10.045,,-3.239,5.000,,,,
2025-10-17T14:52:29.809520+00:00,10.945,8.892,,0.965,4.786,,,,
2025-10-17T14:52:30.417748+00:00,10.953,8.139,,4.990,4.133,,,,
2025-10-17T14:52:31.025869+00:00,10.962,8.054,,8.123,3.102,,,,
2025-10-17T14:52:31.634010+00:00,10.971,8.666,,9.807,1.785,,,,
2025-10-17T14:52:32.242478+00:00,10.980,9.757,,9.739,0.304,,,,
2025-10-17T14:52:32.845501+00:00,10.990,10.926,,7.954,-1.192,,,,
2025-10-17T14:52:33.452443+00:00,11.001,11.772,,4.749,-2.588,,,,
2025-10-17T14:52:34.058801+00:00,11.011,11.985,,0.703,-3.748,,,,
2025-10-17T14:52:34.671786+00:00,11.023,11.481,,-3.510,-4.572,,,,
