ts_iso,batt_v,airspeed_ms,groundspeed_ms,roll_deg,pitch_deg,yaw_deg,lat,lon,alt_m
2025-10-18T10:00:41.055527+00:00,,,,,,,,,
2025-10-18T10:00:41.664857+00:00,,,,,,,,,
2025-10-18T10:00:42.266494+00:00,,,,,,,,,
2025-10-18T10:00:42.870534+00:00,,,,,,,,,
2025-10-18T10:00:43.851538+00:00,,,,,,,,,
2025-10-18T10:00:44.456949+00:00,,,,,,,,,
2025-10-18T10:00:45.060142+00:00,,,,,,,,,
2025-10-18T10:00:45.677633+00:00,11.112,11.158,,4.189,1.519,,,,
2025-10-18T10:00:46.281116+00:00,11.124,11.879,,7.544,2.867,,,,
2025-10-18T10:00:46.901788+00:00,11.137,11.927,,9.606,3.981,,,,
2025-10-18T10:00:47.522270+00:00,11.149,11.257,,9.884,4.714,,,,
2025-10-18T10:00:48.129338+00:00,11.160,10.144,,8.377,4.997,,,,
2025-10-18T10:00:48.747955+00:00,11.172,8.961,,5.312,4.815,,,,
2025-10-18T10:00:49.355424+00:00,11.183,8.171,,1.344,4.191,,,,
2025-10-18T10:00:49.957753+00:00,11.194,8.034,,-2.829,3.193,,,,
2025-10-18T10:00:50.562972+00:00,11.205,8.593,,-6.522,1.902,,,,
2025-10-18T10:00:51.173797+00:00,11.215,9.663,,-9.078,0.423,,,,
2025-10-18T10:00:51.778315+00:00,11.224,10.843,,-10.000,-1.079,,,,
2025-10-18T10:00:52.385241+00:00,11.234,11.727,,-9.150,-2.489,,,,
2025-10-18T10:00:52.989562+00:00,11.242,11.994,,-6.687,-3.667,,,,
2025-10-18T10:00:53.595163+00:00,11.251,11.554,,-3.037,-4.513,,,,
2025-10-18T10:00:54.200246+00:00,11.258,10.561,,1.147,-4.949,,,,
2025-10-18T10:00:54.806783+00:00,11.266,9.367,,5.137,-4.935,,,,
2025-10-18T10:00:55.415870+00:00,11.272,8.396,,8.226,-4.468,,,,
2025-10-18T10:00:56.028790+00:00,11.278,8.001,,9.846,-3.583,,,,
2025-10-18T10:00:56.636325+00:00,11.283,8.328,,9.691,-2.375,,,,
2025-10-18T10:00:57.239565+00:00,11.288,9.245,,7.828,-0.961,,,,
2025-10-18T10:00:57.842520+00:00,11.292,10.429,,4.592,0.539,,,,
2025-10-18T10:00:58.453307+00:00,11.295,11.472,,0.495,2.009,,,,
2025-10-18T10:00:59.056373+00:00,11.297,11.980,,-3.641,3.278,,,,
2025-10-18T10:00:59.667035+00:00,11.299,11.783,,-7.174,4.261,,,,
2025-10-18T10:01:00.270658+00:00,11.300,10.954,,-9.400,4.846,,,,
2025-10-18T10:01:00.878771+00:00,11.300,9.779,,-9.970,4.992,,,,
2025-10-18T10:01:01.488293+00:00,11.299,8.681,,-8.756,4.679,,,,
2025-10-18T10:01:02.094026+00:00,11.298,8.060,,-5.993,3.941,,,,
2025-10-18T10:01:02.697459+00:00,11.296,8.127,,-2.184,2.848,,,,
2025-10-18T10:01:03.304100+00:00,11.294,8.862,,2.030,1.491,,,,
2025-10-18T10:01:03.917005+00:00,11.290,10.015,,5.920,-0.019,,,,
2025-10-18T10:01:04.527527+00:00,11.286,11.159,,8.728,-1.520,,,,
2025-10-18T10:01:05.133274+00:00,11.281,11.881,,9.963,-2.872,,,,
2025-10-18T10:01:05.736379+00:00,11.276,11.935,,9.440,-3.958,,,,
2025-10-18T10:01:06.343733+00:00,11.270,11.300,,7.239,-4.690,,,,
2025-10-18T10:01:06.953047+00:00,11.263,10.196,,3.736,-4.994,,,,
2025-10-18T10:01:07.561827+00:00,11.256,9.023,,-0.433,-4.838,,,,
2025-10-18T10:01:08.169540+00:00,11.248,8.201,,-4.517,-4.238,,,,
2025-10-18T10:01:08.777478+00:00,11.239,8.024,,-7.797,-3.250,,,,
2025-10-18T10:01:09.385283+00:00,11.230,8.555,,-9.686,-1.964,,,,
2025-10-18T10:01:09.988260+00:00,11.221,9.594,,-9.854,-0.510,,,,
2025-10-18T10:01:10.595225+00:00,11.211,10.783,,-8.277,0.999,,,,
2025-10-18T10:01:11.207457+00:00,11.201,11.699,,-5.196,2.429,,,,
2025-10-18T10:01:11.813808+00:00,11.190,11.997,,-1.216,3.623,,,,
2025-10-18T10:01:12.422598+00:00,11.179,11.581,,2.996,4.489,,,,
2025-10-18T10:01:13.027624+00:00,11.168,10.604,,6.652,4.941,,,,
2025-10-18T10:01:13.635325+00:00,11.156,9.407,,9.140,4.944,,,,
2025-10-18T10:01:14.240973+00:00,11.144,8.425,,10.000,4.495,,,,
2025-10-18T10:01:14.847639+00:00,11.132,8.003,,9.086,3.636,,,,
2025-10-18T10:01:15.456433+00:00,11.120,8.296,,6.546,2.440,,,,
2025-10-18T10:01:16.068278+00:00,11.108,9.207,,2.815,1.012,,,,
2025-10-18T10:01:16.676021+00:00,11.096,10.397,,-1.396,-0.499,,,,
2025-10-18T10:01:17.281714+00:00,11.084,11.443,,-5.346,-1.960,,,,
2025-10-18T10:01:17.884383+00:00,11.072,11.974,,-8.338,-3.237,,,,
2025-10-18T10:01:18.495481+00:00,11.060,11.802,,-9.877,-4.234,,,,
2025-10-18T10:01:19.106264+00:00,11.048,10.979,,-9.637,-4.838,,,,
2025-10-18T10:01:19.714661+00:00,11.036,9.806,,-7.672,-4.994,,,,
2025-10-18T10:01:20.318111+00:00,11.025,8.711,,-4.369,-4.696,,,,
2025-10-18T10:01:20.927189+00:00,11.014,8.068,,-0.257,-3.966,,,,
2025-10-18T10:01:21.533532+00:00,11.003,8.118,,3.882,-2.876,,,,
2025-10-18T10:01:22.140290+00:00,10.993,8.840,,7.335,-1.523,,,,
2025-10-18T10:01:22.748822+00:00,10.983,9.979,,9.488,-0.026,,,,
2025-10-18T10:01:23.356383+00:00,10.973,11.125,,9.946,1.471,,,,
2025-10-18T10:01:23.967224+00:00,10.964,11.870,,8.621,2.840,,,,
2025-10-18T10:01:24.572682+00:00,10.955,11.941,,5.774,3.938,,,,
2025-10-18T10:01:25.175652+00:00,10.947,11.326,,1.922,4.675,,,,
2025-10-18T10:01:25.782744+00:00,10.940,10.235,,-2.295,4.991,,,,
2025-10-18T10:01:26.392132+00:00,10.933,9.056,,-6.116,4.850,,,,
2025-10-18T10:01:27.003224+00:00,10.926,8.215,,-8.847,4.259,,,,
2025-10-18T10:01:27.611303+00:00,10.921,8.020,,-9.982,3.280,,,,
2025-10-18T10:01:28.221368+00:00,10.915,8.536,,-9.331,1.995,,,,
2025-10-18T10:01:28.826969+00:00,10.911,9.573,,-7.026,0.537,,,,
2025-10-18T10:01:29.430100+00:00,10.908,10.756,,-3.494,-0.963,,,,
2025-10-18T10:01:30.036842+00:00,10.905,11.677,,0.678,-2.385,,,,
2025-10-18T10:01:30.649338+00:00,10.902,11.999,,4.764,-3.599,,,,
2025-10-18T10:01:31.262291+00:00,10.901,11.593,,7.990,-4.478,,,,
2025-10-18T10:01:31.865926+00:00,10.900,10.625,,9.753,-4.937,,,,
2025-10-18T10:01:32.470871+00:00,10.900,9.434,,9.799,-4.949,,,,
2025-10-18T10:01:33.078407+00:00,10.901,8.440,,8.103,-4.508,,,,
2025-10-18T10:01:33.687322+00:00,10.902,8.005,,4.955,-3.653,,,,
2025-10-18T10:01:34.295668+00:00,10.904,8.286,,0.924,-2.462,,,,
2025-10-18T10:01:34.899231+00:00,10.907,9.173,,-3.240,-1.058,,,,
2025-10-18T10:01:35.510982+00:00,10.911,10.369,,-6.876,0.463,,,,
2025-10-18T10:01:36.119657+00:00,10.915,11.426,,-9.262,1.934,,,,
2025-10-18T10:01:36.723345+00:00,10.920,11.970,,-9.994,3.217,,,,
2025-10-18T10:01:37.326143+00:00,10.926,11.818,,-8.970,4.208,,,,
2025-10-18T10:01:37.937256+00:00,10.932,11.011,,-6.327,4.826,,,,
2025-10-18T10:01:38.547962+00:00,10.939,9.838,,-2.547,4.996,,,,
2025-10-18T10:01:39.156491+00:00,10.947,8.728,,1.676,4.706,,,,
2025-10-18T10:01:39.762263+00:00,10.955,8.076,,5.584,3.988,,,,
2025-10-18T10:01:40.369054+00:00,10.963,8.109,,8.506,2.904,,,,
2025-10-18T10:01:40.975625+00:00,10.972,8.817,,9.917,1.556,,,,
2025-10-18T10:01:41.582445+00:00,10.982,9.947,,9.566,0.066,,,,
2025-10-18T10:01:42.190888+00:00,10.992,11.100,,7.507,-1.435,,,,
2025-10-18T10:01:42.803562+00:00,11.003,11.860,,4.080,-2.813,,,,
2025-10-18T10:01:43.409420+00:00,11.013,11.947,,-0.039,-3.918,,,,
2025-10-18T10:01:44.014990+00:00,11.024,11.342,,-4.148,-4.666,,,,
2025-10-18T10:01:44.617975+00:00,11.036,10.264,,-7.512,-4.989,,,,
2025-10-18T10:01:45.228431+00:00,11.047,9.080,,-9.572,-4.858,,,,
2025-10-18T10:01:45.839772+00:00,11.059,8.227,,-9.910,-4.276,,,,
2025-10-18T10:01:46.443159+00:00,11.071,8.015,,-8.490,-3.313,,,,
2025-10-18T10:01:47.051411+00:00,11.083,8.510,,-5.550,-2.040,,,,
2025-10-18T10:01:47.661052+00:00,11.095,9.542,,-1.609,-0.576,,,,
2025-10-18T10:01:48.266533+00:00,11.107,10.732,,2.593,0.931,,,,
2025-10-18T10:01:48.869926+00:00,11.120,11.659,,6.324,2.349,,,,
2025-10-18T10:01:49.476708+00:00,11.132,12.000,,8.954,3.560,,,,
2025-10-18T10:01:50.088846+00:00,11.144,11.621,,9.995,4.453,,,,
2025-10-18T10:01:50.699431+00:00,11.155,10.656,,9.232,4.930,,,,
2025-10-18T10:01:51.305200+00:00,11.167,9.463,,6.833,4.954,,,,
2025-10-18T10:01:51.908127+00:00,11.178,8.465,,3.243,4.529,,,,
2025-10-18T10:01:52.515967+00:00,11.189,8.008,,-0.951,3.688,,,,
2025-10-18T10:01:53.125133+00:00,11.200,8.265,,-4.983,2.506,,,,
2025-10-18T10:01:53.733710+00:00,11.210,9.146,,-8.121,1.095,,,,
2025-10-18T10:01:54.342085+00:00,11.220,10.332,,-9.806,-0.417,,,,
2025-10-18T10:01:54.949718+00:00,11.230,11.399,,-9.741,-1.889,,,,
2025-10-18T10:01:55.557559+00:00,11.239,11.965,,-7.939,-3.187,,,,
2025-10-18T10:01:56.161228+00:00,11.247,11.830,,-4.747,-4.189,,,,
2025-10-18T10:01:56.767356+00:00,11.255,11.044,,-0.703,-4.813,,,,
2025-10-18T10:01:57.380260+00:00,11.263,9.873,,3.510,-4.997,,,,
2025-10-18T10:01:57.986356+00:00,11.269,8.759,,7.054,-4.722,,,,
2025-10-18T10:01:58.594461+00:00,11.275,8.085,,9.351,-4.014,,,,
2025-10-18T10:01:59.200184+00:00,11.281,8.097,,9.981,-2.942,,,,
2025-10-18T10:01:59.807004+00:00,11.286,8.788,,8.839,-1.600,,,,
2025-10-18T10:02:00.412963+00:00,11.290,9.909,,6.131,-0.113,,,,
2025-10-18T10:02:01.019993+00:00,11.293,11.065,,2.330,1.386,,,,
2025-10-18T10:02:01.628016+00:00,11.296,11.841,,-1.894,2.760,,,,
2025-10-18T10:02:02.240860+00:00,11.298,11.955,,-5.806,3.889,,,,
2025-10-18T10:02:02.843695+00:00,11.299,11.372,,-8.632,4.647,,,,
2025-10-18T10:02:03.449773+00:00,11.300,10.299,,-9.945,4.986,,,,
2025-10-18T10:02:04.055505+00:00,11.300,9.120,,-9.496,4.871,,,,
2025-10-18T10:02:04.657667+00:00,11.299,8.257,,-7.382,4.317,,,,
2025-10-18T10:02:05.268387+00:00,11.297,8.010,,-3.920,3.359,,,,
2025-10-18T10:02:05.881613+00:00,11.295,8.485,,0.264,2.084,,,,
2025-10-18T10:02:06.484690+00:00,11.292,9.492,,4.337,0.640,,,,
2025-10-18T10:02:07.093298+00:00,11.288,10.689,,7.673,-0.875,,,,
2025-10-18T10:02:07.702597+00:00,11.283,11.640,,9.639,-2.311,,,,
2025-10-18T10:02:08.309038+00:00,11.278,12.000,,9.880,-3.530,,,,
2025-10-18T10:02:08.912304+00:00,11.272,11.651,,8.380,-4.423,,,,
2025-10-18T10:02:09.518533+00:00,11.266,10.713,,5.391,-4.917,,,,
2025-10-18T10:02:10.131125+00:00,11.259,9.509,,1.400,-4.962,,,,
2025-10-18T10:02:10.741847+00:00,11.251,8.486,,-2.831,-4.546,,,,
2025-10-18T10:02:11.347331+00:00,11.243,8.011,,-6.525,-3.719,,,,
2025-10-18T10:02:11.950359+00:00,11.234,8.242,,-9.057,-2.558,,,,
2025-10-18T10:02:12.557546+00:00,11.225,9.099,,-9.999,-1.157,,,,
2025-10-18T10:02:13.167448+00:00,11.215,10.285,,-9.155,0.357,,,,
2025-10-18T10:02:13.776220+00:00,11.205,11.366,,-6.673,1.835,,,,
2025-10-18T10:02:14.384090+00:00,11.195,11.955,,-3.003,3.143,,,,
2025-10-18T10:02:14.991964+00:00,11.184,11.845,,1.202,4.163,,,,
2025-10-18T10:02:15.600279+00:00,11.172,11.072,,5.195,4.801,,,,
2025-10-18T10:02:16.203472+00:00,11.161,9.926,,8.241,4.999,,,,
2025-10-18T10:02:16.810025+00:00,11.149,8.800,,9.843,4.743,,,,
2025-10-18T10:02:17.422444+00:00,11.137,8.098,,9.687,4.046,,,,
2025-10-18T10:02:18.028419+00:00,11.126,8.084,,7.806,2.985,,,,
2025-10-18T10:02:18.637290+00:00,11.113,8.757,,4.523,1.645,,,,
2025-10-18T10:02:19.242382+00:00,11.101,9.869,,0.458,0.164,,,,
2025-10-18T10:02:19.849608+00:00,11.089,11.031,,-3.702,-1.338,,,,
2025-10-18T10:02:20.455826+00:00,11.077,11.824,,-7.199,-2.715,,,,
2025-10-18T10:02:21.064821+00:00,11.065,11.965,,-9.425,-3.849,,,,
2025-10-18T10:02:21.673344+00:00,11.053,11.401,,-9.964,-4.628,,,,
2025-10-18T10:02:22.285465+00:00,11.041,10.326,,-8.710,-4.983,,,,
2025-10-18T10:02:22.895185+00:00,11.030,9.138,,-5.895,-4.876,,,,
2025-10-18T10:02:23.498506+00:00,11.019,8.266,,-2.066,-4.328,,,,
2025-10-18T10:02:24.101249+00:00,11.008,8.007,,2.122,-3.389,,,,
2025-10-18T10:02:24.712290+00:00,10.997,8.460,,5.984,-2.127,,,,
2025-10-18T10:02:25.323907+00:00,10.987,9.472,,8.770,-0.666,,,,
2025-10-18T10:02:25.934049+00:00,10.977,10.673,,9.973,0.853,,,,
2025-10-18T10:02:26.537581+00:00,10.968,11.623,,9.399,2.279,,,,
2025-10-18T10:02:27.146722+00:00,10.959,12.000,,7.145,3.509,,,,
2025-10-18T10:02:27.752657+00:00,10.950,11.661,,3.633,4.412,,,,
2025-10-18T10:02:28.359610+00:00,10.943,10.729,,-0.530,4.913,,,,
2025-10-18T10:02:28.967399+00:00,10.935,9.535,,-4.605,4.966,,,,
2025-10-18T10:02:29.575342+00:00,10.929,8.507,,-7.859,4.563,,,,
2025-10-18T10:02:30.186544+00:00,10.923,8.014,,-9.716,3.736,,,,
2025-10-18T10:02:30.791934+00:00,10.918,8.234,,-9.830,2.576,,,,
2025-10-18T10:02:31.395178+00:00,10.913,9.078,,-8.213,1.186,,,,
2025-10-18T10:02:32.002029+00:00,10.909,10.255,,-5.131,-0.319,,,,
2025-10-18T10:02:32.611527+00:00,10.906,11.345,,-1.119,-1.802,,,,
2025-10-18T10:02:33.220291+00:00,10.903,11.950,,3.088,-3.117,,,,
2025-10-18T10:02:33.827939+00:00,10.901,11.855,,6.738,-4.144,,,,
2025-10-18T10:02:34.437957+00:00,10.900,11.092,,9.193,-4.793,,,,
2025-10-18T10:02:35.043823+00:00,10.900,9.944,,9.998,-5.000,,,,
2025-10-18T10:02:35.648746+00:00,10.900,8.817,,9.034,-4.752,,,,
2025-10-18T10:02:36.255387+00:00,10.902,8.109,,6.466,-4.070,,,,
2025-10-18T10:02:36.867570+00:00,10.903,8.078,,2.711,-3.006,,,,
2025-10-18T10:02:37.478453+00:00,10.906,8.744,,-1.525,-1.665,,,,
2025-10-18T10:02:38.081838+00:00,10.909,9.849,,-5.442,-0.189,,,,
2025-10-18T10:02:38.686693+00:00,10.913,11.010,,-8.408,1.308,,,,
2025-10-18T10:02:39.293964+00:00,10.918,11.814,,-9.892,2.691,,,,
2025-10-18T10:02:39.903589+00:00,10.923,11.969,,-9.611,3.832,,,,
2025-10-18T10:02:40.512074+00:00,10.929,11.416,,-7.611,4.618,,,,
2025-10-18T10:02:41.115298+00:00,10.936,10.365,,-4.284,4.979,,,,
2025-10-18T10:02:41.727376+00:00,10.943,9.169,,-0.143,4.886,,,,
2025-10-18T10:02:42.335391+00:00,10.951,8.279,,3.998,4.344,,,,
2025-10-18T10:02:42.938861+00:00,10.960,8.005,,7.405,3.411,,,,
2025-10-18T10:02:43.541485+00:00,10.968,8.434,,9.507,2.173,,,,
2025-10-18T10:02:44.152218+00:00,10.978,9.431,,9.937,0.718,,,,
2025-10-18T10:02:44.763793+00:00,10.988,10.635,,8.575,-0.805,,,,
2025-10-18T10:02:45.374127+00:00,10.998,11.607,,5.672,-2.250,,,,
2025-10-18T10:02:45.979709+00:00,11.009,11.999,,1.783,-3.479,,,,
2025-10-18T10:02:46.587124+00:00,11.020,11.678,,-2.435,-4.394,,,,
2025-10-18T10:02:47.192881+00:00,11.031,10.759,,-6.210,-4.906,,,,
2025-10-18T10:02:47.800056+00:00,11.042,9.568,,-8.889,-4.970,,,,
2025-10-18T10:02:48.407822+00:00,11.054,8.530,,-9.987,-4.580,,,,
2025-10-18T10:02:49.020389+00:00,11.066,8.018,,-9.292,-3.762,,,,
2025-10-18T10:02:49.626778+00:00,11.078,8.220,,-6.946,-2.607,,,,
2025-10-18T10:02:50.231789+00:00,11.090,9.055,,-3.376,-1.218,,,,
2025-10-18T10:02:50.835500+00:00,11.102,10.223,,0.781,0.279,,,,
2025-10-18T10:02:51.445997+00:00,11.114,11.322,,4.843,1.767,,,,
2025-10-18T10:02:52.057079+00:00,11.127,11.944,,8.036,3.092,,,,
2025-10-18T10:02:52.660866+00:00,11.139,11.867,,9.770,4.120,,,,
2025-10-18T10:02:53.268153+00:00,11.150,11.125,,9.780,4.779,,,,
2025-10-18T10:02:53.877709+00:00,11.162,9.975,,8.039,5.000,,,,
2025-10-18T10:02:54.483644+00:00,11.173,8.841,,4.879,4.763,,,,
2025-10-18T10:02:55.086700+00:00,11.185,8.121,,0.874,4.096,,,,
2025-10-18T10:02:55.693544+00:00,11.195,8.066,,-3.309,3.053,,,,
2025-10-18T10:02:56.305763+00:00,11.206,8.710,,-6.931,1.717,,,,
2025-10-18T10:02:56.916913+00:00,11.216,9.820,,-9.297,0.225,,,,
2025-10-18T10:02:57.522961+00:00,11.226,10.987,,-9.989,-1.276,,,,
2025-10-18T10:02:58.125510+00:00,11.235,11.799,,-8.921,-2.653,,,,
2025-10-18T10:02:58.732995+00:00,11.244,11.976,,-6.262,-3.799,,,,
2025-10-18T10:02:59.342373+00:00,11.252,11.443,,-2.475,-4.599,,,,
2025-10-18T10:02:59.950876+00:00,11.259,10.393,,1.749,-4.976,,,,
2025-10-18T10:03:00.558806+00:00,11.266,9.202,,5.658,-4.895,,,,
2025-10-18T10:03:01.166059+00:00,11.273,8.298,,8.555,-4.367,,,,
2025-10-18T10:03:01.774336+00:00,11.279,8.003,,9.930,-3.437,,,,
2025-10-18T10:03:02.377574+00:00,11.284,8.418,,9.542,-2.203,,,,
2025-10-18T10:03:02.984025+00:00,11.288,9.397,,7.464,-0.762,,,,
2025-10-18T10:03:03.596381+00:00,11.292,10.603,,4.022,0.763,,,,
2025-10-18T10:03:04.202874+00:00,11.295,11.582,,-0.106,2.204,,,,
2025-10-18T10:03:04.811540+00:00,11.297,11.998,,-4.229,3.447,,,,
2025-10-18T10:03:05.417044+00:00,11.299,11.699,,-7.582,4.370,,,,
2025-10-18T10:03:06.024068+00:00,11.300,10.793,,-9.596,4.897,,,,
2025-10-18T10:03:06.626913+00:00,11.300,9.612,,-9.907,4.976,,,,
2025-10-18T10:03:07.233810+00:00,11.299,8.562,,-8.465,4.603,,,,
2025-10-18T10:03:07.841925+00:00,11.298,8.026,,-5.511,3.808,,,,
2025-10-18T10:03:08.452884+00:00,11.296,8.199,,-1.553,2.657,,,,
2025-10-18T10:03:09.058694+00:00,11.293,9.016,,2.649,1.272,,,,
2025-10-18T10:03:09.665564+00:00,11.290,10.184,,6.388,-0.231,,,,
2025-10-18T10:03:10.268793+00:00,11.285,11.282,,8.980,-1.704,,,,
2025-10-18T10:03:10.879485+00:00,11.281,11.930,,9.996,-3.038,,,,
2025-10-18T10:03:11.482178+00:00,11.275,11.887,,9.235,-4.080,,,,
2025-10-18T10:03:12.089358+00:00,11.269,11.171,,6.831,-4.757,,,,
2025-10-18T10:03:12.698477+00:00,11.262,10.033,,3.199,-5.000,,,,
2025-10-18T10:03:13.308205+00:00,11.255,8.882,,-1.010,-4.782,,,,
2025-10-18T10:03:13.919078+00:00,11.247,8.133,,-5.045,-4.121,,,,
2025-10-18T10:03:14.545437+00:00,11.238,8.067,,-8.233,-3.048,,,,
2025-10-18T10:03:15.149587+00:00,11.229,8.701,,-9.837,-1.731,,,,
2025-10-18T10:03:15.759161+00:00,11.219,9.806,,-9.699,-0.243,,,,
2025-10-18T10:03:16.367633+00:00,11.209,10.978,,-7.826,1.264,,,,
2025-10-18T10:03:16.975909+00:00,11.199,11.800,,-4.556,2.655,,,,
2025-10-18T10:03:17.582717+00:00,11.188,11.976,,-0.483,3.799,,,,
2025-10-18T10:03:18.191136+00:00,11.177,11.444,,3.687,4.599,,,,
2025-10-18T10:03:18.794368+00:00,11.166,10.405,,7.173,4.974,,,,
2025-10-18T10:03:19.400635+00:00,11.154,9.217,,9.405,4.899,,,,
2025-10-18T10:03:20.013675+00:00,11.142,8.300,,9.966,4.369,,,,
2025-10-18T10:03:20.619485+00:00,11.130,8.003,,8.744,3.445,,,,
2025-10-18T10:03:21.227911+00:00,11.118,8.419,,5.958,2.201,,,,
2025-10-18T10:03:21.833485+00:00,11.106,9.397,,2.127,0.763,,,,
2025-10-18T10:03:22.440450+00:00,11.094,10.593,,-2.090,-0.749,,,,
2025-10-18T10:03:23.046747+00:00,11.082,11.575,,-5.931,-2.191,,,,
2025-10-18T10:03:23.653411+00:00,11.070,11.997,,-8.722,-3.433,,,,
2025-10-18T10:03:24.261681+00:00,11.058,11.704,,-9.964,-4.364,,,,
2025-10-18T10:03:24.874097+00:00,11.046,10.792,,-9.416,-4.897,,,,
2025-10-18T10:03:25.485059+00:00,11.034,9.595,,-7.172,-4.974,,,,
2025-10-18T10:03:26.088106+00:00,11.023,8.556,,-3.688,-4.599,,,,
2025-10-18T10:03:26.691111+00:00,11.012,8.026,,0.444,-3.808,,,,
2025-10-18T10:03:27.301725+00:00,11.001,8.199,,4.545,-2.658,,,,
2025-10-18T10:03:27.914159+00:00,10.991,9.026,,7.837,-1.258,,,,
2025-10-18T10:03:28.523212+00:00,10.981,10.200,,9.704,0.251,,,,
2025-10-18T10:03:29.126444+00:00,10.971,11.294,,9.841,1.723,,,,
2025-10-18T10:03:29.736245+00:00,10.962,11.934,,8.224,3.052,,,,
2025-10-18T10:03:30.342123+00:00,10.954,11.880,,5.154,4.095,,,,
2025-10-18T10:03:30.948738+00:00,10.946,11.155,,1.166,4.765,,,,
2025-10-18T10:03:31.557619+00:00,10.938,10.014,,-3.045,5.000,,,,
2025-10-18T10:03:32.164843+00:00,10.931,8.870,,-6.702,4.776,,,,
2025-10-18T10:03:32.775431+00:00,10.925,8.128,,-9.175,4.111,,,,
2025-10-18T10:03:33.381050+00:00,10.920,8.060,,-9.999,3.075,,,,
2025-10-18T10:03:33.983880+00:00,10.915,8.678,,-9.060,1.766,,,,
2025-10-18T10:03:34.591531+00:00,10.911,9.771,,-6.507,0.286,,,,
2025-10-18T10:03:35.200945+00:00,10.907,10.950,,-2.782,-1.225,,,,
2025-10-18T10:03:35.809262+00:00,10.904,11.785,,1.434,-2.620,,,,
2025-10-18T10:03:36.417665+00:00,10.902,11.980,,5.395,-3.776,,,,
2025-10-18T10:03:37.027072+00:00,10.901,11.463,,8.395,-4.585,,,,
2025-10-18T10:03:37.632996+00:00,10.900,10.426,,9.887,-4.971,,,,
2025-10-18T10:03:38.236342+00:00,10.900,9.242,,9.632,-4.906,,,,
2025-10-18T10:03:38.842646+00:00,10.901,8.322,,7.671,-4.394,,,,
2025-10-18T10:03:39.455887+00:00,10.903,8.001,,4.305,-3.469,,,,
2025-10-18T10:03:40.066604+00:00,10.905,8.406,,0.175,-2.226,,,,
2025-10-18T10:03:40.669804+00:00,10.908,9.372,,-3.938,-0.795,,,,
2025-10-18T10:03:41.275386+00:00,10.912,10.564,,-7.370,0.713,,,,
2025-10-18T10:03:41.882150+00:00,10.916,11.558,,-9.500,2.159,,,,
2025-10-18T10:03:42.494623+00:00,10.921,11.996,,-9.938,3.418,,,,
2025-10-18T10:03:43.103137+00:00,10.927,11.712,,-8.591,4.354,,,,
2025-10-18T10:03:43.706449+00:00,10.933,10.824,,-5.739,4.888,,,,
2025-10-18T10:03:44.319155+00:00,10.940,9.626,,-1.813,4.978,,,,
2025-10-18T10:03:44.926687+00:00,10.948,8.571,,2.406,4.609,,,,
2025-10-18T10:03:45.529751+00:00,10.956,8.029,,6.171,3.826,,,,
2025-10-18T10:03:46.132783+00:00,10.965,8.183,,8.853,2.697,,,,
2025-10-18T10:03:46.743184+00:00,10.974,8.990,,9.984,1.308,,,,
2025-10-18T10:03:47.354816+00:00,10.984,10.165,,9.317,-0.206,,,,
2025-10-18T10:03:47.963139+00:00,10.994,11.274,,6.984,-1.693,,,,
2025-10-18T10:03:48.568480+00:00,11.004,11.925,,3.423,-3.018,,,,
2025-10-18T10:03:49.176161+00:00,11.015,11.890,,-0.759,-4.073,,,,
2025-10-18T10:03:49.781979+00:00,11.026,11.182,,-4.795,-4.752,,,,
2025-10-18T10:03:50.388898+00:00,11.038,10.050,,-7.986,-5.000,,,,
2025-10-18T10:03:50.997707+00:00,11.049,8.898,,-9.760,-4.789,,,,
2025-10-18T10:03:51.609965+00:00,11.061,8.139,,-9.783,-4.132,,,,
2025-10-18T10:03:52.216419+00:00,11.073,8.053,,-8.061,-3.103,,,,
2025-10-18T10:03:52.822395+00:00,11.085,8.661,,-4.910,-1.792,,,,
2025-10-18T10:03:53.425269+00:00,11.097,9.740,,-0.911,-0.326,,,,
2025-10-18T10:03:54.036247+00:00,11.110,10.925,,3.301,1.190,,,,
2025-10-18T10:03:54.647441+00:00,11.122,11.775,,6.920,2.596,,,,
2025-10-18T10:03:55.250667+00:00,11.134,11.985,,9.271,3.748,,,,
2025-10-18T10:03:55.859032+00:00,11.146,11.487,,9.991,4.567,,,,
2025-10-18T10:03:56.468429+00:00,11.157,10.454,,8.924,4.967,,,,
2025-10-18T10:03:57.074458+00:00,11.169,9.263,,6.275,4.911,,,,
2025-10-18T10:03:57.677836+00:00,11.180,8.338,,2.532,4.411,,,,
2025-10-18T10:03:58.283888+00:00,11.191,8.000,,-1.674,3.507,,,,
2025-10-18T10:03:58.896969+00:00,11.202,8.383,,-5.625,2.268,,,,
2025-10-18T10:03:59.509835+00:00,11.212,9.354,,-8.554,0.819,,,,
2025-10-18T10:04:00.115178+00:00,11.222,10.546,,-9.927,-0.689,,,,
2025-10-18T10:04:00.718536+00:00,11.231,11.541,,-9.548,-2.129,,,,
2025-10-18T10:04:01.325300+00:00,11.240,11.993,,-7.476,-3.383,,,,
2025-10-18T10:04:01.934585+00:00,11.249,11.731,,-4.058,-4.332,,,,
2025-10-18T10:04:02.543290+00:00,11.257,10.847,,0.082,-4.881,,,,
2025-10-18T10:04:03.151158+00:00,11.264,9.660,,4.202,-4.982,,,,
2025-10-18T10:04:03.758918+00:00,11.270,8.596,,7.573,-4.626,,,,
2025-10-18T10:04:04.366782+00:00,11.276,8.034,,9.593,-3.846,,,,
2025-10-18T10:04:04.970115+00:00,11.282,8.173,,9.907,-2.723,,,,
2025-10-18T10:04:05.576919+00:00,11.287,8.963,,8.468,-1.346,,,,
2025-10-18T10:04:06.188823+00:00,11.291,10.134,,5.493,0.167,,,,
2025-10-18T10:04:06.795008+00:00,11.294,11.247,,1.566,1.651,,,,
2025-10-18T10:04:07.403306+00:00,11.297,11.917,,-2.654,2.989,,,,
2025-10-18T10:04:08.008428+00:00,11.298,11.901,,-6.382,4.047,,,,
2025-10-18T10:04:08.616113+00:00,11.300,11.206,,-8.990,4.740,,,,
2025-10-18T10:04:09.221735+00:00,11.300,10.084,,-9.996,4.999,,,,
2025-10-18T10:04:09.828657+00:00,11.300,8.929,,-9.228,4.802,,,,
2025-10-18T10:04:10.437436+00:00,11.299,8.155,,-6.810,4.163,,,,
2025-10-18T10:04:11.049358+00:00,11.297,8.046,,-3.153,3.136,,,,
2025-10-18T10:04:11.657707+00:00,11.294,8.640,,1.049,1.825,,,,
2025-10-18T10:04:12.260713+00:00,11.291,9.712,,5.031,0.361,,,,
2025-10-18T10:04:12.863606+00:00,11.287,10.885,,8.130,-1.136,,,,
2025-10-18T10:04:13.474278+00:00,11.283,11.754,,9.812,-2.547,,,,
2025-10-18T10:04:14.077023+00:00,11.277,11.990,,9.742,-3.710,,,,
2025-10-18T10:04:14.688232+00:00,11.271,11.514,,7.926,-4.546,,,,
2025-10-18T10:04:15.291658+00:00,11.265,10.505,,4.730,-4.959,,,,
2025-10-18T10:04:15.899694+00:00,11.258,9.309,,0.671,-4.922,,,,
2025-10-18T10:04:16.509585+00:00,11.250,8.358,,-3.521,-4.432,,,,
2025-10-18T10:04:17.115701+00:00,11.241,8.000,,-7.062,-3.539,,,,
2025-10-18T10:04:17.718674+00:00,11.233,8.351,,-9.343,-2.330,,,,
2025-10-18T10:04:18.325189+00:00,11.223,9.290,,-9.982,-0.903,,,,
2025-10-18T10:04:18.937630+00:00,11.213,10.493,,-8.830,0.622,,,,
2025-10-18T10:04:19.548626+00:00,11.203,11.516,,-6.087,2.085,,,,
2025-10-18T10:04:20.154171+00:00,11.193,11.989,,-2.285,3.345,,,,
2025-10-18T10:04:20.757053+00:00,11.182,11.757,,1.903,4.298,,,,
2025-10-18T10:04:21.364941+00:00,11.171,10.897,,5.786,4.865,,,,
2025-10-18T10:04:21.974765+00:00,11.159,9.711,,8.643,4.987,,,,
2025-10-18T10:04:22.583180+00:00,11.147,8.632,,9.949,4.650,,,,
2025-10-18T10:04:23.191382+00:00,11.135,8.044,,9.477,3.886,,,,
2025-10-18T10:04:23.798748+00:00,11.123,8.156,,7.318,2.767,,,,
2025-10-18T10:04:24.406685+00:00,11.111,8.929,,3.852,1.393,,,,
2025-10-18T10:04:25.009924+00:00,11.099,10.077,,-0.269,-0.096,,,,
2025-10-18T10:04:25.615778+00:00,11.087,11.201,,-4.358,-1.583,,,,
2025-10-18T10:04:26.228366+00:00,11.075,11.902,,-7.706,-2.939,,,,
2025-10-18T10:04:26.835082+00:00,11.063,11.915,,-9.647,-4.013,,,,
2025-10-18T10:04:27.443001+00:00,11.051,11.242,,-9.873,-4.722,,,,
2025-10-18T10:04:28.048735+00:00,11.039,10.129,,-8.347,-4.997,,,,
2025-10-18T10:04:28.655769+00:00,11.028,8.967,,-5.334,-4.817,,,,
2025-10-18T10:04:29.262020+00:00,11.017,8.175,,-1.378,-4.197,,,,
2025-10-18T10:04:29.868944+00:00,11.006,8.034,,2.827,-3.194,,,,
2025-10-18T10:04:30.476692+00:00,10.995,8.596,,6.534,-1.896,,,,
2025-10-18T10:04:31.089191+00:00,10.985,9.670,,9.090,-0.413,,,,
2025-10-18T10:04:31.697746+00:00,10.975,10.857,,10.000,1.099,,,,
2025-10-18T10:04:32.300982+00:00,10.966,11.731,,9.138,2.498,,,,
2025-10-18T10:04:32.904209+00:00,10.957,11.994,,6.671,3.672,,,,
2025-10-18T10:04:33.514555+00:00,10.949,11.544,,2.985,4.522,,,,
2025-10-18T10:04:34.126268+00:00,10.941,10.534,,-1.248,4.954,,,,
2025-10-18T10:04:34.734781+00:00,10.934,9.336,,-5.236,4.929,,,,
2025-10-18T10:04:35.337829+00:00,10.928,8.383,,-8.267,4.456,,,,
2025-10-18T10:04:35.947648+00:00,10.922,8.000,,-9.855,3.570,,,,
2025-10-18T10:04:36.553435+00:00,10.917,8.334,,-9.681,2.363,,,,
2025-10-18T10:04:37.159977+00:00,10.912,9.262,,-7.789,0.939,,,,
2025-10-18T10:04:37.768507+00:00,10.908,10.457,,-4.501,-0.575,,,,
2025-10-18T10:04:38.375835+00:00,10.905,11.487,,-0.418,-2.034,,,,
2025-10-18T10:04:38.987020+00:00,10.903,11.985,,3.765,-3.314,,,,
2025-10-18T10:04:39.592403+00:00,10.901,11.771,,7.242,-4.279,,,,
2025-10-18T10:04:40.195124+00:00,10.900,10.931,,9.431,-4.854,,,,
2025-10-18T10:04:40.802664+00:00,10.900,9.754,,9.963,-4.991,,,,
2025-10-18T10:04:41.412549+00:00,10.901,8.662,,8.712,-4.668,,,,
2025-10-18T10:04:42.020912+00:00,10.902,8.052,,5.906,-3.917,,,,
2025-10-18T10:04:42.629099+00:00,10.904,8.142,,2.046,-2.807,,,,
2025-10-18T10:04:43.238747+00:00,10.907,8.900,,-2.189,-1.435,,,,
2025-10-18T10:04:43.844641+00:00,10.910,10.047,,-6.010,0.059,,,,
2025-10-18T10:04:44.447881+00:00,10.914,11.173,,-8.758,1.541,,,,
2025-10-18T10:04:45.054183+00:00,10.919,11.887,,-9.969,2.891,,,,
2025-10-18T10:04:45.666818+00:00,10.924,11.925,,-9.395,3.987,,,,
2025-10-18T10:04:46.278180+00:00,10.931,11.265,,-7.127,4.710,,,,
2025-10-18T10:04:46.881116+00:00,10.937,10.163,,-3.628,4.996,,,,
2025-10-18T10:04:47.486508+00:00,10.945,9.000,,0.525,4.829,,,,
2025-10-18T10:04:48.093804+00:00,10.952,8.190,,4.597,4.221,,,,
2025-10-18T10:04:48.703120+00:00,10.961,8.029,,7.859,3.223,,,,
2025-10-18T10:04:49.311914+00:00,10.970,8.576,,9.712,1.929,,,,
2025-10-18T10:04:49.914576+00:00,10.979,9.623,,9.836,0.474,,,,
2025-10-18T10:04:50.526897+00:00,10.989,10.820,,8.197,-1.049,,,,
2025-10-18T10:04:51.135569+00:00,11.000,11.716,,5.096,-2.465,,,,
2025-10-18T10:04:51.738121+00:00,11.010,11.996,,1.127,-3.645,,,,
2025-10-18T10:04:52.341450+00:00,11.021,11.572,,-3.045,-4.497,,,,
2025-10-18T10:04:52.951762+00:00,11.033,10.580,,-6.718,-4.946,,,,
2025-10-18T10:04:53.562836+00:00,11.044,9.377,,-9.185,-4.937,,,,
2025-10-18T10:04:54.171513+00:00,11.056,8.402,,-9.998,-4.474,,,,
2025-10-18T10:04:54.776282+00:00,11.068,8.002,,-9.035,-3.606,,,,
2025-10-18T10:04:55.383726+00:00,11.080,8.313,,-6.462,-2.405,,,,
2025-10-18T10:04:55.989825+00:00,11.092,9.226,,-2.748,-0.988,,,,
2025-10-18T10:04:56.596114+00:00,11.104,10.414,,1.455,0.521,,,,
2025-10-18T10:04:57.204903+00:00,11.116,11.459,,5.415,1.987,,,,
2025-10-18T10:04:57.816634+00:00,11.128,11.980,,8.417,3.276,,,,
2025-10-18T10:04:58.422932+00:00,11.140,11.788,,9.894,4.255,,,,
2025-10-18T10:04:59.028443+00:00,11.152,10.960,,9.616,4.844,,,,
2025-10-18T10:04:59.631049+00:00,11.164,9.796,,7.650,4.993,,,,
2025-10-18T10:05:00.242061+00:00,11.175,8.692,,4.290,4.686,,,,
2025-10-18T10:05:00.853443+00:00,11.186,8.060,,0.154,3.943,,,,
2025-10-18T10:05:01.456548+00:00,11.197,8.126,,-3.956,2.852,,,,
2025-10-18T10:05:02.065126+00:00,11.208,8.862,,-7.398,1.491,,,,
2025-10-18T10:05:02.674605+00:00,11.218,10.008,,-9.519,-0.010,,,,
2025-10-18T10:05:03.281049+00:00,11.227,11.146,,-9.936,-1.502,,,,
2025-10-18T10:05:03.884415+00:00,11.236,11.874,,-8.600,-2.852,,,,
2025-10-18T10:05:04.490928+00:00,11.245,11.938,,-5.735,-3.948,,,,
2025-10-18T10:05:05.103404+00:00,11.253,11.302,,-1.810,-4.689,,,,
2025-10-18T10:05:05.714221+00:00,11.261,10.196,,2.431,-4.994,,,,
2025-10-18T10:05:06.319517+00:00,11.268,9.028,,6.204,-4.840,,,,
2025-10-18T10:05:06.922421+00:00,11.274,8.208,,8.872,-4.249,,,,
2025-10-18T10:05:07.529727+00:00,11.280,8.021,,9.985,-3.267,,,,
2025-10-18T10:05:08.139058+00:00,11.285,8.545,,9.316,-1.981,,,,
2025-10-18T10:05:08.748852+00:00,11.289,9.593,,6.974,-0.512,,,,
2025-10-18T10:05:09.356494+00:00,11.293,10.784,,3.396,1.000,,,,
2025-10-18T10:05:09.963957+00:00,11.295,11.694,,-0.787,2.419,,,,
2025-10-18T10:05:10.572778+00:00,11.298,11.998,,-4.838,3.620,,,,
2025-10-18T10:05:11.175771+00:00,11.299,11.591,,-7.998,4.481,,,,
2025-10-18T10:05:11.782361+00:00,11.300,10.616,,-9.761,4.939,,,,
2025-10-18T10:05:12.394826+00:00,11.300,9.410,,-9.781,4.944,,,,
2025-10-18T10:05:13.000851+00:00,11.299,8.427,,-8.058,4.496,,,,
2025-10-18T10:05:13.609639+00:00,11.298,8.003,,-4.889,3.634,,,,
2025-10-18T10:05:14.214780+00:00,11.296,8.293,,-0.871,2.446,,,,
2025-10-18T10:05:14.822235+00:00,11.293,9.194,,3.316,1.030,,,,
2025-10-18T10:05:15.428534+00:00,11.289,10.381,,6.906,-0.478,,,,
2025-10-18T10:05:16.034713+00:00,11.285,11.432,,9.271,-1.942,,,,
2025-10-18T10:05:16.643366+00:00,11.280,11.973,,9.991,-3.233,,,,
2025-10-18T10:05:17.255596+00:00,11.274,11.803,,8.913,-4.232,,,,
2025-10-18T10:05:17.863992+00:00,11.268,10.984,,6.244,-4.835,,,,
2025-10-18T10:05:18.467341+00:00,11.261,9.823,,2.494,-4.995,,,,
2025-10-18T10:05:19.069713+00:00,11.253,8.725,,-1.688,-4.704,,,,
2025-10-18T10:05:19.680855+00:00,11.245,8.072,,-5.625,-3.977,,,,
2025-10-18T10:05:20.284243+00:00,11.237,8.111,,-8.520,-2.897,,,,
2025-10-18T10:05:20.899300+00:00,11.227,8.836,,-9.928,-1.527,,,,
2025-10-18T10:05:21.523816+00:00,11.217,10.007,,-9.503,0.009,,,,
2025-10-18T10:05:22.128249+00:00,11.208,11.143,,-7.386,1.497,,,,
2025-10-18T10:05:22.734327+00:00,11.197,11.874,,-3.956,2.852,,,,
2025-10-18T10:05:23.340132+00:00,11.186,11.938,,0.173,3.947,,,,
2025-10-18T10:05:23.945885+00:00,11.175,11.313,,4.272,4.683,,,,
2025-10-18T10:05:24.552725+00:00,11.164,10.218,,7.618,4.993,,,,
2025-10-18T10:05:25.174746+00:00,11.152,9.018,,9.640,4.836,,,,
2025-10-18T10:05:25.779841+00:00,11.140,8.201,,9.881,4.239,,,,
2025-10-18T10:05:26.384961+00:00,11.128,8.023,,8.376,3.256,,,,
2025-10-18T10:05:26.988030+00:00,11.116,8.544,,5.403,1.982,,,,
2025-10-18T10:05:27.598356+00:00,11.104,9.593,,1.430,0.512,,,,
2025-10-18T10:05:28.207893+00:00,11.092,10.787,,-2.794,-1.004,,,,
2025-10-18T10:05:28.811905+00:00,11.080,11.692,,-6.488,-2.416,,,,
2025-10-18T10:05:29.420233+00:00,11.068,11.998,,-9.052,-3.616,,,,
2025-10-18T10:05:30.038627+00:00,11.056,11.575,,-10.000,-4.495,,,,
2025-10-18T10:05:30.644286+00:00,11.044,10.592,,-9.140,-4.944,,,,
2025-10-18T10:05:31.247488+00:00,11.032,9.404,,-6.674,-4.943,,,,
2025-10-18T10:05:31.852687+00:00,11.021,8.424,,-3.023,-4.494,,,,
2025-10-18T10:05:32.465526+00:00,11.010,8.003,,1.216,-3.623,,,,
2025-10-18T10:05:33.076792+00:00,10.999,8.307,,5.225,-2.419,,,,
2025-10-18T10:05:33.681637+00:00,10.989,9.212,,8.267,-1.005,,,,
2025-10-18T10:05:34.285232+00:00,10.979,10.395,,9.847,0.496,,,,
2025-10-18T10:05:34.893504+00:00,10.970,11.444,,9.687,1.963,,,,
2025-10-18T10:05:35.500741+00:00,10.961,11.976,,7.802,3.248,,,,
2025-10-18T10:05:36.107539+00:00,10.952,11.801,,4.531,4.235,,,,
2025-10-18T10:05:36.107539+00:00,10.952,11.801,,4.531,4.235,,,,
2025-10-18T10:05:39.320443+00:00,10.917,8.266,,-9.785,2.505,,,,
2025-10-18T10:05:39.928772+00:00,10.913,9.146,,-8.058,1.094,,,,
2025-10-18T10:05:40.537760+00:00,10.909,10.334,,-4.888,-0.420,,,,
2025-10-18T10:05:41.141617+00:00,10.906,11.395,,-0.879,-1.882,,,,
2025-10-18T10:05:42.251432+00:00,10.902,11.904,,6.357,-4.040,,,,
2025-10-18T10:05:42.864050+00:00,10.900,11.206,,8.991,-4.740,,,,
2025-10-18T10:05:43.474951+00:00,10.900,10.073,,9.997,-4.999,,,,
2025-10-18T10:05:44.078216+00:00,10.900,8.926,,9.223,-4.801,,,,
2025-10-18T10:05:44.683655+00:00,10.901,8.157,,6.818,-4.165,,,,
2025-10-18T10:05:45.341097+00:00,10.903,8.067,,2.859,-3.049,,,,
2025-10-18T10:05:45.951596+00:00,10.906,8.709,,-1.369,-1.718,,,,
2025-10-18T10:05:46.559076+00:00,10.909,9.813,,-5.334,-0.235,,,,
2025-10-18T10:05:47.165695+00:00,10.913,10.981,,-8.345,1.268,,,,
2025-10-18T10:05:47.776086+00:00,10.918,11.803,,-9.878,2.663,,,,
2025-10-18T10:05:48.387447+00:00,10.923,11.973,,-9.633,3.813,,,,
2025-10-18T10:05:48.990759+00:00,10.929,11.440,,-7.687,4.602,,,,
2025-10-18T10:05:49.593826+00:00,10.936,10.399,,-4.392,4.975,,,,
2025-10-18T10:05:50.202820+00:00,10.943,9.206,,-0.284,4.896,,,,
2025-10-18T10:05:50.812108+00:00,10.951,8.298,,3.877,4.367,,,,
2025-10-18T10:05:51.422026+00:00,10.959,8.003,,7.346,3.434,,,,
2025-10-18T10:05:52.027163+00:00,10.968,8.422,,9.486,2.195,,,,
2025-10-18T10:05:53.134321+00:00,10.986,10.394,,8.992,-0.495,,,,
2025-10-18T10:05:53.741225+00:00,10.996,11.442,,6.389,-1.959,,,,
2025-10-18T10:05:54.346855+00:00,11.006,11.974,,2.659,-3.242,,,,
2025-10-18T10:05:54.952324+00:00,11.017,11.805,,-1.541,-4.229,,,,
2025-10-18T10:05:55.558664+00:00,11.028,10.992,,-5.473,-4.833,,,,
2025-10-18T10:05:56.171666+00:00,11.040,9.812,,-8.459,-4.994,,,,
2025-10-18T10:05:56.775758+00:00,11.052,8.715,,-9.903,-4.699,,,,
2025-10-18T10:05:57.385470+00:00,11.064,8.069,,-9.591,-3.969,,,,
2025-10-18T10:05:57.991727+00:00,11.076,8.117,,-7.574,-2.880,,,,
2025-10-18T10:05:58.602995+00:00,11.088,8.844,,-4.182,-1.517,,,,
2025-10-18T10:05:59.213371+00:00,11.100,9.988,,-0.042,-0.015,,,,
2025-10-18T10:05:59.822940+00:00,11.112,11.135,,4.101,1.486,,,,
2025-10-18T10:06:00.425938+00:00,11.124,11.869,,7.477,2.837,,,,
2025-10-18T10:06:01.532849+00:00,11.146,11.473,,9.988,4.578,,,,
2025-10-18T10:06:02.138018+00:00,11.158,10.442,,8.905,4.969,,,,
2025-10-18T10:06:02.750374+00:00,11.169,9.241,,6.209,4.905,,,,
2025-10-18T10:06:03.361224+00:00,11.180,8.317,,2.399,4.388,,,,
2025-10-18T10:06:03.974202+00:00,11.192,8.002,,-1.857,3.460,,,,
2025-10-18T10:06:04.577762+00:00,11.202,8.403,,-5.723,2.230,,,,
2025-10-18T10:06:05.185019+00:00,11.212,9.376,,-8.596,0.790,,,,
2025-10-18T10:06:05.793972+00:00,11.222,10.575,,-9.939,-0.726,,,,
2025-10-18T10:06:06.401009+00:00,11.232,11.565,,-9.509,-2.171,,,,
2025-10-18T10:06:07.008497+00:00,11.241,11.996,,-7.384,-3.419,,,,
2025-10-18T10:06:07.615950+00:00,11.249,11.713,,-3.945,-4.354,,,,
2025-10-18T10:06:08.224098+00:00,11.257,10.816,,0.202,-4.890,,,,
2025-10-18T10:06:09.329118+00:00,11.269,8.735,,7.129,-4.710,,,,
2025-10-18T10:06:09.940058+00:00,11.276,8.075,,9.396,-3.987,,,,
2025-10-18T10:06:10.548340+00:00,11.281,8.110,,9.971,-2.900,,,,
2025-10-18T10:06:11.154528+00:00,11.286,8.820,,8.773,-1.552,,,,
2025-10-18T10:06:11.762923+00:00,11.290,9.954,,6.006,-0.057,,,,
2025-10-18T10:06:12.382022+00:00,11.294,11.123,,2.093,1.469,,,,
2025-10-18T10:06:12.985800+00:00,11.296,11.864,,-2.102,2.823,,,,
2025-10-18T10:06:13.591767+00:00,11.298,11.945,,-5.939,3.926,,,,
2025-10-18T10:06:14.198050+00:00,11.299,11.333,,-8.725,4.671,,,,
2025-10-18T10:06:14.809539+00:00,11.300,10.235,,-9.966,4.991,,,,
2025-10-18T10:06:15.418185+00:00,11.300,9.057,,-9.415,4.850,,,,
2025-10-18T10:06:16.025092+00:00,11.299,8.220,,-7.190,4.266,,,,
2025-10-18T10:06:16.628096+00:00,11.297,8.017,,-3.711,3.298,,,,
2025-10-18T10:06:17.737410+00:00,11.292,9.349,,3.860,0.825,,,,
2025-10-18T10:06:18.344284+00:00,11.288,10.544,,7.319,-0.686,,,,
2025-10-18T10:06:18.955769+00:00,11.284,11.550,,9.487,-2.145,,,,
2025-10-18T10:06:19.563672+00:00,11.279,11.994,,9.946,-3.399,,,,
2025-10-18T10:06:20.172228+00:00,11.273,11.723,,8.629,-4.341,,,,
2025-10-18T10:06:20.791289+00:00,11.267,10.814,,5.709,-4.891,,,,
2025-10-18T10:06:21.399430+00:00,11.260,9.624,,1.809,-4.978,,,,
2025-10-18T10:06:22.008944+00:00,11.252,8.567,,-2.423,-4.607,,,,
2025-10-18T10:06:22.619422+00:00,11.244,8.026,,-6.226,-3.810,,,,
2025-10-18T10:06:23.223116+00:00,11.235,8.192,,-8.888,-2.675,,,,
2025-10-18T10:06:23.827326+00:00,11.226,8.998,,-9.986,-1.297,,,,
2025-10-18T10:06:24.431677+00:00,11.216,10.159,,-9.324,0.199,,,,
2025-10-18T10:06:25.040217+00:00,11.206,11.270,,-6.997,1.687,,,,
2025-10-18T10:06:26.146119+00:00,11.187,11.950,,-0.008,3.907,,,,
2025-10-18T10:06:26.751597+00:00,11.176,11.352,,4.105,4.660,,,,
2025-10-18T10:06:27.354079+00:00,11.164,10.278,,7.478,4.988,,,,
2025-10-18T10:06:27.960945+00:00,11.153,9.099,,9.550,4.864,,,,
2025-10-18T10:06:28.572223+00:00,11.141,8.237,,9.920,4.290,,,,
2025-10-18T10:06:29.184043+00:00,11.129,8.014,,8.499,3.318,,,,
2025-10-18T10:06:29.787537+00:00,11.117,8.500,,5.592,2.056,,,,
2025-10-18T10:06:30.398156+00:00,11.105,9.530,,1.652,0.591,,,,
2025-10-18T10:06:31.001381+00:00,11.093,10.716,,-2.535,-0.910,,,,
2025-10-18T10:06:31.610777+00:00,11.081,11.656,,-6.310,-2.343,,,,
2025-10-18T10:06:32.218325+00:00,11.068,12.000,,-8.949,-3.557,,,,
2025-10-18T10:06:32.823785+00:00,11.057,11.630,,-9.992,-4.443,,,,
2025-10-18T10:06:33.932454+00:00,11.035,9.690,,-7.403,-4.985,,,,
2025-10-18T10:06:34.539537+00:00,11.024,8.618,,-3.973,-4.641,,,,
2025-10-18T10:06:35.141923+00:00,11.013,8.042,,0.131,-3.880,,,,
2025-10-18T10:06:35.746208+00:00,11.002,8.157,,4.224,-2.766,,,,
2025-10-18T10:06:36.352921+00:00,10.992,8.928,,7.584,-1.395,,,,
2025-10-18T10:06:36.977661+00:00,10.981,10.118,,9.630,0.148,,,,
2025-10-18T10:06:37.585968+00:00,10.972,11.238,,9.883,1.638,,,,
2025-10-18T10:06:38.193884+00:00,10.963,11.913,,8.372,2.977,,,,
2025-10-18T10:06:38.796920+00:00,10.954,11.906,,5.396,4.036,,,,
2025-10-18T10:06:39.403377+00:00,10.946,11.221,,1.450,4.733,,,,
2025-10-18T10:06:40.009141+00:00,10.939,10.102,,-2.750,4.998,,,,
2025-10-18T10:06:40.618396+00:00,10.932,8.940,,-6.481,4.806,,,,
2025-10-18T10:06:41.224890+00:00,10.926,8.163,,-9.042,4.176,,,,
2025-10-18T10:06:42.334335+00:00,10.916,8.475,,-9.443,2.101,,,,
2025-10-18T10:06:42.939781+00:00,10.911,9.482,,-7.254,0.653,,,,
2025-10-18T10:06:43.546024+00:00,10.908,10.675,,-3.776,-0.857,,,,
2025-10-18T10:06:44.152380+00:00,10.905,11.628,,0.372,-2.288,,,,
2025-10-18T10:06:44.765834+00:00,10.902,12.000,,4.499,-3.524,,,,
2025-10-18T10:06:45.376089+00:00,10.901,11.646,,7.795,-4.427,,,,
2025-10-18T10:06:45.987705+00:00,10.900,10.696,,9.692,-4.921,,,,
2025-10-18T10:06:46.593534+00:00,10.900,9.505,,9.847,-4.961,,,,
2025-10-18T10:06:47.202964+00:00,10.901,8.485,,8.243,-4.545,,,,
2025-10-18T10:06:47.806380+00:00,10.902,8.012,,5.198,-3.721,,,,
2025-10-18T10:06:48.415640+00:00,10.904,8.246,,1.198,-2.547,,,,
2025-10-18T10:06:49.022992+00:00,10.907,9.109,,-3.003,-1.144,,,,
2025-10-18T10:06:49.642505+00:00,10.911,10.314,,-6.733,0.394,,,,
2025-10-18T10:06:50.749843+00:00,10.919,11.907,,-9.984,2.956,,,,
2025-10-18T10:06:51.352602+00:00,10.925,11.912,,-9.341,4.020,,,,
2025-10-18T10:06:51.954695+00:00,10.931,11.245,,-7.064,4.721,,,,
2025-10-18T10:06:52.562304+00:00,10.937,10.128,,-3.513,4.997,,,,
2025-10-18T10:06:53.175600+00:00,10.945,8.956,,0.702,4.813,,,,
2025-10-18T10:06:53.783266+00:00,10.953,8.169,,4.756,4.187,,,,
2025-10-18T10:06:54.386939+00:00,10.961,8.036,,7.945,3.185,,,,
2025-10-18T10:06:54.996518+00:00,10.970,8.606,,9.746,1.881,,,,
2025-10-18T10:06:55.601653+00:00,10.980,9.669,,9.805,0.415,,,,
2025-10-18T10:06:56.207829+00:00,10.990,10.852,,8.127,-1.091,,,,
2025-10-18T10:06:56.816016+00:00,11.000,11.733,,4.995,-2.502,,,,
2025-10-18T10:06:57.422789+00:00,11.011,11.993,,0.981,-3.681,,,,
2025-10-18T10:06:58.533365+00:00,11.031,10.735,,-6.281,-4.912,,,,
2025-10-18T10:06:59.137486+00:00,11.043,9.548,,-8.921,-4.968,,,,
2025-10-18T10:06:59.742785+00:00,11.054,8.520,,-9.990,-4.572,,,,
2025-10-18T10:07:00.345230+00:00,11.066,8.018,,-9.299,-3.766,,,,
2025-10-18T10:07:00.954907+00:00,11.078,8.221,,-6.943,-2.605,,,,
2025-10-18T10:07:01.570939+00:00,11.090,9.076,,-3.299,-1.189,,,,
2025-10-18T10:07:02.183446+00:00,11.103,10.264,,0.925,0.330,,,,
2025-10-18T10:07:02.788927+00:00,11.115,11.345,,4.938,1.803,,,,
2025-10-18T10:07:03.394587+00:00,11.127,11.949,,8.078,3.112,,,,
2025-10-18T10:07:03.997839+00:00,11.139,11.860,,9.784,4.134,,,,
2025-10-18T10:07:04.609653+00:00,11.151,11.101,,9.759,4.789,,,,
2025-10-18T10:07:05.216864+00:00,11.162,9.952,,7.990,5.000,,,,
2025-10-18T10:07:05.827348+00:00,11.174,8.814,,4.779,4.750,,,,
2025-10-18T10:07:06.931901+00:00,11.194,8.028,,-2.715,3.226,,,,
2025-10-18T10:07:07.538696+00:00,11.204,8.571,,-6.440,1.937,,,,
2025-10-18T10:07:08.142941+00:00,11.214,9.620,,-9.013,0.478,,,,
2025-10-18T10:07:08.747562+00:00,11.224,10.803,,-9.997,-1.026,,,,
2025-10-18T10:07:09.354142+00:00,11.233,11.704,,-9.212,-2.440,,,,
2025-10-18T10:07:09.966400+00:00,11.242,11.996,,-6.761,-3.642,,,,
2025-10-18T10:07:10.577460+00:00,11.251,11.565,,-3.096,-4.504,,,,
2025-10-18T10:07:11.182992+00:00,11.258,10.578,,1.089,-4.946,,,,
2025-10-18T10:07:11.785747+00:00,11.265,9.390,,5.064,-4.940,,,,
2025-10-18T10:07:12.392469+00:00,11.272,8.413,,8.167,-4.484,,,,
2025-10-18T10:07:13.002522+00:00,11.278,8.002,,9.824,-3.613,,,,
2025-10-18T10:07:13.610697+00:00,11.283,8.310,,9.719,-2.412,,,,
2025-10-18T10:07:14.217587+00:00,11.288,9.221,,7.884,-0.993,,,,
2025-10-18T10:07:15.326489+00:00,11.294,11.302,,1.317,1.736,,,,
2025-10-18T10:07:15.930991+00:00,11.297,11.934,,-2.870,3.053,,,,
2025-10-18T10:07:16.533479+00:00,11.298,11.882,,-6.540,4.090,,,,
2025-10-18T10:07:17.139968+00:00,11.300,11.161,,-9.075,4.762,,,,
2025-10-18T10:07:17.759470+00:00,11.300,9.999,,-10.000,5.000,,,,
2025-10-18T10:07:18.370205+00:00,11.300,8.852,,-9.099,4.768,,,,
2025-10-18T10:07:18.973754+00:00,11.299,8.126,,-6.598,4.106,,,,
2025-10-18T10:07:19.579322+00:00,11.297,8.062,,-2.923,3.068,,,,
2025-10-18T10:07:20.185670+00:00,11.294,8.689,,1.274,1.750,,,,
2025-10-18T10:07:20.794930+00:00,11.291,9.789,,5.263,0.264,,,,
2025-10-18T10:07:21.402476+00:00,11.287,10.962,,8.302,-1.241,,,,
2025-10-18T10:07:22.005896+00:00,11.282,11.787,,9.858,-2.624,,,,
2025-10-18T10:07:23.117235+00:00,11.272,11.597,,8.202,-4.475,,,,
2025-10-18T10:07:23.725076+00:00,11.265,10.624,,5.109,-4.937,,,,
2025-10-18T10:07:24.328074+00:00,11.258,9.436,,1.139,-4.949,,,,
2025-10-18T10:07:24.930788+00:00,11.251,8.448,,-3.029,-4.515,,,,
2025-10-18T10:07:25.541905+00:00,11.242,8.005,,-6.710,-3.659,,,,
2025-10-18T10:07:26.160363+00:00,11.233,8.292,,-9.202,-2.449,,,,
2025-10-18T10:07:26.769049+00:00,11.224,9.194,,-9.997,-1.030,,,,
2025-10-18T10:07:27.374357+00:00,11.214,10.379,,-9.015,0.475,,,,
2025-10-18T10:07:27.981448+00:00,11.204,11.431,,-6.430,1.941,,,,
2025-10-18T10:07:28.586786+00:00,11.194,11.972,,-2.712,3.227,,,,
2025-10-18T10:07:29.193270+00:00,11.183,11.811,,1.494,4.220,,,,
2025-10-18T10:07:29.800519+00:00,11.172,11.002,,5.438,4.829,,,,
2025-10-18T10:07:30.406795+00:00,11.160,9.838,,8.411,4.996,,,,
2025-10-18T10:07:31.511834+00:00,11.139,8.146,,9.796,4.146,,,,
2025-10-18T10:07:32.123122+00:00,11.127,8.051,,8.080,3.113,,,,
2025-10-18T10:07:32.726398+00:00,11.115,8.650,,4.956,1.810,,,,
2025-10-18T10:07:33.335875+00:00,11.103,9.738,,0.917,0.328,,,,
2025-10-18T10:07:33.939642+00:00,11.091,10.910,,-3.248,-1.170,,,,
2025-10-18T10:07:34.557206+00:00,11.078,11.773,,-6.911,-2.592,,,,
2025-10-18T10:07:35.165527+00:00,11.066,11.984,,-9.280,-3.754,,,,
2025-10-18T10:07:35.773288+00:00,11.054,11.483,,-9.991,-4.570,,,,
2025-10-18T10:07:36.384135+00:00,11.042,10.445,,-8.911,-4.969,,,,
2025-10-18T10:07:36.992860+00:00,11.031,9.250,,-6.238,-4.908,,,,
2025-10-18T10:07:37.596127+00:00,11.020,8.331,,-2.486,-4.403,,,,
2025-10-18T10:07:38.203191+00:00,11.009,8.001,,1.728,-3.493,,,,
2025-10-18T10:07:38.808743+00:00,10.998,8.383,,5.626,-2.268,,,,
2025-10-18T10:07:39.924078+00:00,10.980,10.346,,9.815,0.434,,,,
2025-10-18T10:07:40.527630+00:00,10.970,11.403,,9.737,1.895,,,,
2025-10-18T10:07:41.137113+00:00,10.961,11.966,,7.921,3.196,,,,
2025-10-18T10:07:41.743018+00:00,10.953,11.825,,4.707,4.198,,,,
2025-10-18T10:07:42.356544+00:00,10.945,11.020,,0.605,4.822,,,,
2025-10-18T10:07:42.964749+00:00,10.937,9.854,,-3.571,4.997,,,,
2025-10-18T10:07:43.572072+00:00,10.931,8.742,,-7.106,4.714,,,,
2025-10-18T10:07:44.183031+00:00,10.924,8.078,,-9.384,3.994,,,,
2025-10-18T10:07:44.787861+00:00,10.919,8.105,,-9.975,2.917,,,,
2025-10-18T10:07:45.391263+00:00,10.914,8.802,,-8.809,1.578,,,,
2025-10-18T10:07:45.998660+00:00,10.910,9.930,,-6.073,0.087,,,,
2025-10-18T10:07:46.607497+00:00,10.907,11.086,,-2.246,-1.415,,,,
2025-10-18T10:07:47.718269+00:00,10.902,11.987,,5.236,-3.731,,,,
2025-10-18T10:07:48.326929+00:00,10.901,11.500,,8.289,-4.557,,,,
2025-10-18T10:07:48.930944+00:00,10.900,10.483,,9.854,-4.963,,,,
2025-10-18T10:07:49.535043+00:00,10.900,9.295,,9.684,-4.919,,,,
2025-10-18T10:07:50.137631+00:00,10.901,8.359,,7.814,-4.432,,,,
2025-10-18T10:07:50.753355+00:00,10.902,8.000,,4.493,-3.522,,,,
2025-10-18T10:07:51.364415+00:00,10.905,8.371,,0.382,-2.292,,,,
2025-10-18T10:07:51.974391+00:00,10.908,9.329,,-3.790,-0.851,,,,
2025-10-18T10:07:52.577957+00:00,10.911,10.517,,-7.251,0.651,,,,
2025-10-18T10:07:53.186427+00:00,10.916,11.528,,-9.449,2.107,,,,
2025-10-18T10:07:53.793141+00:00,10.921,11.991,,-9.959,3.365,,,,
2025-10-18T10:07:54.401448+00:00,10.927,11.742,,-8.694,4.318,,,,
2025-10-18T10:07:55.008544+00:00,10.933,10.869,,-5.883,4.874,,,,
2025-10-18T10:07:56.116502+00:00,10.946,8.777,,1.461,4.732,,,,
2025-10-18T10:07:56.722515+00:00,10.954,8.093,,5.403,4.034,,,,
2025-10-18T10:07:57.328608+00:00,10.963,8.089,,8.388,2.968,,,,
2025-10-18T10:07:57.930812+00:00,10.972,8.760,,9.881,1.642,,,,
2025-10-18T10:07:58.539002+00:00,10.981,9.878,,9.633,0.152,,,,
2025-10-18T10:07:59.152396+00:00,10.992,11.050,,7.642,-1.364,,,,
2025-10-18T10:07:59.763609+00:00,11.002,11.837,,4.277,-2.748,,,,
2025-10-18T10:08:00.373397+00:00,11.013,11.959,,0.151,-3.875,,,,
2025-10-18T10:08:00.981563+00:00,11.024,11.378,,-3.991,-4.643,,,,
2025-10-18T10:08:01.584904+00:00,11.035,10.312,,-7.399,-4.985,,,,
2025-10-18T10:08:02.193014+00:00,11.047,9.127,,-9.517,-4.873,,,,
2025-10-18T10:08:02.798902+00:00,11.059,8.258,,-9.937,-4.317,,,,
2025-10-18T10:08:03.408711+00:00,11.071,8.009,,-8.583,-3.361,,,,
2025-10-18T10:08:04.517974+00:00,11.093,9.286,,-2.528,-0.908,,,,
2025-10-18T10:08:05.120866+00:00,11.105,10.471,,1.657,0.593,,,,
2025-10-18T10:08:05.724711+00:00,11.117,11.492,,5.557,2.043,,,,
2025-10-18T10:08:06.330062+00:00,11.129,11.985,,8.484,3.310,,,,
2025-10-18T10:08:06.942534+00:00,11.141,11.766,,9.917,4.286,,,,
2025-10-18T10:08:07.554290+00:00,11.153,10.906,,9.556,4.862,,,,
2025-10-18T10:08:08.157811+00:00,11.164,9.734,,7.508,4.989,,,,
2025-10-18T10:08:08.770248+00:00,11.176,8.643,,4.083,4.657,,,,
2025-10-18T10:08:09.377163+00:00,11.187,8.047,,-0.043,3.900,,,,
2025-10-18T10:08:09.980752+00:00,11.198,8.147,,-4.140,2.793,,,,
2025-10-18T10:08:10.583829+00:00,11.208,8.900,,-7.506,1.435,,,,
2025-10-18T10:08:11.194351+00:00,11.218,10.056,,-9.570,-0.070,,,,
2025-10-18T10:08:12.307470+00:00,11.235,11.818,,-8.848,-2.701,,,,
2025-10-18T10:08:12.913414+00:00,11.244,11.969,,-6.146,-3.833,,,,
2025-10-18T10:08:13.520387+00:00,11.252,11.417,,-2.348,-4.617,,,,
2025-10-18T10:08:14.122761+00:00,11.260,10.368,,1.836,-4.979,,,,
2025-10-18T10:08:14.728779+00:00,11.267,9.183,,5.719,-4.890,,,,
2025-10-18T10:08:15.345603+00:00,11.273,8.277,,8.627,-4.342,,,,
2025-10-18T10:08:15.957829+00:00,11.279,8.006,,9.948,-3.393,,,,
2025-10-18T10:08:16.569644+00:00,11.284,8.459,,9.471,-2.129,,,,
2025-10-18T10:08:17.175635+00:00,11.288,9.459,,7.311,-0.682,,,,
2025-10-18T10:08:17.780609+00:00,11.292,10.650,,3.862,0.824,,,,
2025-10-18T10:08:18.388943+00:00,11.295,11.615,,-0.294,2.263,,,,
2025-10-18T10:08:18.995802+00:00,11.297,11.999,,-4.387,3.492,,,,
2025-10-18T10:08:19.604777+00:00,11.299,11.668,,-7.710,4.404,,,,
2025-10-18T10:08:20.709756+00:00,11.300,9.763,,-9.965,4.991,,,,
2025-10-18T10:08:21.322397+00:00,11.299,8.664,,-8.718,4.669,,,,
2025-10-18T10:08:21.930465+00:00,11.298,8.053,,-5.917,3.920,,,,
2025-10-18T10:08:22.533424+00:00,11.296,8.137,,-2.095,2.821,,,,
2025-10-18T10:08:23.137160+00:00,11.294,8.878,,2.100,1.467,,,,
2025-10-18T10:08:23.756267+00:00,11.290,10.047,,6.011,-0.059,,,,
2025-10-18T10:08:24.367363+00:00,11.286,11.186,,8.785,-1.560,,,,
2025-10-18T10:08:24.978073+00:00,11.281,11.895,,9.975,-2.916,,,,
2025-10-18T10:08:25.582646+00:00,11.276,11.923,,9.385,-3.993,,,,
2025-10-18T10:08:26.189498+00:00,11.269,11.265,,7.128,-4.710,,,,
2025-10-18T10:08:26.796176+00:00,11.263,10.156,,3.604,-4.996,,,,
2025-10-18T10:08:27.403185+00:00,11.255,8.991,,-0.561,-4.826,,,,
2025-10-18T10:08:28.010223+00:00,11.247,8.186,,-4.627,-4.215,,,,
2025-10-18T10:08:29.121119+00:00,11.232,8.440,,-9.517,-2.163,,,,
2025-10-18T10:08:29.725735+00:00,11.222,9.428,,-9.938,-0.722,,,,
2025-10-18T10:08:30.329748+00:00,11.212,10.618,,-8.608,0.782,,,,
2025-10-18T10:08:30.931993+00:00,11.202,11.587,,-5.772,2.211,,,,
2025-10-18T10:08:31.545046+00:00,11.192,11.998,,-1.851,3.461,,,,
2025-10-18T10:08:32.155404+00:00,11.181,11.685,,2.388,4.386,,,,
2025-10-18T10:08:32.758905+00:00,11.169,10.776,,6.159,4.901,,,,
2025-10-18T10:08:33.366787+00:00,11.158,9.584,,8.862,4.973,,,,
2025-10-18T10:08:33.975625+00:00,11.146,8.540,,9.985,4.587,,,,
2025-10-18T10:08:34.579087+00:00,11.134,8.022,,9.334,3.789,,,,
2025-10-18T10:08:35.182062+00:00,11.122,8.203,,7.046,2.649,,,,
2025-10-18T10:08:35.788592+00:00,11.110,9.023,,3.497,1.262,,,,
2025-10-18T10:08:36.899986+00:00,11.088,11.131,,-4.084,-1.480,,,,
2025-10-18T10:08:37.506355+00:00,11.076,11.869,,-7.481,-2.838,,,,
2025-10-18T10:08:38.113478+00:00,11.064,11.941,,-9.552,-3.939,,,,
2025-10-18T10:08:38.717926+00:00,11.052,11.323,,-9.925,-4.677,,,,
2025-10-18T10:08:39.321454+00:00,11.040,10.238,,-8.551,-4.991,,,,
2025-10-18T10:08:39.934595+00:00,11.029,9.052,,-5.619,-4.848,,,,
2025-10-18T10:08:40.553352+00:00,11.017,8.206,,-1.628,-4.246,,,,
2025-10-18T10:08:41.163547+00:00,11.006,8.023,,2.606,-3.256,,,,
2025-10-18T10:08:41.766820+00:00,10.996,8.544,,6.334,-1.982,,,,
2025-10-18T10:08:42.371697+00:00,10.986,9.582,,8.954,-0.525,,,,
2025-10-18T10:08:42.978441+00:00,10.976,10.772,,9.993,0.984,,,,
2025-10-18T10:08:43.588644+00:00,10.967,11.690,,9.248,2.411,,,,
2025-10-18T10:08:44.195274+00:00,10.958,11.998,,6.858,3.610,,,,
2025-10-18T10:08:45.300274+00:00,10.943,10.822,,-0.177,4.888,,,,
2025-10-18T10:08:45.912787+00:00,10.936,9.624,,-4.318,4.978,,,,
2025-10-18T10:08:46.520465+00:00,10.929,8.570,,-7.655,4.608,,,,
2025-10-18T10:08:47.123369+00:00,10.923,8.029,,-9.619,3.825,,,,
2025-10-18T10:08:47.727003+00:00,10.918,8.184,,-9.894,2.695,,,,
2025-10-18T10:08:48.344175+00:00,10.913,9.004,,-8.377,1.288,,,,
2025-10-18T10:08:48.955131+00:00,10.909,10.179,,-5.358,-0.224,,,,
2025-10-18T10:08:49.563412+00:00,10.906,11.286,,-1.392,-1.710,,,,
2025-10-18T10:08:50.168237+00:00,10.903,11.929,,2.799,-3.032,,,,
2025-10-18T10:08:50.775342+00:00,10.902,11.886,,6.508,-4.082,,,,
2025-10-18T10:08:51.381381+00:00,10.900,11.171,,9.057,-4.757,,,,
2025-10-18T10:08:51.987535+00:00,10.900,10.039,,9.999,-5.000,,,,
2025-10-18T10:08:52.595477+00:00,10.900,8.890,,9.163,-4.785,,,,
2025-10-18T10:08:53.708451+00:00,10.903,8.017,,3.706,-3.297,,,,
2025-10-18T10:08:54.311257+00:00,10.905,8.514,,-0.422,-2.032,,,,
2025-10-18T10:08:54.915013+00:00,10.908,9.537,,-4.483,-0.582,,,,
2025-10-18T10:08:55.520392+00:00,10.912,10.727,,-7.762,0.924,,,,
2025-10-18T10:08:56.132443+00:00,10.917,11.665,,-9.680,2.362,,,,
2025-10-18T10:08:56.740376+00:00,10.922,12.000,,-9.853,3.573,,,,
2025-10-18T10:08:57.343929+00:00,10.928,11.622,,-8.285,4.451,,,,
2025-10-18T10:08:57.956319+00:00,10.934,10.655,,-5.208,4.931,,,,
2025-10-18T10:08:58.563344+00:00,10.941,9.460,,-1.226,4.953,,,,
2025-10-18T10:08:59.166736+00:00,10.949,8.463,,2.950,4.527,,,,
2025-10-18T10:08:59.770133+00:00,10.957,8.008,,6.608,3.692,,,,
2025-10-18T10:09:00.381045+00:00,10.966,8.265,,9.126,2.507,,,,
2025-10-18T10:09:01.491874+00:00,10.983,10.120,,9.372,-0.150,,,,
2025-10-18T10:09:02.097801+00:00,10.993,11.236,,7.106,-1.635,,,,
2025-10-18T10:09:02.704719+00:00,11.004,11.912,,3.574,-2.972,,,,
2025-10-18T10:09:03.307055+00:00,11.015,11.908,,-0.561,-4.031,,,,
2025-10-18T10:09:03.912934+00:00,11.026,11.227,,-4.620,-4.730,,,,
2025-10-18T10:09:04.526244+00:00,11.037,10.094,,-7.892,-4.999,,,,
2025-10-18T10:09:05.138721+00:00,11.049,8.928,,-9.731,-4.801,,,,
2025-10-18T10:09:05.747181+00:00,11.061,8.155,,-9.814,-4.163,,,,
2025-10-18T10:09:06.352961+00:00,11.073,8.043,,-8.154,-3.148,,,,
2025-10-18T10:09:06.958065+00:00,11.085,8.627,,-5.053,-1.847,,,,
2025-10-18T10:09:07.567058+00:00,11.097,9.705,,-1.033,-0.369,,,,
2025-10-18T10:09:08.172645+00:00,11.109,10.884,,3.150,1.134,,,,
2025-10-18T10:09:08.781305+00:00,11.121,11.751,,6.791,2.542,,,,
2025-10-18T10:09:09.886016+00:00,11.143,11.650,,9.987,4.423,,,,
2025-10-18T10:09:10.498683+00:00,11.155,10.700,,9.295,4.920,,,,
2025-10-18T10:09:11.107203+00:00,11.167,9.504,,6.939,4.961,,,,
2025-10-18T10:09:11.710144+00:00,11.178,8.493,,3.381,4.551,,,,
2025-10-18T10:09:12.314028+00:00,11.189,8.013,,-0.777,3.730,,,,
2025-10-18T10:09:12.933660+00:00,11.200,8.251,,-4.895,2.537,,,,
2025-10-18T10:09:13.544516+00:00,11.210,9.124,,-8.071,1.124,,,,
2025-10-18T10:09:14.152905+00:00,11.220,10.308,,-9.789,-0.387,,,,
2025-10-18T10:09:14.757571+00:00,11.229,11.377,,-9.764,-1.854,,,,
2025-10-18T10:09:15.364305+00:00,11.238,11.958,,-8.008,-3.156,,,,
2025-10-18T10:09:15.971010+00:00,11.247,11.840,,-4.828,-4.170,,,,
2025-10-18T10:09:16.578290+00:00,11.255,11.065,,-0.787,-4.804,,,,
2025-10-18T10:09:17.187303+00:00,11.262,9.905,,3.406,-4.999,,,,
2025-10-18T10:09:18.301256+00:00,11.274,8.165,,9.033,-4.180,,,,
2025-10-18T10:09:18.907830+00:00,11.280,8.039,,9.998,-3.170,,,,
2025-10-18T10:09:19.515424+00:00,11.285,8.614,,9.185,-1.868,,,,
2025-10-18T10:09:20.118006+00:00,11.289,9.675,,6.762,-0.408,,,,
2025-10-18T10:09:20.729067+00:00,11.293,10.866,,3.097,1.110,,,,
2025-10-18T10:09:21.340152+00:00,11.296,11.744,,-1.127,2.525,,,,
2025-10-18T10:09:21.943483+00:00,11.298,11.992,,-5.101,3.693,,,,
2025-10-18T10:09:22.551788+00:00,11.299,11.530,,-8.198,4.533,,,,
2025-10-18T10:09:23.161162+00:00,11.300,10.517,,-9.833,4.957,,,,
2025-10-18T10:09:23.767441+00:00,11.300,9.324,,-9.710,4.926,,,,
2025-10-18T10:09:24.370458+00:00,11.299,8.376,,-7.879,4.449,,,,
2025-10-18T10:09:24.976849+00:00,11.298,8.000,,-4.644,3.565,,,,
2025-10-18T10:09:25.589763+00:00,11.295,8.345,,-0.539,2.341,,,,
2025-10-18T10:09:26.200215+00:00,11.292,9.288,,3.648,0.905,,,,
2025-10-18T10:09:26.806082+00:00,11.289,10.479,,7.156,-0.603,,,,
2025-10-18T10:09:27.409206+00:00,11.284,11.496,,9.390,-2.050,,,,
2025-10-18T10:09:28.016493+00:00,11.279,11.986,,9.973,-3.320,,,,
2025-10-18T10:09:28.629197+00:00,11.274,11.761,,8.762,-4.293,,,,
2025-10-18T10:09:29.237336+00:00,11.267,10.903,,5.990,-4.863,,,,
2025-10-18T10:09:29.845272+00:00,11.260,9.722,,2.150,-4.988,,,,
2025-10-18T10:09:30.452997+00:00,11.253,8.641,,-2.072,-4.655,,,,
2025-10-18T10:09:31.061059+00:00,11.244,8.046,,-5.927,-3.896,,,,
2025-10-18T10:09:31.665840+00:00,11.236,8.149,,-8.712,-2.785,,,,
2025-10-18T10:09:32.272057+00:00,11.227,8.911,,-9.961,-1.419,,,,
2025-10-18T10:09:32.884257+00:00,11.217,10.073,,-9.428,0.092,,,,
2025-10-18T10:09:33.490633+00:00,11.207,11.199,,-7.219,1.580,,,,
2025-10-18T10:09:34.098703+00:00,11.196,11.899,,-3.717,2.928,,,,
2025-10-18T10:09:34.703928+00:00,11.186,11.919,,0.428,4.003,,,,
2025-10-18T10:09:35.311328+00:00,11.175,11.254,,4.511,4.716,,,,
2025-10-18T10:09:35.917220+00:00,11.163,10.144,,7.784,4.997,,,,
2025-10-18T10:09:36.523757+00:00,11.152,8.981,,9.679,4.822,,,,
2025-10-18T10:09:37.132060+00:00,11.140,8.180,,9.853,4.206,,,,
2025-10-18T10:09:37.744767+00:00,11.128,8.034,,8.250,3.194,,,,
2025-10-18T10:09:38.347975+00:00,11.116,8.589,,5.210,1.907,,,,
2025-10-18T10:09:38.950917+00:00,11.104,9.642,,1.256,0.449,,,,
2025-10-18T10:09:39.553660+00:00,11.092,10.821,,-2.917,-1.049,,,,
2025-10-18T10:09:40.161882+00:00,11.079,11.716,,-6.607,-2.465,,,,
2025-10-18T10:09:40.764792+00:00,11.067,11.996,,-9.102,-3.645,,,,
2025-10-18T10:09:41.367568+00:00,11.056,11.573,,-10.000,-4.497,,,,
2025-10-18T10:09:41.978688+00:00,11.044,10.579,,-9.120,-4.946,,,,
2025-10-18T10:09:42.589639+00:00,11.032,9.376,,-6.597,-4.937,,,,
2025-10-18T10:09:43.198683+00:00,11.021,8.401,,-2.898,-4.473,,,,
2025-10-18T10:09:43.804175+00:00,11.010,8.002,,1.294,-3.604,,,,
2025-10-18T10:09:44.411091+00:00,10.999,8.314,,5.266,-2.403,,,,
2025-10-18T10:09:45.017166+00:00,10.989,9.227,,8.299,-0.986,,,,
2025-10-18T10:09:45.623403+00:00,10.979,10.416,,9.860,0.523,,,,
2025-10-18T10:09:46.231991+00:00,10.970,11.460,,9.668,1.988,,,,
2025-10-18T10:09:46.844551+00:00,10.961,11.980,,7.730,3.279,,,,
2025-10-18T10:09:47.450617+00:00,10.952,11.787,,4.433,4.256,,,,
2025-10-18T10:09:48.056426+00:00,10.944,10.957,,0.352,4.845,,,,
2025-10-18T10:09:48.658968+00:00,10.937,9.794,,-3.770,4.993,,,,
2025-10-18T10:09:49.269719+00:00,10.930,8.690,,-7.271,4.685,,,,
2025-10-18T10:09:49.883729+00:00,10.924,8.059,,-9.470,3.937,,,,
2025-10-18T10:09:50.486665+00:00,10.919,8.128,,-9.955,2.845,,,,
2025-10-18T10:09:51.095168+00:00,10.914,8.867,,-8.673,1.482,,,,
2025-10-18T10:09:51.704815+00:00,10.910,10.015,,-5.834,-0.019,,,,
2025-10-18T10:09:52.310743+00:00,10.906,11.152,,-1.975,-1.510,,,,
2025-10-18T10:09:52.914385+00:00,10.904,11.876,,2.219,-2.859,,,,
2025-10-18T10:09:53.520651+00:00,10.902,11.936,,6.037,-3.953,,,,
2025-10-18T10:09:54.133132+00:00,10.900,11.297,,8.805,-4.692,,,,
2025-10-18T10:09:54.743658+00:00,10.900,10.190,,9.978,-4.994,,,,
2025-10-18T10:09:55.349210+00:00,10.900,9.023,,9.368,-4.838,,,,
2025-10-18T10:09:55.952314+00:00,10.901,8.205,,7.113,-4.245,,,,
2025-10-18T10:09:56.559496+00:00,10.903,8.022,,3.582,-3.261,,,,
2025-10-18T10:09:57.168962+00:00,10.905,8.550,,-0.603,-1.973,,,,
2025-10-18T10:09:57.777910+00:00,10.909,9.598,,-4.676,-0.505,,,,
2025-10-18T10:09:58.385917+00:00,10.912,10.789,,-7.909,1.007,,,,
2025-10-18T10:09:58.993418+00:00,10.917,11.697,,-9.729,2.426,,,,
2025-10-18T10:09:59.601853+00:00,10.922,11.997,,-9.815,3.624,,,,
2025-10-18T10:10:00.204962+00:00,10.928,11.588,,-8.169,4.484,,,,
2025-10-18T10:10:00.811532+00:00,10.935,10.611,,-5.068,4.940,,,,
2025-10-18T10:10:01.424176+00:00,10.942,9.405,,-1.024,4.943,,,,
2025-10-18T10:10:02.030313+00:00,10.950,8.423,,3.162,4.493,,,,
2025-10-18T10:10:02.638706+00:00,10.958,8.003,,6.799,3.630,,,,
2025-10-18T10:10:03.244024+00:00,10.967,8.296,,9.213,2.440,,,,
2025-10-18T10:10:03.851366+00:00,10.976,9.199,,9.997,1.023,,,,
2025-10-18T10:10:04.457804+00:00,10.986,10.386,,9.004,-0.485,,,,
2025-10-18T10:10:05.064360+00:00,10.996,11.436,,6.412,-1.949,,,,
2025-10-18T10:10:05.672742+00:00,11.006,11.974,,2.669,-3.239,,,,
2025-10-18T10:10:06.285299+00:00,11.017,11.800,,-1.579,-4.236,,,,
2025-10-18T10:10:06.893298+00:00,11.029,10.980,,-5.515,-4.837,,,,
2025-10-18T10:10:07.497025+00:00,11.040,9.816,,-8.451,-4.995,,,,
2025-10-18T10:10:08.099910+00:00,11.052,8.720,,-9.899,-4.701,,,,
2025-10-18T10:10:08.710359+00:00,11.063,8.070,,-9.596,-3.972,,,,
2025-10-18T10:10:09.322018+00:00,11.076,8.119,,-7.561,-2.874,,,,
2025-10-18T10:10:09.929934+00:00,11.088,8.843,,-4.185,-1.518,,,,
2025-10-18T10:10:10.533301+00:00,11.100,9.973,,-0.094,-0.034,,,,
2025-10-18T10:10:11.143259+00:00,11.112,11.124,,4.055,1.469,,,,
2025-10-18T10:10:11.748945+00:00,11.124,11.866,,7.457,2.828,,,,
2025-10-18T10:10:12.355986+00:00,11.136,11.943,,9.541,3.931,,,,
2025-10-18T10:10:12.964052+00:00,11.148,11.325,,9.926,4.676,,,,
2025-10-18T10:10:13.571585+00:00,11.160,10.233,,8.543,4.991,,,,
