ts_iso,batt_v,airspeed_ms,groundspeed_ms,roll_deg,pitch_deg,yaw_deg,lat,lon,alt_m
2025-10-13T15:26:47.022958+00:00,,,,,,,,,
2025-10-13T15:26:47.637684+00:00,,,,,,,,,
2025-10-13T15:26:48.239462+00:00,,,,,,,,,
2025-10-13T15:26:48.841827+00:00,,,,,,,,,
2025-10-13T15:26:49.872610+00:00,,,,,,,,,
2025-10-13T15:26:50.480522+00:00,,,,,,,,,
2025-10-13T15:26:50.682785+00:00,11.112,11.144,,4.136,1.499,,,,
2025-10-13T15:26:51.299159+00:00,11.124,11.882,,7.565,2.876,,,,
2025-10-13T15:26:51.922267+00:00,11.137,11.923,,9.620,3.991,,,,
2025-10-13T15:26:52.548186+00:00,11.149,11.237,,9.870,4.725,,,,
2025-10-13T15:26:53.160280+00:00,11.161,10.110,,8.310,4.998,,,,
2025-10-13T15:26:53.768656+00:00,11.172,8.949,,5.270,4.810,,,,
2025-10-13T15:26:54.370840+00:00,11.183,8.170,,1.331,4.188,,,,
2025-10-13T15:26:54.982318+00:00,11.194,8.038,,-2.903,3.172,,,,
2025-10-13T15:26:55.593524+00:00,11.205,8.617,,-6.612,1.862,,,,
2025-10-13T15:26:56.199798+00:00,11.215,9.687,,-9.114,0.392,,,,
2025-10-13T15:26:56.802063+00:00,11.225,10.861,,-10.000,-1.104,,,,
2025-10-13T15:26:57.413233+00:00,11.234,11.741,,-9.109,-2.520,,,,
2025-10-13T15:26:58.023410+00:00,11.243,11.991,,-6.581,-3.701,,,,
2025-10-13T15:26:58.629917+00:00,11.251,11.527,,-2.895,-4.536,,,,
2025-10-13T15:26:59.232247+00:00,11.259,10.526,,1.275,-4.956,,,,
2025-10-13T15:26:59.839949+00:00,11.266,9.330,,5.255,-4.927,,,,
2025-10-13T15:27:00.453004+00:00,11.272,8.368,,8.318,-4.441,,,,
2025-10-13T15:27:01.059028+00:00,11.278,8.000,,9.866,-3.553,,,,
2025-10-13T15:27:01.664687+00:00,11.283,8.344,,9.664,-2.343,,,,
2025-10-13T15:27:02.271684+00:00,11.288,9.280,,7.746,-0.915,,,,
2025-10-13T15:27:02.878595+00:00,11.292,10.473,,4.451,0.595,,,,
2025-10-13T15:27:03.487352+00:00,11.295,11.499,,0.351,2.056,,,,
2025-10-13T15:27:04.094506+00:00,11.297,11.987,,-3.801,3.324,,,,
2025-10-13T15:27:04.702531+00:00,11.299,11.763,,-7.281,4.290,,,,
2025-10-13T15:27:05.310145+00:00,11.300,10.908,,-9.461,4.862,,,,
2025-10-13T15:27:05.920830+00:00,11.300,9.722,,-9.952,4.988,,,,
2025-10-13T15:27:06.533101+00:00,11.299,8.634,,-8.648,4.651,,,,
2025-10-13T15:27:07.141948+00:00,11.298,8.044,,-5.798,3.887,,,,
2025-10-13T15:27:07.747617+00:00,11.296,8.154,,-1.933,2.772,,,,
2025-10-13T15:27:08.367710+00:00,11.293,8.945,,2.373,1.371,,,,
2025-10-13T15:27:08.975751+00:00,11.290,10.105,,6.172,-0.132,,,,
2025-10-13T15:27:09.582283+00:00,11.286,11.225,,8.865,-1.618,,,,
2025-10-13T15:27:10.188614+00:00,11.281,11.908,,9.984,-2.957,,,,
2025-10-13T15:27:10.802361+00:00,11.275,11.906,,9.312,-4.037,,,,
2025-10-13T15:27:11.414227+00:00,11.269,11.211,,6.958,-4.738,,,,
2025-10-13T15:27:12.020813+00:00,11.262,10.088,,3.381,-4.999,,,,
2025-10-13T15:27:12.629207+00:00,11.255,8.930,,-0.809,-4.802,,,,
2025-10-13T15:27:13.240301+00:00,11.247,8.154,,-4.871,-4.161,,,,
2025-10-13T15:27:13.849664+00:00,11.238,8.046,,-8.048,-3.137,,,,
2025-10-13T15:27:14.461204+00:00,11.229,8.644,,-9.786,-1.820,,,,
2025-10-13T15:27:15.074276+00:00,11.220,9.737,,-9.755,-0.330,,,,
2025-10-13T15:27:15.682834+00:00,11.210,10.917,,-7.975,1.180,,,,
2025-10-13T15:27:16.285749+00:00,11.199,11.763,,-4.803,2.569,,,,
2025-10-13T15:27:16.900899+00:00,11.189,11.985,,-0.704,3.747,,,,
2025-10-13T15:27:17.513898+00:00,11.177,11.481,,3.510,4.572,,,,
2025-10-13T15:27:18.122950+00:00,11.166,10.446,,7.068,4.968,,,,
2025-10-13T15:27:18.725781+00:00,11.155,9.262,,9.345,4.911,,,,
2025-10-13T15:27:19.335553+00:00,11.143,8.331,,9.980,4.403,,,,
2025-10-13T15:27:19.952592+00:00,11.131,8.001,,8.800,3.475,,,,
2025-10-13T15:27:20.562963+00:00,11.119,8.401,,6.040,2.234,,,,
2025-10-13T15:27:21.165760+00:00,11.106,9.364,,2.247,0.806,,,,
2025-10-13T15:27:21.780747+00:00,11.094,10.574,,-2.025,-0.726,,,,
2025-10-13T15:27:22.395090+00:00,11.082,11.574,,-5.923,-2.187,,,,
2025-10-13T15:27:23.003707+00:00,11.070,11.997,,-8.723,-3.434,,,,
2025-10-13T15:27:23.606493+00:00,11.058,11.709,,-9.961,-4.358,,,,
2025-10-13T15:27:24.217533+00:00,11.046,10.804,,-9.431,-4.893,,,,
2025-10-13T15:27:24.835523+00:00,11.034,9.594,,-7.169,-4.974,,,,
2025-10-13T15:27:25.443580+00:00,11.023,8.548,,-3.651,-4.593,,,,
2025-10-13T15:27:26.047043+00:00,11.012,8.024,,0.487,-3.798,,,,
2025-10-13T15:27:26.657961+00:00,11.001,8.204,,4.585,-2.645,,,,
2025-10-13T15:27:27.270915+00:00,10.991,9.038,,7.867,-1.241,,,,
2025-10-13T15:27:27.882750+00:00,10.981,10.220,,9.720,0.275,,,,
2025-10-13T15:27:28.492421+00:00,10.971,11.318,,9.821,1.761,,,,
2025-10-13T15:27:29.101441+00:00,10.962,11.942,,8.162,3.083,,,,
2025-10-13T15:27:29.711325+00:00,10.953,11.866,,5.037,4.123,,,,
2025-10-13T15:27:30.322576+00:00,10.945,11.116,,0.999,4.783,,,,
2025-10-13T15:27:30.932719+00:00,10.938,9.963,,-3.213,5.000,,,,
2025-10-13T15:27:31.541750+00:00,10.931,8.826,,-6.841,4.756,,,,
2025-10-13T15:27:32.147301+00:00,10.925,8.113,,-9.236,4.079,,,,
2025-10-13T15:27:32.762196+00:00,10.919,8.076,,-9.993,3.013,,,,
2025-10-13T15:27:33.372437+00:00,10.914,8.737,,-8.942,1.676,,,,
2025-10-13T15:27:33.981006+00:00,10.910,9.850,,-6.294,0.187,,,,
2025-10-13T15:27:34.587080+00:00,10.907,11.013,,-2.537,-1.312,,,,
2025-10-13T15:27:35.200713+00:00,10.904,11.821,,1.722,-2.708,,,,
2025-10-13T15:27:35.812119+00:00,10.902,11.966,,5.655,-3.848,,,,
2025-10-13T15:27:36.420917+00:00,10.901,11.402,,8.559,-4.628,,,,
2025-10-13T15:27:37.026729+00:00,10.900,10.340,,9.929,-4.982,,,,
2025-10-13T15:27:37.641301+00:00,10.900,9.141,,9.521,-4.877,,,,
2025-10-13T15:27:38.252161+00:00,10.901,8.260,,7.396,-4.321,,,,
2025-10-13T15:27:38.860668+00:00,10.903,8.009,,3.954,-3.368,,,,
2025-10-13T15:27:39.467087+00:00,10.905,8.469,,-0.179,-2.112,,,,
2025-10-13T15:27:40.077621+00:00,10.908,9.483,,-4.307,-0.652,,,,
2025-10-13T15:27:40.692347+00:00,10.912,10.692,,-7.679,0.879,,,,
2025-10-13T15:27:41.301341+00:00,10.917,11.641,,-9.641,2.314,,,,
2025-10-13T15:27:41.911744+00:00,10.922,12.000,,-9.875,3.539,,,,
2025-10-13T15:27:42.522110+00:00,10.928,11.637,,-8.333,4.437,,,,
2025-10-13T15:27:43.128721+00:00,10.934,10.689,,-5.316,4.923,,,,
2025-10-13T15:27:43.740112+00:00,10.941,9.487,,-1.321,4.958,,,,
2025-10-13T15:27:44.352930+00:00,10.949,8.468,,2.921,4.532,,,,
2025-10-13T15:27:44.961436+00:00,10.957,8.008,,6.612,3.691,,,,
2025-10-13T15:27:45.567968+00:00,10.966,8.261,,9.115,2.515,,,,
2025-10-13T15:27:46.179915+00:00,10.975,9.144,,10.000,1.097,,,,
2025-10-13T15:27:46.792412+00:00,10.985,10.339,,9.076,-0.425,,,,
2025-10-13T15:27:47.401773+00:00,10.995,11.406,,6.526,-1.900,,,,
2025-10-13T15:27:48.004726+00:00,11.006,11.965,,2.849,-3.187,,,,
2025-10-13T15:27:48.624017+00:00,11.017,11.817,,-1.441,-4.210,,,,
2025-10-13T15:27:49.235416+00:00,11.028,11.008,,-5.418,-4.827,,,,
2025-10-13T15:27:49.841380+00:00,11.040,9.845,,-8.397,-4.996,,,,
2025-10-13T15:27:50.444464+00:00,11.051,8.741,,-9.885,-4.713,,,,
2025-10-13T15:27:51.059257+00:00,11.063,8.075,,-9.615,-3.987,,,,
2025-10-13T15:27:51.673844+00:00,11.075,8.114,,-7.592,-2.888,,,,
2025-10-13T15:27:52.283034+00:00,11.088,8.834,,-4.220,-1.531,,,,
2025-10-13T15:27:52.886182+00:00,11.100,9.961,,-0.135,-0.048,,,,
2025-10-13T15:27:53.501234+00:00,11.112,11.122,,4.051,1.468,,,,
2025-10-13T15:27:54.115964+00:00,11.124,11.872,,7.495,2.845,,,,
2025-10-13T15:27:54.724078+00:00,11.136,11.939,,9.560,3.945,,,,
2025-10-13T15:27:55.332442+00:00,11.148,11.311,,9.918,4.684,,,,
2025-10-13T15:27:55.941525+00:00,11.160,10.211,,8.502,4.993,,,,
2025-10-13T15:27:56.556895+00:00,11.171,9.024,,5.527,4.838,,,,
2025-10-13T15:27:57.166291+00:00,11.183,8.200,,1.583,4.237,,,,
2025-10-13T15:27:57.773892+00:00,11.194,8.024,,-2.632,3.249,,,,
2025-10-13T15:27:58.383002+00:00,11.204,8.557,,-6.386,1.960,,,,
2025-10-13T15:27:58.992909+00:00,11.214,9.611,,-8.999,0.488,,,,
2025-10-13T15:27:59.604397+00:00,11.224,10.808,,-9.997,-1.032,,,,
2025-10-13T15:28:00.214609+00:00,11.234,11.710,,-9.195,-2.454,,,,
2025-10-13T15:28:00.823977+00:00,11.242,11.996,,-6.744,-3.648,,,,
2025-10-13T15:28:01.434371+00:00,11.251,11.561,,-3.079,-4.507,,,,
2025-10-13T15:28:02.050930+00:00,11.258,10.551,,1.184,-4.951,,,,
2025-10-13T15:28:02.659162+00:00,11.266,9.354,,5.179,-4.933,,,,
2025-10-13T15:28:03.265432+00:00,11.272,8.391,,8.242,-4.463,,,,
2025-10-13T15:28:03.871679+00:00,11.278,8.001,,9.843,-3.587,,,,
2025-10-13T15:28:04.490742+00:00,11.283,8.338,,9.675,-2.355,,,,
2025-10-13T15:28:05.099292+00:00,11.288,9.272,,7.765,-0.926,,,,
2025-10-13T15:28:05.705443+00:00,11.292,10.463,,4.482,0.583,,,,
2025-10-13T15:28:06.311298+00:00,11.295,11.489,,0.407,2.038,,,,
2025-10-13T15:28:06.925707+00:00,11.297,11.986,,-3.797,3.323,,,,
2025-10-13T15:28:07.536518+00:00,11.299,11.761,,-7.291,4.293,,,,
2025-10-13T15:28:08.145004+00:00,11.300,10.903,,-9.467,4.864,,,,
2025-10-13T15:28:08.755968+00:00,11.300,9.716,,-9.950,4.987,,,,
2025-10-13T15:28:09.368461+00:00,11.299,8.629,,-8.635,4.648,,,,
2025-10-13T15:28:09.976901+00:00,11.298,8.043,,-5.781,3.882,,,,
2025-10-13T15:28:10.586084+00:00,11.296,8.159,,-1.888,2.759,,,,
2025-10-13T15:28:11.196918+00:00,11.293,8.941,,2.354,1.377,,,,
2025-10-13T15:28:11.806881+00:00,11.290,10.104,,6.168,-0.130,,,,
2025-10-13T15:28:12.419042+00:00,11.286,11.233,,8.881,-1.630,,,,
2025-10-13T15:28:13.028320+00:00,11.281,11.912,,9.987,-2.973,,,,
2025-10-13T15:28:13.640340+00:00,11.275,11.902,,9.297,-4.046,,,,
2025-10-13T15:28:14.249444+00:00,11.269,11.206,,6.941,-4.741,,,,
2025-10-13T15:28:14.856908+00:00,11.262,10.079,,3.353,-4.999,,,,
2025-10-13T15:28:15.474598+00:00,11.255,8.907,,-0.903,-4.793,,,,
2025-10-13T15:28:16.086715+00:00,11.247,8.143,,-4.960,-4.141,,,,
2025-10-13T15:28:16.693811+00:00,11.238,8.051,,-8.099,-3.113,,,,
2025-10-13T15:28:17.300537+00:00,11.229,8.655,,-9.796,-1.803,,,,
2025-10-13T15:28:17.917172+00:00,11.220,9.759,,-9.738,-0.302,,,,
2025-10-13T15:28:18.526987+00:00,11.210,10.939,,-7.922,1.210,,,,
2025-10-13T15:28:18.526987+00:00,11.210,10.939,,-7.922,1.210,,,,
2025-10-13T15:28:22.832369+00:00,11.130,8.007,,8.636,3.388,,,,
2025-10-13T15:28:23.444290+00:00,11.118,8.462,,5.761,2.123,,,,
2025-10-13T15:28:24.059936+00:00,11.105,9.483,,1.820,0.652,,,,
2025-10-13T15:28:24.667329+00:00,11.093,10.678,,-2.398,-0.861,,,,
2025-10-13T15:28:25.271793+00:00,11.081,11.627,,-6.173,-2.288,,,,
2025-10-13T15:28:25.879946+00:00,11.069,12.000,,-8.871,-3.514,,,,
2025-10-13T15:28:26.490439+00:00,11.057,11.653,,-9.986,-4.420,,,,
2025-10-13T15:28:27.096690+00:00,11.045,10.716,,-9.316,-4.916,,,,
2025-10-13T15:28:27.704148+00:00,11.034,9.522,,-6.987,-4.964,,,,
2025-10-13T15:28:28.308599+00:00,11.022,8.503,,-3.434,-4.560,,,,
2025-10-13T15:28:28.920032+00:00,11.011,8.013,,0.774,-3.731,,,,
2025-10-13T15:28:29.526904+00:00,11.001,8.238,,4.814,-2.566,,,,
2025-10-13T15:28:30.138006+00:00,10.990,9.100,,8.017,-1.156,,,,
2025-10-13T15:28:30.744030+00:00,10.980,10.278,,9.767,0.348,,,,
2025-10-13T15:28:31.354099+00:00,10.971,11.363,,9.779,1.830,,,,
2025-10-13T15:28:31.965827+00:00,10.962,11.956,,8.028,3.146,,,,
2025-10-13T15:28:32.578581+00:00,10.953,11.840,,4.822,4.172,,,,
2025-10-13T15:28:33.184567+00:00,10.945,11.065,,0.789,4.804,,,,
2025-10-13T15:28:33.794278+00:00,10.938,9.904,,-3.409,4.999,,,,
2025-10-13T15:28:34.410367+00:00,10.931,8.767,,-7.027,4.727,,,,
2025-10-13T15:28:35.021606+00:00,10.925,8.087,,-9.346,4.017,,,,
2025-10-13T15:28:35.624487+00:00,10.919,8.094,,-9.983,2.952,,,,
2025-10-13T15:28:36.230575+00:00,10.914,8.778,,-8.858,1.613,,,,
2025-10-13T15:28:36.850005+00:00,10.910,9.925,,-6.089,0.094,,,,
2025-10-13T15:28:37.458977+00:00,10.907,11.081,,-2.265,-1.409,,,,
2025-10-13T15:28:38.064341+00:00,10.904,11.847,,1.941,-2.775,,,,
2025-10-13T15:28:38.670839+00:00,10.902,11.955,,5.809,-3.890,,,,
2025-10-13T15:28:39.284775+00:00,10.901,11.355,,8.672,-4.658,,,,
2025-10-13T15:28:39.899546+00:00,10.900,10.259,,9.959,-4.989,,,,
2025-10-13T15:28:40.504851+00:00,10.900,9.084,,9.451,-4.859,,,,
2025-10-13T15:28:41.115377+00:00,10.901,8.230,,7.247,-4.281,,,,
2025-10-13T15:28:41.726844+00:00,10.903,8.016,,3.733,-3.305,,,,
2025-10-13T15:28:42.341398+00:00,10.905,8.525,,-0.477,-2.015,,,,
2025-10-13T15:28:42.946960+00:00,10.908,9.556,,-4.543,-0.559,,,,
2025-10-13T15:28:43.558009+00:00,10.912,10.755,,-7.829,0.962,,,,
2025-10-13T15:28:44.166682+00:00,10.917,11.678,,-9.700,2.388,,,,
2025-10-13T15:28:44.776747+00:00,10.922,11.999,,-9.836,3.597,,,,
2025-10-13T15:28:45.385448+00:00,10.928,11.600,,-8.210,4.472,,,,
2025-10-13T15:28:45.998441+00:00,10.935,10.618,,-5.090,4.938,,,,
2025-10-13T15:28:46.607654+00:00,10.942,9.418,,-1.073,4.946,,,,
2025-10-13T15:28:47.216724+00:00,10.949,8.428,,3.134,4.498,,,,
2025-10-13T15:28:47.829521+00:00,10.958,8.003,,6.800,3.629,,,,
2025-10-13T15:28:48.440856+00:00,10.967,8.303,,9.230,2.426,,,,
2025-10-13T15:28:49.046762+00:00,10.976,9.208,,9.996,1.011,,,,
2025-10-13T15:28:49.653505+00:00,10.986,10.396,,8.988,-0.498,,,,
2025-10-13T15:28:50.269940+00:00,10.996,11.457,,6.331,-1.984,,,,
2025-10-13T15:28:50.881455+00:00,11.007,11.979,,2.546,-3.273,,,,
2025-10-13T15:28:51.487540+00:00,11.018,11.790,,-1.660,-4.252,,,,
2025-10-13T15:28:52.093062+00:00,11.029,10.963,,-5.569,-4.843,,,,
2025-10-13T15:28:52.704205+00:00,11.040,9.783,,-8.513,-4.993,,,,
2025-10-13T15:28:53.318459+00:00,11.052,8.677,,-9.925,-4.677,,,,
2025-10-13T15:28:53.926672+00:00,11.064,8.057,,-9.543,-3.933,,,,
2025-10-13T15:28:54.539642+00:00,11.076,8.138,,-7.435,-2.818,,,,
2025-10-13T15:28:55.148941+00:00,11.088,8.890,,-4.003,-1.450,,,,
2025-10-13T15:28:55.760524+00:00,11.100,10.046,,0.163,0.058,,,,
2025-10-13T15:28:56.369067+00:00,11.113,11.181,,4.280,1.553,,,,
2025-10-13T15:28:56.979625+00:00,11.125,11.893,,7.641,2.910,,,,
2025-10-13T15:28:57.585632+00:00,11.137,11.923,,9.619,3.991,,,,
2025-10-13T15:28:58.200595+00:00,11.149,11.255,,9.882,4.715,,,,
2025-10-13T15:28:58.808981+00:00,11.160,10.140,,8.368,4.997,,,,
2025-10-13T15:28:59.419725+00:00,11.172,8.970,,5.345,4.818,,,,
2025-10-13T15:29:00.025703+00:00,11.183,8.177,,1.392,4.200,,,,
2025-10-13T15:29:00.635453+00:00,11.194,8.034,,-2.832,3.192,,,,
2025-10-13T15:29:01.252349+00:00,11.205,8.610,,-6.586,1.873,,,,
2025-10-13T15:29:01.863331+00:00,11.215,9.687,,-9.114,0.392,,,,
2025-10-13T15:29:02.466495+00:00,11.225,10.863,,-10.000,-1.106,,,,
2025-10-13T15:29:03.076725+00:00,11.234,11.741,,-9.109,-2.520,,,,
2025-10-13T15:29:03.692172+00:00,11.243,11.990,,-6.554,-3.709,,,,
2025-10-13T15:29:04.303735+00:00,11.251,11.513,,-2.828,-4.547,,,,
2025-10-13T15:29:04.906973+00:00,11.259,10.505,,1.352,-4.959,,,,
2025-10-13T15:29:05.513182+00:00,11.266,9.312,,5.311,-4.923,,,,
2025-10-13T15:29:06.127535+00:00,11.272,8.355,,8.360,-4.429,,,,
2025-10-13T15:29:06.741551+00:00,11.278,8.000,,9.886,-3.520,,,,
2025-10-13T15:29:07.346757+00:00,11.283,8.365,,9.631,-2.302,,,,
2025-10-13T15:29:07.957700+00:00,11.288,9.322,,7.646,-0.861,,,,
2025-10-13T15:29:08.569844+00:00,11.292,10.526,,4.277,0.664,,,,
2025-10-13T15:29:09.181925+00:00,11.295,11.539,,0.135,2.126,,,,
2025-10-13T15:29:09.787234+00:00,11.297,11.992,,-3.988,3.378,,,,
2025-10-13T15:29:10.398202+00:00,11.299,11.732,,-7.432,4.330,,,,
2025-10-13T15:29:11.007063+00:00,11.300,10.849,,-9.533,4.880,,,,
2025-10-13T15:29:11.621446+00:00,11.300,9.649,,-9.924,4.981,,,,
2025-10-13T15:29:12.227381+00:00,11.299,8.590,,-8.538,4.623,,,,
2025-10-13T15:29:12.838107+00:00,11.298,8.032,,-5.612,3.836,,,,
2025-10-13T15:29:13.446886+00:00,11.296,8.183,,-1.688,2.698,,,,
2025-10-13T15:29:14.056728+00:00,11.293,8.989,,2.544,1.310,,,,
2025-10-13T15:29:14.669485+00:00,11.290,10.165,,6.336,-0.207,,,,
2025-10-13T15:29:15.280792+00:00,11.285,11.279,,8.975,-1.700,,,,
2025-10-13T15:29:15.887087+00:00,11.281,11.927,,9.995,-3.026,,,,
2025-10-13T15:29:16.496459+00:00,11.275,11.886,,9.233,-4.081,,,,
2025-10-13T15:29:17.109755+00:00,11.269,11.160,,6.796,-4.763,,,,
2025-10-13T15:29:17.720984+00:00,11.262,10.015,,3.140,-5.000,,,,
2025-10-13T15:29:18.326874+00:00,11.254,8.873,,-1.046,-4.778,,,,
2025-10-13T15:29:18.933227+00:00,11.247,8.132,,-5.049,-4.120,,,,
2025-10-13T15:29:19.549680+00:00,11.238,8.062,,-8.196,-3.066,,,,
2025-10-13T15:29:20.161133+00:00,11.229,8.698,,-9.835,-1.735,,,,
2025-10-13T15:29:20.767096+00:00,11.219,9.795,,-9.708,-0.257,,,,
2025-10-13T15:29:21.377434+00:00,11.209,10.972,,-7.842,1.255,,,,
2025-10-13T15:29:21.986783+00:00,11.199,11.797,,-4.572,2.649,,,,
2025-10-13T15:29:22.598656+00:00,11.188,11.975,,-0.466,3.803,,,,
2025-10-13T15:29:23.206697+00:00,11.177,11.442,,3.700,4.601,,,,
2025-10-13T15:29:23.817664+00:00,11.165,10.385,,7.220,4.977,,,,
2025-10-13T15:29:24.427330+00:00,11.154,9.192,,9.436,4.892,,,,
2025-10-13T15:29:25.038926+00:00,11.142,8.288,,9.959,4.355,,,,
2025-10-13T15:29:25.647620+00:00,11.130,8.004,,8.694,3.418,,,,
2025-10-13T15:29:26.258100+00:00,11.118,8.439,,5.864,2.164,,,,
2025-10-13T15:29:26.863802+00:00,11.106,9.429,,2.012,0.721,,,,
2025-10-13T15:29:27.478573+00:00,11.093,10.639,,-2.258,-0.810,,,,
2025-10-13T15:29:28.091669+00:00,11.081,11.613,,-6.107,-2.261,,,,
2025-10-13T15:29:28.701151+00:00,11.069,11.999,,-8.836,-3.495,,,,
2025-10-13T15:29:29.304142+00:00,11.057,11.673,,-9.979,-4.399,,,,
2025-10-13T15:29:29.913911+00:00,11.045,10.743,,-9.353,-4.910,,,,
2025-10-13T15:29:30.530061+00:00,11.034,9.534,,-7.017,-4.965,,,,
2025-10-13T15:29:31.140709+00:00,11.022,8.503,,-3.432,-4.559,,,,
2025-10-13T15:29:31.743740+00:00,11.011,8.015,,0.717,-3.744,,,,
2025-10-13T15:29:32.353896+00:00,11.001,8.234,,4.785,-2.576,,,,
2025-10-13T15:29:32.969761+00:00,10.990,9.100,,8.016,-1.156,,,,
2025-10-13T15:29:33.581116+00:00,10.980,10.288,,9.774,0.362,,,,
2025-10-13T15:29:34.183906+00:00,10.971,11.360,,9.782,1.826,,,,
2025-10-13T15:29:34.794607+00:00,10.962,11.955,,8.041,3.140,,,,
2025-10-13T15:29:35.412403+00:00,10.953,11.838,,4.810,4.175,,,,
2025-10-13T15:29:36.020307+00:00,10.945,11.058,,0.761,4.807,,,,
2025-10-13T15:29:36.623502+00:00,10.938,9.909,,-3.392,4.999,,,,
2025-10-13T15:29:37.234857+00:00,10.931,8.779,,-6.990,4.733,,,,
2025-10-13T15:29:37.847118+00:00,10.925,8.090,,-9.330,4.027,,,,
2025-10-13T15:29:38.459113+00:00,10.919,8.096,,-9.982,2.947,,,,
2025-10-13T15:29:39.064455+00:00,10.914,8.781,,-8.852,1.609,,,,
2025-10-13T15:29:39.675253+00:00,10.910,9.911,,-6.126,0.111,,,,
2025-10-13T15:29:40.288242+00:00,10.907,11.077,,-2.282,-1.403,,,,
2025-10-13T15:29:40.899225+00:00,10.904,11.849,,1.962,-2.781,,,,
2025-10-13T15:29:41.509195+00:00,10.902,11.952,,5.846,-3.900,,,,
2025-10-13T15:29:42.118523+00:00,10.901,11.353,,8.679,-4.659,,,,
2025-10-13T15:29:42.724567+00:00,10.900,10.272,,9.954,-4.988,,,,
2025-10-13T15:29:43.339383+00:00,10.900,9.080,,9.445,-4.858,,,,
2025-10-13T15:29:43.949440+00:00,10.901,8.228,,7.236,-4.278,,,,
2025-10-13T15:29:44.558437+00:00,10.903,8.016,,3.734,-3.305,,,,
2025-10-13T15:29:45.164482+00:00,10.905,8.513,,-0.415,-2.035,,,,
2025-10-13T15:29:45.773983+00:00,10.908,9.546,,-4.513,-0.571,,,,
2025-10-13T15:29:46.387188+00:00,10.912,10.750,,-7.817,0.955,,,,
2025-10-13T15:29:46.998070+00:00,10.917,11.678,,-9.700,2.387,,,,
2025-10-13T15:29:47.603812+00:00,10.922,11.999,,-9.842,3.589,,,,
2025-10-13T15:29:48.220288+00:00,10.928,11.596,,-8.198,4.476,,,,
2025-10-13T15:29:48.831537+00:00,10.935,10.615,,-5.082,4.939,,,,
2025-10-13T15:29:49.440118+00:00,10.942,9.417,,-1.069,4.945,,,,
2025-10-13T15:29:50.046528+00:00,10.949,8.431,,3.121,4.500,,,,
2025-10-13T15:29:50.657119+00:00,10.958,8.003,,6.778,3.637,,,,
2025-10-13T15:29:51.271704+00:00,10.967,8.302,,9.227,2.428,,,,
2025-10-13T15:29:51.880516+00:00,10.976,9.211,,9.995,1.007,,,,
2025-10-13T15:29:52.486533+00:00,10.986,10.398,,8.985,-0.501,,,,
2025-10-13T15:29:53.097497+00:00,10.996,11.451,,6.354,-1.974,,,,
2025-10-13T15:29:53.706943+00:00,11.007,11.978,,2.590,-3.261,,,,
2025-10-13T15:29:54.318544+00:00,11.018,11.791,,-1.654,-4.251,,,,
2025-10-13T15:29:54.931690+00:00,11.029,10.952,,-5.608,-4.847,,,,
2025-10-13T15:29:55.540287+00:00,11.040,9.775,,-8.528,-4.992,,,,
2025-10-13T15:29:56.147004+00:00,11.052,8.682,,-9.922,-4.680,,,,
2025-10-13T15:29:56.758925+00:00,11.064,8.057,,-9.543,-3.932,,,,
2025-10-13T15:29:57.371639+00:00,11.076,8.138,,-7.435,-2.818,,,,
2025-10-13T15:29:57.981370+00:00,11.088,8.891,,-3.999,-1.448,,,,
2025-10-13T15:29:58.584099+00:00,11.100,10.030,,0.105,0.037,,,,
2025-10-13T15:29:59.198650+00:00,11.113,11.178,,4.265,1.548,,,,
2025-10-13T15:29:59.812067+00:00,11.125,11.893,,7.644,2.911,,,,
2025-10-13T15:30:00.420485+00:00,11.137,11.922,,9.625,3.995,,,,
2025-10-13T15:30:01.023644+00:00,11.149,11.269,,9.892,4.708,,,,
2025-10-13T15:30:01.638313+00:00,11.160,10.145,,8.378,4.997,,,,
2025-10-13T15:30:02.252567+00:00,11.172,8.969,,5.339,4.818,,,,
2025-10-13T15:30:02.861602+00:00,11.183,8.174,,1.364,4.195,,,,
2025-10-13T15:30:03.464264+00:00,11.194,8.033,,-2.812,3.198,,,,
2025-10-13T15:30:04.078557+00:00,11.205,8.602,,-6.556,1.887,,,,
2025-10-13T15:30:04.692746+00:00,11.215,9.682,,-9.107,0.399,,,,
2025-10-13T15:30:05.300767+00:00,11.225,10.867,,-10.000,-1.112,,,,
2025-10-13T15:30:05.903931+00:00,11.234,11.736,,-9.123,-2.510,,,,
2025-10-13T15:30:06.514887+00:00,11.243,11.992,,-6.603,-3.694,,,,
2025-10-13T15:30:07.132297+00:00,11.251,11.518,,-2.850,-4.543,,,,
2025-10-13T15:30:07.741010+00:00,11.259,10.500,,1.367,-4.960,,,,
2025-10-13T15:30:08.348664+00:00,11.266,9.305,,5.333,-4.922,,,,
2025-10-13T15:30:08.954939+00:00,11.272,8.360,,8.343,-4.434,,,,
2025-10-13T15:30:09.567604+00:00,11.278,8.000,,9.880,-3.530,,,,
2025-10-13T15:30:10.178775+00:00,11.283,8.365,,9.630,-2.302,,,,
2025-10-13T15:30:10.788602+00:00,11.288,9.320,,7.651,-0.863,,,,
2025-10-13T15:30:11.397976+00:00,11.292,10.519,,4.301,0.654,,,,
2025-10-13T15:30:12.007322+00:00,11.295,11.531,,0.180,2.111,,,,
2025-10-13T15:30:12.619353+00:00,11.297,11.992,,-3.990,3.379,,,,
2025-10-13T15:30:13.229213+00:00,11.299,11.733,,-7.428,4.329,,,,
2025-10-13T15:30:13.838073+00:00,11.300,10.850,,-9.531,4.880,,,,
2025-10-13T15:30:14.444084+00:00,11.300,9.668,,-9.932,4.983,,,,
2025-10-13T15:30:15.058212+00:00,11.299,8.592,,-8.542,4.623,,,,
2025-10-13T15:30:15.668584+00:00,11.298,8.032,,-5.620,3.838,,,,
2025-10-13T15:30:16.277466+00:00,11.296,8.182,,-1.697,2.701,,,,
2025-10-13T15:30:16.883338+00:00,11.293,8.980,,2.509,1.322,,,,
2025-10-13T15:30:17.499233+00:00,11.290,10.161,,6.324,-0.201,,,,
2025-10-13T15:30:18.110510+00:00,11.285,11.276,,8.969,-1.695,,,,
2025-10-13T15:30:18.719077+00:00,11.281,11.927,,9.995,-3.027,,,,
2025-10-13T15:30:19.325295+00:00,11.275,11.888,,9.241,-4.077,,,,
2025-10-13T15:30:19.938838+00:00,11.269,11.164,,6.810,-4.761,,,,
2025-10-13T15:30:20.550083+00:00,11.262,10.020,,3.158,-5.000,,,,
2025-10-13T15:30:21.158927+00:00,11.254,8.873,,-1.047,-4.778,,,,
2025-10-13T15:30:21.764778+00:00,11.247,8.133,,-5.047,-4.120,,,,
2025-10-13T15:30:22.375796+00:00,11.238,8.060,,-8.173,-3.078,,,,
2025-10-13T15:30:22.987408+00:00,11.229,8.690,,-9.828,-1.748,,,,
2025-10-13T15:30:23.598885+00:00,11.219,9.794,,-9.708,-0.257,,,,
2025-10-13T15:30:24.212031+00:00,11.209,10.977,,-7.830,1.262,,,,
2025-10-13T15:30:24.817812+00:00,11.199,11.797,,-4.578,2.647,,,,
2025-10-13T15:30:25.427374+00:00,11.188,11.976,,-0.488,3.798,,,,
2025-10-13T15:30:26.039246+00:00,11.177,11.441,,3.705,4.601,,,,
2025-10-13T15:30:26.653038+00:00,11.165,10.379,,7.237,4.977,,,,
2025-10-13T15:30:27.264052+00:00,11.154,9.183,,9.448,4.890,,,,
2025-10-13T15:30:27.866821+00:00,11.142,8.292,,9.961,4.360,,,,
2025-10-13T15:30:28.482129+00:00,11.130,8.005,,8.684,3.414,,,,
2025-10-13T15:30:29.095660+00:00,11.118,8.447,,5.831,2.151,,,,
2025-10-13T15:30:29.704755+00:00,11.106,9.447,,1.950,0.698,,,,
2025-10-13T15:30:30.308095+00:00,11.094,10.635,,-2.242,-0.804,,,,
2025-10-13T15:30:30.918505+00:00,11.081,11.607,,-6.079,-2.250,,,,
2025-10-13T15:30:31.535161+00:00,11.069,12.000,,-8.843,-3.499,,,,
2025-10-13T15:30:32.146920+00:00,11.057,11.661,,-9.983,-4.412,,,,
2025-10-13T15:30:32.749786+00:00,11.045,10.736,,-9.343,-4.911,,,,
2025-10-13T15:30:33.360551+00:00,11.034,9.536,,-7.024,-4.966,,,,
2025-10-13T15:30:33.978344+00:00,11.022,8.495,,-3.394,-4.553,,,,
2025-10-13T15:30:34.586969+00:00,11.011,8.012,,0.796,-3.725,,,,
2025-10-13T15:30:35.189901+00:00,11.001,8.238,,4.810,-2.567,,,,
2025-10-13T15:30:35.801079+00:00,10.990,9.099,,8.014,-1.157,,,,
2025-10-13T15:30:36.413231+00:00,10.980,10.289,,9.775,0.362,,,,
2025-10-13T15:30:37.024965+00:00,10.971,11.373,,9.769,1.847,,,,
2025-10-13T15:30:37.630054+00:00,10.962,11.956,,8.026,3.147,,,,
2025-10-13T15:30:38.240722+00:00,10.953,11.841,,4.831,4.170,,,,
2025-10-13T15:30:38.854429+00:00,10.945,11.055,,0.746,4.808,,,,
2025-10-13T15:30:39.465672+00:00,10.938,9.888,,-3.460,4.998,,,,
2025-10-13T15:30:40.077336+00:00,10.931,8.762,,-7.043,4.724,,,,
2025-10-13T15:30:40.686353+00:00,10.925,8.086,,-9.348,4.016,,,,
2025-10-13T15:30:41.292130+00:00,10.919,8.096,,-9.981,2.944,,,,
2025-10-13T15:30:41.906699+00:00,10.914,8.798,,-8.818,1.584,,,,
2025-10-13T15:30:42.516967+00:00,10.910,9.931,,-6.071,0.086,,,,
2025-10-13T15:30:43.125667+00:00,10.907,11.086,,-2.244,-1.416,,,,
2025-10-13T15:30:43.732002+00:00,10.904,11.850,,1.968,-2.783,,,,
2025-10-13T15:30:44.341231+00:00,10.902,11.952,,5.847,-3.901,,,,
2025-10-13T15:30:44.954298+00:00,10.901,11.347,,8.693,-4.663,,,,
2025-10-13T15:30:45.565581+00:00,10.900,10.254,,9.960,-4.990,,,,
2025-10-13T15:30:46.171073+00:00,10.900,9.080,,9.445,-4.858,,,,
2025-10-13T15:30:46.785164+00:00,10.901,8.225,,7.217,-4.273,,,,
2025-10-13T15:30:47.396325+00:00,10.903,8.018,,3.695,-3.294,,,,
2025-10-13T15:30:48.004859+00:00,10.905,8.524,,-0.475,-2.015,,,,
2025-10-13T15:30:48.611295+00:00,10.908,9.557,,-4.547,-0.557,,,,
2025-10-13T15:30:49.221599+00:00,10.912,10.755,,-7.828,0.961,,,,
2025-10-13T15:30:49.836487+00:00,10.917,11.685,,-9.711,2.401,,,,
2025-10-13T15:30:50.445169+00:00,10.922,11.998,,-9.830,3.605,,,,
2025-10-13T15:30:51.050912+00:00,10.928,11.598,,-8.203,4.474,,,,
2025-10-13T15:30:51.661837+00:00,10.935,10.618,,-5.092,4.938,,,,
2025-10-13T15:30:52.271252+00:00,10.942,9.418,,-1.074,4.946,,,,
2025-10-13T15:30:52.882756+00:00,10.950,8.425,,3.150,4.495,,,,
2025-10-13T15:30:53.496029+00:00,10.958,8.003,,6.814,3.624,,,,
2025-10-13T15:30:54.104548+00:00,10.967,8.303,,9.230,2.426,,,,
2025-10-13T15:30:54.711452+00:00,10.976,9.209,,9.996,1.009,,,,
2025-10-13T15:30:55.323226+00:00,10.986,10.408,,8.970,-0.513,,,,
2025-10-13T15:30:55.935721+00:00,10.996,11.459,,6.320,-1.988,,,,
2025-10-13T15:30:56.544985+00:00,11.007,11.979,,2.548,-3.273,,,,
2025-10-13T15:30:57.147617+00:00,11.017,11.793,,-1.635,-4.247,,,,
2025-10-13T15:30:57.762528+00:00,11.029,10.953,,-5.602,-4.846,,,,
2025-10-13T15:30:58.375557+00:00,11.040,9.768,,-8.541,-4.992,,,,
2025-10-13T15:30:58.984163+00:00,11.052,8.674,,-9.927,-4.675,,,,
2025-10-13T15:30:59.587079+00:00,11.064,8.059,,-9.550,-3.938,,,,
2025-10-13T15:31:00.201701+00:00,11.076,8.136,,-7.443,-2.822,,,,
2025-10-13T15:31:00.816416+00:00,11.088,8.896,,-3.979,-1.441,,,,
2025-10-13T15:31:01.425322+00:00,11.100,10.049,,0.170,0.061,,,,
2025-10-13T15:31:02.028060+00:00,11.113,11.174,,4.250,1.542,,,,
2025-10-13T15:31:02.642394+00:00,11.125,11.892,,7.637,2.908,,,,
2025-10-13T15:31:03.256548+00:00,11.137,11.919,,9.633,4.001,,,,
2025-10-13T15:31:03.864526+00:00,11.149,11.255,,9.882,4.715,,,,
2025-10-13T15:31:04.467403+00:00,11.160,10.150,,8.388,4.996,,,,
2025-10-13T15:31:05.078272+00:00,11.172,8.979,,5.375,4.822,,,,
2025-10-13T15:31:05.728335+00:00,11.184,8.146,,1.122,4.147,,,,
2025-10-13T15:31:06.337653+00:00,11.195,8.050,,-3.089,3.118,,,,
2025-10-13T15:31:06.945078+00:00,11.205,8.653,,-6.737,1.806,,,,
2025-10-13T15:31:07.554156+00:00,11.215,9.741,,-9.190,0.325,,,,
2025-10-13T15:31:08.164330+00:00,11.225,10.924,,-9.998,-1.189,,,,
2025-10-13T15:31:08.775783+00:00,11.234,11.775,,-9.005,-2.596,,,,
2025-10-13T15:31:09.385947+00:00,11.243,11.983,,-6.394,-3.759,,,,
2025-10-13T15:31:09.995194+00:00,11.251,11.477,,-2.641,-4.575,,,,
2025-10-13T15:31:10.605745+00:00,11.259,10.436,,1.595,-4.970,,,,
2025-10-13T15:31:11.217941+00:00,11.266,9.236,,5.553,-4.904,,,,
2025-10-13T15:31:11.827792+00:00,11.273,8.315,,8.498,-4.385,,,,
2025-10-13T15:31:12.436761+00:00,11.279,8.002,,9.917,-3.464,,,,
2025-10-13T15:31:13.043362+00:00,11.284,8.404,,9.566,-2.229,,,,
2025-10-13T15:31:13.662312+00:00,11.288,9.399,,7.459,-0.760,,,,
2025-10-13T15:31:14.268224+00:00,11.292,10.593,,4.057,0.749,,,,
2025-10-13T15:31:14.877290+00:00,11.295,11.579,,-0.086,2.197,,,,
2025-10-13T15:31:15.482965+00:00,11.297,11.997,,-4.192,3.437,,,,
2025-10-13T15:31:16.092944+00:00,11.299,11.700,,-7.576,4.369,,,,
2025-10-13T15:31:16.705685+00:00,11.300,10.785,,-9.604,4.899,,,,
2025-10-13T15:31:17.316573+00:00,11.300,9.588,,-9.895,4.973,,,,
2025-10-13T15:31:17.922813+00:00,11.299,8.546,,-8.421,4.592,,,,
2025-10-13T15:31:18.536626+00:00,11.298,8.020,,-5.408,3.779,,,,
2025-10-13T15:31:19.147997+00:00,11.296,8.215,,-1.431,2.619,,,,
2025-10-13T15:31:19.756820+00:00,11.293,9.052,,2.790,1.222,,,,
2025-10-13T15:31:20.362600+00:00,11.290,10.224,,6.494,-0.280,,,,
2025-10-13T15:31:20.973624+00:00,11.285,11.323,,9.063,-1.769,,,,
2025-10-13T15:31:21.588387+00:00,11.280,11.946,,10.000,-3.101,,,,
2025-10-13T15:31:22.197128+00:00,11.275,11.860,,9.130,-4.134,,,,
2025-10-13T15:31:22.803132+00:00,11.268,11.111,,6.642,-4.785,,,,
2025-10-13T15:31:23.413666+00:00,11.262,9.957,,2.946,-5.000,,,,
2025-10-13T15:31:24.023038+00:00,11.254,8.820,,-1.271,-4.753,,,,
2025-10-13T15:31:24.634953+00:00,11.246,8.107,,-5.276,-4.065,,,,
2025-10-13T15:31:25.247930+00:00,11.237,8.081,,-8.332,-2.998,,,,
2025-10-13T15:31:25.854271+00:00,11.228,8.743,,-9.870,-1.666,,,,
2025-10-13T15:31:26.463406+00:00,11.219,9.859,,-9.651,-0.176,,,,
2025-10-13T15:31:27.075295+00:00,11.209,11.031,,-7.692,1.337,,,,
2025-10-13T15:31:27.688955+00:00,11.198,11.830,,-4.332,2.730,,,,
2025-10-13T15:31:28.297770+00:00,11.187,11.963,,-0.218,3.860,,,,
2025-10-13T15:31:28.900839+00:00,11.176,11.399,,3.897,4.630,,,,
2025-10-13T15:31:29.515787+00:00,11.165,10.318,,7.385,4.984,,,,
2025-10-13T15:31:30.128857+00:00,11.153,9.124,,9.521,4.872,,,,
2025-10-13T15:31:30.738128+00:00,11.141,8.253,,9.933,4.310,,,,
2025-10-13T15:31:31.341082+00:00,11.129,8.009,,8.589,3.364,,,,
2025-10-13T15:31:31.950938+00:00,11.117,8.477,,5.697,2.098,,,,
2025-10-13T15:31:32.567389+00:00,11.105,9.506,,1.738,0.622,,,,
2025-10-13T15:31:33.178018+00:00,11.093,10.707,,-2.501,-0.898,,,,
2025-10-13T15:31:33.781091+00:00,11.081,11.643,,-6.248,-2.318,,,,
2025-10-13T15:31:34.395352+00:00,11.069,12.000,,-8.934,-3.549,,,,
2025-10-13T15:31:35.011395+00:00,11.056,11.623,,-9.994,-4.450,,,,
2025-10-13T15:31:35.620120+00:00,11.045,10.664,,-9.244,-4.929,,,,
2025-10-13T15:31:36.222932+00:00,11.033,9.477,,-6.870,-4.956,,,,
2025-10-13T15:31:36.833836+00:00,11.022,8.464,,-3.238,-4.529,,,,
2025-10-13T15:31:37.451513+00:00,11.011,8.006,,1.025,-3.670,,,,
2025-10-13T15:31:38.060042+00:00,11.000,8.275,,5.043,-2.485,,,,
2025-10-13T15:31:38.663310+00:00,10.990,9.154,,8.139,-1.083,,,,
2025-10-13T15:31:39.274274+00:00,10.980,10.347,,9.816,0.435,,,,
2025-10-13T15:31:39.886930+00:00,10.970,11.416,,9.721,1.917,,,,
2025-10-13T15:31:40.499272+00:00,10.961,11.971,,7.868,3.220,,,,
2025-10-13T15:31:41.109890+00:00,10.953,11.810,,4.601,4.221,,,,
2025-10-13T15:31:41.718752+00:00,10.945,10.999,,0.519,4.830,,,,
2025-10-13T15:31:42.328938+00:00,10.937,9.826,,-3.665,4.995,,,,
2025-10-13T15:31:42.940475+00:00,10.930,8.713,,-7.197,4.698,,,,
2025-10-13T15:31:43.550411+00:00,10.924,8.068,,-9.426,3.967,,,,
2025-10-13T15:31:44.159502+00:00,10.919,8.119,,-9.963,2.872,,,,
2025-10-13T15:31:44.765553+00:00,10.914,8.842,,-8.727,1.520,,,,
2025-10-13T15:31:45.380629+00:00,10.910,9.995,,-5.893,0.007,,,,
2025-10-13T15:31:45.990564+00:00,10.906,11.141,,-2.018,-1.495,,,,
2025-10-13T15:31:46.599293+00:00,10.904,11.875,,2.211,-2.856,,,,
2025-10-13T15:31:47.205396+00:00,10.902,11.937,,6.029,-3.951,,,,
2025-10-13T15:31:47.819072+00:00,10.900,11.297,,8.804,-4.692,,,,
2025-10-13T15:31:48.430502+00:00,10.900,10.188,,9.978,-4.994,,,,
2025-10-13T15:31:49.039271+00:00,10.900,9.016,,9.359,-4.836,,,,
2025-10-13T15:31:49.645098+00:00,10.901,8.200,,7.080,-4.236,,,,
2025-10-13T15:31:50.259542+00:00,10.903,8.027,,3.490,-3.234,,,,
2025-10-13T15:31:50.871029+00:00,10.905,8.572,,-0.715,-1.937,,,,
2025-10-13T15:31:51.479372+00:00,10.909,9.628,,-4.771,-0.467,,,,
2025-10-13T15:31:52.085827+00:00,10.913,10.814,,-7.967,1.041,,,,
2025-10-13T15:31:52.696321+00:00,10.917,11.714,,-9.756,2.462,,,,
2025-10-13T15:31:53.310799+00:00,10.922,11.995,,-9.783,3.663,,,,
2025-10-13T15:31:53.919476+00:00,10.928,11.552,,-8.053,4.515,,,,
2025-10-13T15:31:54.530059+00:00,10.935,10.549,,-4.871,4.952,,,,
2025-10-13T15:31:55.139314+00:00,10.942,9.350,,-0.822,4.932,,,,
2025-10-13T15:31:55.745867+00:00,10.950,8.387,,3.357,4.460,,,,
2025-10-13T15:31:56.357275+00:00,10.958,8.000,,6.963,3.573,,,,
2025-10-13T15:31:56.970378+00:00,10.967,8.340,,9.318,2.352,,,,
2025-10-13T15:31:57.578815+00:00,10.977,9.275,,9.985,0.922,,,,
2025-10-13T15:31:58.185454+00:00,10.986,10.467,,8.874,-0.588,,,,
2025-10-13T15:31:58.797466+00:00,10.997,11.500,,6.156,-2.057,,,,
2025-10-13T15:31:59.410018+00:00,11.007,11.988,,2.322,-3.335,,,,
2025-10-13T15:32:00.019375+00:00,11.018,11.756,,-1.910,-4.299,,,,
2025-10-13T15:32:00.622337+00:00,11.029,10.904,,-5.763,-4.863,,,,
2025-10-13T15:32:01.241739+00:00,11.041,9.700,,-8.663,-4.986,,,,
2025-10-13T15:32:01.852905+00:00,11.053,8.620,,-9.955,-4.642,,,,
2025-10-13T15:32:02.458651+00:00,11.065,8.041,,-9.464,-3.876,,,,
2025-10-13T15:32:03.061858+00:00,11.077,8.158,,-7.309,-2.763,,,,
2025-10-13T15:32:03.676534+00:00,11.089,8.944,,-3.796,-1.373,,,,
2025-10-13T15:32:04.290535+00:00,11.101,10.115,,0.404,0.144,,,,
2025-10-13T15:32:04.899097+00:00,11.113,11.236,,4.497,1.635,,,,
2025-10-13T15:32:05.502110+00:00,11.125,11.910,,7.761,2.964,,,,
2025-10-13T15:32:06.116320+00:00,11.137,11.903,,9.683,4.043,,,,
2025-10-13T15:32:06.731205+00:00,11.149,11.200,,9.842,4.744,,,,
2025-10-13T15:32:07.338967+00:00,11.161,10.071,,8.234,4.999,,,,
2025-10-13T15:32:07.946649+00:00,11.173,8.917,,5.158,4.797,,,,
2025-10-13T15:32:08.555754+00:00,11.184,8.150,,1.153,4.153,,,,
2025-10-13T15:32:09.170910+00:00,11.195,8.051,,-3.099,3.115,,,,
2025-10-13T15:32:09.779677+00:00,11.205,8.657,,-6.752,1.800,,,,
2025-10-13T15:32:10.387295+00:00,11.215,9.743,,-9.194,0.322,,,,
2025-10-13T15:32:10.996349+00:00,11.225,10.924,,-9.998,-1.189,,,,
2025-10-13T15:32:11.606313+00:00,11.234,11.774,,-9.009,-2.593,,,,
2025-10-13T15:32:12.217757+00:00,11.243,11.983,,-6.394,-3.759,,,,
2025-10-13T15:32:12.828083+00:00,11.252,11.475,,-2.634,-4.576,,,,
2025-10-13T15:32:13.437081+00:00,11.259,10.437,,1.591,-4.970,,,,
2025-10-13T15:32:14.046421+00:00,11.266,9.242,,5.533,-4.906,,,,
2025-10-13T15:32:14.662574+00:00,11.273,8.312,,8.509,-4.382,,,,
2025-10-13T15:32:15.270690+00:00,11.279,8.002,,9.919,-3.460,,,,
2025-10-13T15:32:15.876692+00:00,11.284,8.406,,9.563,-2.225,,,,
2025-10-13T15:32:16.482738+00:00,11.288,9.378,,7.512,-0.788,,,,
2025-10-13T15:32:17.102107+00:00,11.292,10.597,,4.044,0.754,,,,
2025-10-13T15:32:17.710680+00:00,11.295,11.581,,-0.097,2.201,,,,
2025-10-13T15:32:18.316906+00:00,11.297,11.997,,-4.206,3.440,,,,
2025-10-13T15:32:18.922751+00:00,11.299,11.702,,-7.566,4.366,,,,
2025-10-13T15:32:19.537401+00:00,11.300,10.785,,-9.604,4.899,,,,
2025-10-13T15:32:20.148689+00:00,11.300,9.587,,-9.894,4.973,,,,
2025-10-13T15:32:20.756994+00:00,11.299,8.543,,-8.412,4.589,,,,
2025-10-13T15:32:21.367768+00:00,11.298,8.021,,-5.412,3.780,,,,
2025-10-13T15:32:21.976329+00:00,11.296,8.212,,-1.454,2.626,,,,
2025-10-13T15:32:22.587795+00:00,11.293,9.051,,2.784,1.224,,,,
2025-10-13T15:32:23.196766+00:00,11.289,10.228,,6.506,-0.286,,,,
2025-10-13T15:32:23.806904+00:00,11.285,11.326,,9.067,-1.772,,,,
2025-10-13T15:32:24.416750+00:00,11.280,11.944,,10.000,-3.094,,,,
2025-10-13T15:32:25.023163+00:00,11.275,11.865,,9.147,-4.126,,,,
2025-10-13T15:32:25.634853+00:00,11.268,11.111,,6.643,-4.785,,,,
2025-10-13T15:32:26.247887+00:00,11.262,9.952,,2.931,-5.000,,,,
2025-10-13T15:32:26.856364+00:00,11.254,8.818,,-1.282,-4.752,,,,
2025-10-13T15:32:27.462869+00:00,11.246,8.109,,-5.253,-4.071,,,,
2025-10-13T15:32:28.079053+00:00,11.237,8.080,,-8.329,-2.999,,,,
2025-10-13T15:32:28.690153+00:00,11.228,8.750,,-9.874,-1.657,,,,
2025-10-13T15:32:29.296577+00:00,11.219,9.862,,-9.649,-0.172,,,,
2025-10-13T15:32:29.899137+00:00,11.209,11.017,,-7.727,1.318,,,,
2025-10-13T15:32:30.518862+00:00,11.198,11.828,,-4.344,2.726,,,,
2025-10-13T15:32:31.130311+00:00,11.187,11.963,,-0.213,3.861,,,,
2025-10-13T15:32:31.736206+00:00,11.176,11.394,,3.920,4.633,,,,
2025-10-13T15:32:32.339613+00:00,11.165,10.334,,7.347,4.982,,,,
2025-10-13T15:32:32.953746+00:00,11.153,9.136,,9.506,4.876,,,,
2025-10-13T15:32:33.567493+00:00,11.141,8.255,,9.935,4.314,,,,
2025-10-13T15:32:34.176549+00:00,11.129,8.010,,8.576,3.357,,,,
2025-10-13T15:32:34.784009+00:00,11.117,8.478,,5.690,2.095,,,,
2025-10-13T15:32:35.396457+00:00,11.105,9.501,,1.757,0.629,,,,
2025-10-13T15:32:36.008076+00:00,11.093,10.703,,-2.489,-0.893,,,,
2025-10-13T15:32:36.616508+00:00,11.081,11.647,,-6.268,-2.326,,,,
2025-10-13T15:32:37.224218+00:00,11.069,12.000,,-8.925,-3.544,,,,
2025-10-13T15:32:37.833476+00:00,11.057,11.635,,-9.991,-4.439,,,,
2025-10-13T15:32:38.447731+00:00,11.045,10.672,,-9.255,-4.927,,,,
2025-10-13T15:32:39.056425+00:00,11.033,9.474,,-6.862,-4.956,,,,
2025-10-13T15:32:39.664086+00:00,11.022,8.467,,-3.249,-4.530,,,,
2025-10-13T15:32:40.272789+00:00,11.011,8.008,,0.951,-3.688,,,,
2025-10-13T15:32:40.882591+00:00,11.000,8.266,,4.987,-2.505,,,,
2025-10-13T15:32:41.498241+00:00,10.990,9.160,,8.152,-1.076,,,,
2025-10-13T15:32:42.106245+00:00,10.980,10.347,,9.816,0.435,,,,
2025-10-13T15:32:42.712710+00:00,10.970,11.408,,9.731,1.903,,,,
2025-10-13T15:32:43.321933+00:00,10.961,11.967,,7.907,3.202,,,,
2025-10-13T15:32:43.938248+00:00,10.953,11.813,,4.623,4.216,,,,
2025-10-13T15:32:44.546066+00:00,10.945,11.007,,0.550,4.827,,,,
2025-10-13T15:32:45.152303+00:00,10.937,9.843,,-3.610,4.996,,,,
2025-10-13T15:32:45.758651+00:00,10.931,8.734,,-7.130,4.709,,,,
2025-10-13T15:32:46.377289+00:00,10.924,8.071,,-9.414,3.975,,,,
2025-10-13T15:32:46.985895+00:00,10.919,8.116,,-9.966,2.883,,,,
2025-10-13T15:32:47.592204+00:00,10.914,8.833,,-8.745,1.532,,,,
2025-10-13T15:32:48.202794+00:00,10.910,9.975,,-5.948,0.031,,,,
2025-10-13T15:32:48.815752+00:00,10.906,11.130,,-2.064,-1.479,,,,
2025-10-13T15:32:49.424612+00:00,10.904,11.871,,2.166,-2.843,,,,
2025-10-13T15:32:50.033183+00:00,10.902,11.939,,6.007,-3.945,,,,
2025-10-13T15:32:50.644170+00:00,10.901,11.308,,8.782,-4.686,,,,
2025-10-13T15:32:51.256470+00:00,10.900,10.200,,9.975,-4.994,,,,
2025-10-13T15:32:51.864982+00:00,10.900,9.027,,9.374,-4.839,,,,
2025-10-13T15:32:52.473640+00:00,10.901,8.202,,7.096,-4.240,,,,
2025-10-13T15:32:53.084171+00:00,10.903,8.024,,3.538,-3.248,,,,
2025-10-13T15:32:53.693595+00:00,10.905,8.559,,-0.650,-1.958,,,,
2025-10-13T15:32:54.305390+00:00,10.909,9.617,,-4.735,-0.482,,,,
2025-10-13T15:32:54.918563+00:00,10.913,10.816,,-7.971,1.043,,,,
2025-10-13T15:32:55.527505+00:00,10.917,11.714,,-9.754,2.461,,,,
2025-10-13T15:32:56.133397+00:00,10.922,11.996,,-9.797,3.647,,,,
2025-10-13T15:32:56.740145+00:00,10.928,11.566,,-8.099,4.502,,,,
2025-10-13T15:32:57.356578+00:00,10.935,10.559,,-4.904,4.950,,,,
2025-10-13T15:32:57.967356+00:00,10.942,9.357,,-0.848,4.933,,,,
2025-10-13T15:32:58.573359+00:00,10.950,8.393,,3.328,4.465,,,,
2025-10-13T15:32:59.179785+00:00,10.958,8.001,,6.916,3.590,,,,
2025-10-13T15:32:59.795870+00:00,10.967,8.333,,9.302,2.366,,,,
2025-10-13T15:33:00.407152+00:00,10.976,9.269,,9.986,0.930,,,,
2025-10-13T15:33:01.012994+00:00,10.986,10.459,,8.887,-0.577,,,,
2025-10-13T15:33:01.620617+00:00,10.996,11.488,,6.204,-2.037,,,,
2025-10-13T15:33:02.238489+00:00,11.007,11.987,,2.345,-3.329,,,,
2025-10-13T15:33:02.846924+00:00,11.018,11.760,,-1.880,-4.293,,,,
2025-10-13T15:33:03.452953+00:00,11.029,10.906,,-5.756,-4.862,,,,
2025-10-13T15:33:04.060748+00:00,11.041,9.726,,-8.618,-4.988,,,,
2025-10-13T15:33:04.673193+00:00,11.053,8.637,,-9.947,-4.652,,,,
2025-10-13T15:33:05.285304+00:00,11.065,8.043,,-9.476,-3.884,,,,
2025-10-13T15:33:05.893321+00:00,11.077,8.157,,-7.311,-2.764,,,,
2025-10-13T15:33:06.501348+00:00,11.089,8.932,,-3.842,-1.390,,,,
2025-10-13T15:33:07.114293+00:00,11.101,10.099,,0.347,0.124,,,,
2025-10-13T15:33:07.725584+00:00,11.113,11.228,,4.463,1.622,,,,
2025-10-13T15:33:08.338686+00:00,11.125,11.913,,7.782,2.974,,,,
2025-10-13T15:33:08.944404+00:00,11.137,11.905,,9.677,4.037,,,,
2025-10-13T15:33:09.550688+00:00,11.149,11.219,,9.857,4.734,,,,
2025-10-13T15:33:10.165965+00:00,11.161,10.081,,8.253,4.999,,,,
2025-10-13T15:33:10.778907+00:00,11.173,8.916,,5.155,4.796,,,,
2025-10-13T15:33:11.384785+00:00,11.184,8.152,,1.173,4.157,,,,
2025-10-13T15:33:11.991298+00:00,11.195,8.046,,-3.022,3.137,,,,
2025-10-13T15:33:12.600806+00:00,11.205,8.641,,-6.696,1.825,,,,
2025-10-13T15:33:13.217239+00:00,11.215,9.739,,-9.189,0.326,,,,
2025-10-13T15:33:13.824784+00:00,11.225,10.918,,-9.998,-1.181,,,,
2025-10-13T15:33:14.430792+00:00,11.234,11.767,,-9.031,-2.577,,,,
2025-10-13T15:33:15.045095+00:00,11.243,11.984,,-6.418,-3.752,,,,
2025-10-13T15:33:15.659169+00:00,11.251,11.476,,-2.639,-4.575,,,,
2025-10-13T15:33:16.264642+00:00,11.259,10.446,,1.561,-4.968,,,,
2025-10-13T15:33:16.871113+00:00,11.266,9.255,,5.491,-4.909,,,,
2025-10-13T15:33:17.481534+00:00,11.273,8.326,,8.461,-4.397,,,,
2025-10-13T15:33:18.099373+00:00,11.279,8.002,,9.916,-3.466,,,,
2025-10-13T15:33:18.704704+00:00,11.284,8.401,,9.571,-2.234,,,,
2025-10-13T15:33:19.310823+00:00,11.288,9.370,,7.529,-0.797,,,,
2025-10-13T15:33:19.921785+00:00,11.292,10.573,,4.121,0.724,,,,
2025-10-13T15:33:20.534096+00:00,11.295,11.570,,-0.038,2.182,,,,
2025-10-13T15:33:21.142655+00:00,11.297,11.996,,-4.167,3.429,,,,
2025-10-13T15:33:21.755802+00:00,11.299,11.701,,-7.572,4.368,,,,
2025-10-13T15:33:22.364682+00:00,11.300,10.793,,-9.595,4.896,,,,
2025-10-13T15:33:22.974691+00:00,11.300,9.599,,-9.900,4.975,,,,
2025-10-13T15:33:23.582972+00:00,11.299,8.551,,-8.434,4.595,,,,
2025-10-13T15:33:24.196099+00:00,11.298,8.022,,-5.433,3.786,,,,
2025-10-13T15:33:24.805153+00:00,11.296,8.209,,-1.475,2.633,,,,
2025-10-13T15:33:25.410744+00:00,11.293,9.035,,2.724,1.245,,,,
2025-10-13T15:33:26.022911+00:00,11.290,10.217,,6.476,-0.272,,,,
2025-10-13T15:33:26.635735+00:00,11.285,11.321,,9.058,-1.765,,,,
2025-10-13T15:33:27.244374+00:00,11.280,11.942,,9.999,-3.086,,,,
2025-10-13T15:33:27.850653+00:00,11.275,11.868,,9.159,-4.119,,,,
2025-10-13T15:33:28.461638+00:00,11.268,11.120,,6.669,-4.781,,,,
2025-10-13T15:33:29.075719+00:00,11.262,9.960,,2.957,-5.000,,,,
2025-10-13T15:33:29.684469+00:00,11.254,8.824,,-1.256,-4.755,,,,
2025-10-13T15:33:30.290227+00:00,11.246,8.112,,-5.226,-4.078,,,,
2025-10-13T15:33:30.901286+00:00,11.237,8.075,,-8.292,-3.018,,,,
2025-10-13T15:33:31.516169+00:00,11.228,8.740,,-9.868,-1.670,,,,
2025-10-13T15:33:32.124175+00:00,11.219,9.854,,-9.656,-0.183,,,,
2025-10-13T15:33:32.730702+00:00,11.209,11.017,,-7.729,1.317,,,,
2025-10-13T15:33:33.338872+00:00,11.198,11.818,,-4.418,2.701,,,,
2025-10-13T15:33:33.957587+00:00,11.187,11.964,,-0.245,3.854,,,,
2025-10-13T15:33:34.566624+00:00,11.176,11.396,,3.911,4.632,,,,
2025-10-13T15:33:35.176543+00:00,11.165,10.324,,7.371,4.984,,,,
2025-10-13T15:33:35.782444+00:00,11.153,9.142,,9.499,4.878,,,,
2025-10-13T15:33:36.392715+00:00,11.141,8.261,,9.940,4.322,,,,
2025-10-13T15:33:37.003922+00:00,11.129,8.009,,8.592,3.365,,,,
2025-10-13T15:33:37.617217+00:00,11.117,8.480,,5.682,2.092,,,,
2025-10-13T15:33:38.222946+00:00,11.105,9.490,,1.794,0.642,,,,
2025-10-13T15:33:38.832445+00:00,11.093,10.689,,-2.438,-0.875,,,,
2025-10-13T15:33:39.444120+00:00,11.081,11.642,,-6.245,-2.317,,,,
2025-10-13T15:33:40.056392+00:00,11.069,12.000,,-8.926,-3.544,,,,
2025-10-13T15:33:40.662429+00:00,11.057,11.638,,-9.991,-4.435,,,,
2025-10-13T15:33:41.268643+00:00,11.045,10.692,,-9.284,-4.922,,,,
2025-10-13T15:33:41.887727+00:00,11.033,9.475,,-6.865,-4.956,,,,
2025-10-13T15:33:42.499756+00:00,11.022,8.462,,-3.223,-4.526,,,,
2025-10-13T15:33:43.102435+00:00,11.011,8.008,,0.935,-3.692,,,,
2025-10-13T15:33:43.708508+00:00,11.000,8.260,,4.951,-2.517,,,,
2025-10-13T15:33:44.322590+00:00,10.990,9.146,,8.121,-1.094,,,,
2025-10-13T15:33:44.936666+00:00,10.980,10.344,,9.814,0.432,,,,
2025-10-13T15:33:45.542118+00:00,10.970,11.404,,9.735,1.897,,,,
2025-10-13T15:33:46.148255+00:00,10.961,11.965,,7.931,3.191,,,,
2025-10-13T15:33:46.762154+00:00,10.953,11.820,,4.672,4.205,,,,
2025-10-13T15:33:47.377073+00:00,10.945,11.008,,0.556,4.827,,,,
2025-10-13T15:33:47.982155+00:00,10.937,9.847,,-3.597,4.996,,,,
2025-10-13T15:33:48.593371+00:00,10.930,8.730,,-7.144,4.707,,,,
2025-10-13T15:33:49.202578+00:00,10.924,8.074,,-9.399,3.985,,,,
2025-10-13T15:33:49.817403+00:00,10.919,8.115,,-9.967,2.884,,,,
2025-10-13T15:33:50.422965+00:00,10.914,8.831,,-8.749,1.535,,,,
2025-10-13T15:33:51.033819+00:00,10.910,9.974,,-5.952,0.033,,,,
2025-10-13T15:33:51.642529+00:00,10.906,11.122,,-2.099,-1.467,,,,
2025-10-13T15:33:52.252467+00:00,10.904,11.868,,2.139,-2.835,,,,
2025-10-13T15:33:52.861062+00:00,10.902,11.941,,5.984,-3.938,,,,
2025-10-13T15:33:53.473650+00:00,10.901,11.311,,8.774,-4.684,,,,
2025-10-13T15:33:54.082766+00:00,10.900,10.211,,9.973,-4.993,,,,
2025-10-13T15:33:54.692254+00:00,10.900,9.035,,9.385,-4.842,,,,
2025-10-13T15:33:55.304932+00:00,10.901,8.203,,7.099,-4.241,,,,
2025-10-13T15:33:55.916080+00:00,10.903,8.025,,3.537,-3.248,,,,
2025-10-13T15:33:56.521908+00:00,10.905,8.554,,-0.625,-1.966,,,,
2025-10-13T15:33:57.128243+00:00,10.909,9.599,,-4.680,-0.504,,,,
2025-10-13T15:33:57.739177+00:00,10.912,10.795,,-7.923,1.015,,,,
2025-10-13T15:33:58.353808+00:00,10.917,11.708,,-9.746,2.449,,,,
2025-10-13T15:33:58.962373+00:00,10.922,11.996,,-9.801,3.642,,,,
2025-10-13T15:33:59.568442+00:00,10.928,11.571,,-8.114,4.499,,,,
2025-10-13T15:34:00.179970+00:00,10.935,10.575,,-4.955,4.947,,,,
2025-10-13T15:34:00.794648+00:00,10.942,9.365,,-0.880,4.935,,,,
2025-10-13T15:34:01.403369+00:00,10.950,8.395,,3.316,4.467,,,,
2025-10-13T15:34:02.014113+00:00,10.958,8.001,,6.929,3.585,,,,
2025-10-13T15:34:02.619803+00:00,10.967,8.324,,9.282,2.383,,,,
2025-10-13T15:34:03.231790+00:00,10.976,9.255,,9.989,0.948,,,,
2025-10-13T15:34:03.843598+00:00,10.986,10.456,,8.891,-0.574,,,,
2025-10-13T15:34:04.456120+00:00,10.996,11.493,,6.184,-2.045,,,,
2025-10-13T15:34:05.062317+00:00,11.007,11.985,,2.400,-3.314,,,,
2025-10-13T15:34:05.672234+00:00,11.018,11.766,,-1.835,-4.285,,,,
2025-10-13T15:34:06.283479+00:00,11.029,10.908,,-5.749,-4.862,,,,
2025-10-13T15:34:06.896905+00:00,11.041,9.717,,-8.633,-4.987,,,,
2025-10-13T15:34:07.502592+00:00,11.053,8.640,,-9.945,-4.655,,,,
2025-10-13T15:34:08.108902+00:00,11.064,8.047,,-9.494,-3.897,,,,
2025-10-13T15:34:08.728522+00:00,11.077,8.160,,-7.295,-2.757,,,,
2025-10-13T15:34:09.339145+00:00,11.089,8.942,,-3.803,-1.376,,,,
2025-10-13T15:34:09.942099+00:00,11.101,10.091,,0.319,0.114,,,,
2025-10-13T15:34:10.548306+00:00,11.113,11.213,,4.406,1.601,,,,
2025-10-13T15:34:11.161982+00:00,11.125,11.907,,7.744,2.957,,,,
2025-10-13T15:34:11.776671+00:00,11.137,11.905,,9.677,4.038,,,,
2025-10-13T15:34:12.382096+00:00,11.149,11.220,,9.857,4.733,,,,
2025-10-13T15:34:12.988173+00:00,11.161,10.100,,8.291,4.998,,,,
2025-10-13T15:34:13.598863+00:00,11.172,8.936,,5.227,4.805,,,,
2025-10-13T15:34:14.216151+00:00,11.184,8.152,,1.176,4.157,,,,
2025-10-13T15:34:14.821829+00:00,11.195,8.045,,-3.014,3.140,,,,
2025-10-13T15:34:15.432610+00:00,11.205,8.641,,-6.696,1.825,,,,
2025-10-13T15:34:16.043648+00:00,11.215,9.729,,-9.174,0.340,,,,
2025-10-13T15:34:16.653647+00:00,11.225,10.913,,-9.998,-1.174,,,,
2025-10-13T15:34:17.262290+00:00,11.234,11.766,,-9.032,-2.576,,,,
2025-10-13T15:34:17.876121+00:00,11.243,11.984,,-6.423,-3.750,,,,
2025-10-13T15:34:18.485428+00:00,11.251,11.484,,-2.677,-4.570,,,,
2025-10-13T15:34:19.094750+00:00,11.259,10.449,,1.549,-4.968,,,,
2025-10-13T15:34:19.703296+00:00,11.266,9.254,,5.493,-4.909,,,,
2025-10-13T15:34:20.316554+00:00,11.273,8.322,,8.473,-4.394,,,,
2025-10-13T15:34:20.925277+00:00,11.279,8.001,,9.911,-3.476,,,,
2025-10-13T15:34:21.531572+00:00,11.284,8.395,,9.581,-2.245,,,,
2025-10-13T15:34:22.147954+00:00,11.288,9.380,,7.505,-0.784,,,,
2025-10-13T15:34:22.758953+00:00,11.292,10.583,,4.088,0.737,,,,
2025-10-13T15:34:23.365319+00:00,11.295,11.570,,-0.034,2.180,,,,
2025-10-13T15:34:23.970912+00:00,11.297,11.996,,-4.144,3.423,,,,
2025-10-13T15:34:24.582745+00:00,11.299,11.706,,-7.549,4.362,,,,
2025-10-13T15:34:25.196784+00:00,11.300,10.793,,-9.595,4.896,,,,
2025-10-13T15:34:25.804870+00:00,11.300,9.602,,-9.902,4.975,,,,
2025-10-13T15:34:26.411103+00:00,11.299,8.556,,-8.448,4.599,,,,
2025-10-13T15:34:27.019041+00:00,11.298,8.024,,-5.485,3.801,,,,
2025-10-13T15:34:27.636770+00:00,11.296,8.209,,-1.477,2.633,,,,
2025-10-13T15:34:28.245808+00:00,11.293,9.041,,2.745,1.238,,,,
2025-10-13T15:34:28.855801+00:00,11.290,10.219,,6.481,-0.274,,,,
2025-10-13T15:34:29.461760+00:00,11.285,11.312,,9.041,-1.751,,,,
2025-10-13T15:34:30.071608+00:00,11.280,11.940,,9.999,-3.076,,,,
2025-10-13T15:34:30.683077+00:00,11.275,11.867,,9.158,-4.120,,,,
2025-10-13T15:34:31.296592+00:00,11.268,11.115,,6.653,-4.783,,,,
2025-10-13T15:34:31.902127+00:00,11.262,9.971,,2.994,-5.000,,,,
2025-10-13T15:34:32.512052+00:00,11.254,8.831,,-1.226,-4.758,,,,
2025-10-13T15:34:33.123551+00:00,11.246,8.111,,-5.235,-4.075,,,,
2025-10-13T15:34:33.736132+00:00,11.237,8.077,,-8.304,-3.012,,,,
2025-10-13T15:34:34.341990+00:00,11.228,8.731,,-9.861,-1.685,,,,
2025-10-13T15:34:34.947948+00:00,11.219,9.838,,-9.671,-0.203,,,,
2025-10-13T15:34:35.566990+00:00,11.209,11.024,,-7.709,1.328,,,,
2025-10-13T15:34:36.178045+00:00,11.198,11.824,,-4.372,2.716,,,,
2025-10-13T15:34:36.781124+00:00,11.188,11.967,,-0.304,3.841,,,,
2025-10-13T15:34:37.387247+00:00,11.177,11.412,,3.838,4.621,,,,
2025-10-13T15:34:38.001304+00:00,11.165,10.338,,7.337,4.982,,,,
2025-10-13T15:34:38.615554+00:00,11.153,9.140,,9.502,4.877,,,,
2025-10-13T15:34:39.220915+00:00,11.142,8.265,,9.943,4.327,,,,
2025-10-13T15:34:39.827202+00:00,11.130,8.007,,8.622,3.381,,,,
2025-10-13T15:34:40.441190+00:00,11.117,8.470,,5.728,2.110,,,,
2025-10-13T15:34:41.055679+00:00,11.105,9.492,,1.788,0.640,,,,
2025-10-13T15:34:41.661044+00:00,11.093,10.683,,-2.416,-0.867,,,,
2025-10-13T15:34:42.271612+00:00,11.081,11.637,,-6.221,-2.307,,,,
2025-10-13T15:34:42.882997+00:00,11.069,12.000,,-8.909,-3.535,,,,
2025-10-13T15:34:43.497523+00:00,11.057,11.634,,-9.991,-4.439,,,,
2025-10-13T15:34:44.102980+00:00,11.045,10.688,,-9.277,-4.923,,,,
2025-10-13T15:34:44.713886+00:00,11.033,9.486,,-6.894,-4.958,,,,
2025-10-13T15:34:45.322304+00:00,11.022,8.474,,-3.285,-4.536,,,,
2025-10-13T15:34:45.932352+00:00,11.011,8.009,,0.922,-3.695,,,,
2025-10-13T15:34:46.540837+00:00,11.000,8.260,,4.954,-2.516,,,,
2025-10-13T15:34:47.153694+00:00,10.990,9.145,,8.118,-1.096,,,,
2025-10-13T15:34:47.762945+00:00,10.980,10.333,,9.806,0.418,,,,
2025-10-13T15:34:48.372494+00:00,10.970,11.402,,9.738,1.894,,,,
2025-10-13T15:34:48.985233+00:00,10.961,11.967,,7.909,3.201,,,,
2025-10-13T15:34:49.596605+00:00,10.953,11.818,,4.656,4.209,,,,
2025-10-13T15:34:50.202314+00:00,10.945,11.020,,0.603,4.822,,,,
2025-10-13T15:34:50.808569+00:00,10.937,9.857,,-3.561,4.997,,,,
2025-10-13T15:34:51.424903+00:00,10.931,8.731,,-7.142,4.707,,,,
2025-10-13T15:34:52.036395+00:00,10.924,8.073,,-9.403,3.982,,,,
2025-10-13T15:34:52.642668+00:00,10.919,8.111,,-9.970,2.897,,,,
2025-10-13T15:34:53.248357+00:00,10.914,8.821,,-8.770,1.550,,,,
2025-10-13T15:34:53.859940+00:00,10.910,9.962,,-5.984,0.047,,,,
2025-10-13T15:34:54.473809+00:00,10.906,11.121,,-2.103,-1.466,,,,
2025-10-13T15:34:55.081796+00:00,10.904,11.866,,2.121,-2.829,,,,
2025-10-13T15:34:55.692660+00:00,10.902,11.941,,5.983,-3.938,,,,
2025-10-13T15:34:56.301726+00:00,10.901,11.317,,8.761,-4.681,,,,
2025-10-13T15:34:56.913440+00:00,10.900,10.214,,9.972,-4.993,,,,
2025-10-13T15:34:57.522052+00:00,10.900,9.038,,9.390,-4.844,,,,
2025-10-13T15:34:58.132542+00:00,10.901,8.207,,7.120,-4.247,,,,
2025-10-13T15:34:58.738687+00:00,10.903,8.022,,3.598,-3.265,,,,
2025-10-13T15:34:59.353683+00:00,10.905,8.554,,-0.624,-1.966,,,,
2025-10-13T15:34:59.962152+00:00,10.909,9.603,,-4.692,-0.499,,,,
2025-10-13T15:35:00.572908+00:00,10.912,10.799,,-7.931,1.020,,,,
2025-10-13T15:35:01.178534+00:00,10.917,11.701,,-9.735,2.433,,,,
2025-10-13T15:35:01.788527+00:00,10.922,11.997,,-9.808,3.633,,,,
2025-10-13T15:35:02.405310+00:00,10.928,11.565,,-8.093,4.504,,,,
2025-10-13T15:35:03.016285+00:00,10.935,10.567,,-4.928,4.948,,,,
2025-10-13T15:35:03.619241+00:00,10.942,9.379,,-0.931,4.938,,,,
2025-10-13T15:35:04.229188+00:00,10.950,8.402,,3.276,4.474,,,,
2025-10-13T15:35:04.844958+00:00,10.958,8.001,,6.924,3.587,,,,
2025-10-13T15:35:05.456636+00:00,10.967,8.330,,9.295,2.372,,,,
2025-10-13T15:35:06.059349+00:00,10.976,9.247,,9.990,0.959,,,,
2025-10-13T15:35:06.665619+00:00,10.986,10.437,,8.923,-0.550,,,,
2025-10-13T15:35:07.280226+00:00,10.996,11.483,,6.227,-2.027,,,,
2025-10-13T15:35:07.894261+00:00,11.007,11.985,,2.399,-3.314,,,,
2025-10-13T15:35:08.499570+00:00,11.018,11.771,,-1.804,-4.279,,,,
2025-10-13T15:35:09.106626+00:00,11.029,10.924,,-5.699,-4.857,,,,
2025-10-13T15:35:09.721601+00:00,11.041,9.731,,-8.608,-4.989,,,,
2025-10-13T15:35:10.336342+00:00,11.053,8.637,,-9.946,-4.653,,,,
2025-10-13T15:35:10.941612+00:00,11.064,8.046,,-9.492,-3.896,,,,
2025-10-13T15:35:11.552132+00:00,11.077,8.154,,-7.335,-2.774,,,,
2025-10-13T15:35:12.161321+00:00,11.089,8.926,,-3.866,-1.399,,,,
2025-10-13T15:35:12.770932+00:00,11.101,10.085,,0.298,0.106,,,,
2025-10-13T15:35:13.379405+00:00,11.113,11.212,,4.401,1.599,,,,
2025-10-13T15:35:13.992748+00:00,11.125,11.907,,7.739,2.955,,,,
2025-10-13T15:35:14.601314+00:00,11.137,11.909,,9.665,4.027,,,,
2025-10-13T15:35:15.211289+00:00,11.149,11.224,,9.860,4.731,,,,
2025-10-13T15:35:15.819589+00:00,11.161,10.101,,8.292,4.998,,,,
2025-10-13T15:35:16.432313+00:00,11.172,8.934,,5.217,4.804,,,,
2025-10-13T15:35:17.041531+00:00,11.184,8.157,,1.221,4.166,,,,
2025-10-13T15:35:17.647002+00:00,11.194,8.042,,-2.969,3.153,,,,
2025-10-13T15:35:18.263546+00:00,11.205,8.640,,-6.691,1.827,,,,
2025-10-13T15:35:18.874742+00:00,11.215,9.727,,-9.171,0.342,,,,
2025-10-13T15:35:19.480839+00:00,11.225,10.904,,-9.999,-1.162,,,,
2025-10-13T15:35:20.087083+00:00,11.234,11.760,,-9.053,-2.561,,,,
2025-10-13T15:35:20.697796+00:00,11.243,11.987,,-6.477,-3.734,,,,
2025-10-13T15:35:21.312751+00:00,11.251,11.490,,-2.707,-4.565,,,,
2025-10-13T15:35:21.921687+00:00,11.259,10.459,,1.515,-4.967,,,,
2025-10-13T15:35:22.527117+00:00,11.266,9.269,,5.446,-4.913,,,,
2025-10-13T15:35:23.138633+00:00,11.273,8.333,,8.436,-4.405,,,,
2025-10-13T15:35:23.753100+00:00,11.278,8.001,,9.907,-3.484,,,,
2025-10-13T15:35:24.361517+00:00,11.284,8.393,,9.585,-2.249,,,,
2025-10-13T15:35:24.972563+00:00,11.288,9.367,,7.538,-0.802,,,,
2025-10-13T15:35:25.578109+00:00,11.292,10.559,,4.168,0.706,,,,
2025-10-13T15:35:26.193753+00:00,11.295,11.565,,-0.010,2.173,,,,
2025-10-13T15:35:26.802498+00:00,11.297,11.996,,-4.142,3.422,,,,
2025-10-13T15:35:27.412872+00:00,11.299,11.708,,-7.541,4.359,,,,
2025-10-13T15:35:28.018780+00:00,11.300,10.811,,-9.576,4.891,,,,
2025-10-13T15:35:28.628939+00:00,11.300,9.617,,-9.909,4.977,,,,
2025-10-13T15:35:29.240415+00:00,11.299,8.560,,-8.457,4.601,,,,
2025-10-13T15:35:29.853738+00:00,11.298,8.023,,-5.469,3.796,,,,
2025-10-13T15:35:30.459462+00:00,11.296,8.201,,-1.540,2.653,,,,
2025-10-13T15:35:31.069038+00:00,11.293,9.026,,2.687,1.259,,,,
2025-10-13T15:35:31.685781+00:00,11.290,10.215,,6.471,-0.269,,,,
2025-10-13T15:35:32.296919+00:00,11.285,11.317,,9.051,-1.759,,,,
2025-10-13T15:35:32.899711+00:00,11.280,11.938,,9.999,-3.069,,,,
2025-10-13T15:35:33.506064+00:00,11.275,11.874,,9.182,-4.108,,,,
2025-10-13T15:35:34.125057+00:00,11.269,11.120,,6.671,-4.781,,,,
2025-10-13T15:35:34.736634+00:00,11.262,9.966,,2.976,-5.000,,,,
2025-10-13T15:35:35.339298+00:00,11.254,8.838,,-1.194,-4.762,,,,
2025-10-13T15:35:35.945066+00:00,11.246,8.118,,-5.173,-4.090,,,,
2025-10-13T15:35:36.559532+00:00,11.238,8.072,,-8.270,-3.029,,,,
2025-10-13T15:35:37.173495+00:00,11.228,8.731,,-9.861,-1.685,,,,
2025-10-13T15:35:37.778697+00:00,11.219,9.835,,-9.673,-0.206,,,,
2025-10-13T15:35:38.389558+00:00,11.209,11.008,,-7.750,1.306,,,,
2025-10-13T15:35:39.001590+00:00,11.198,11.818,,-4.424,2.699,,,,
2025-10-13T15:35:39.613813+00:00,11.188,11.967,,-0.298,3.842,,,,
2025-10-13T15:35:40.219016+00:00,11.177,11.412,,3.838,4.621,,,,
2025-10-13T15:35:40.829928+00:00,11.165,10.344,,7.322,4.981,,,,
2025-10-13T15:35:41.439270+00:00,11.153,9.154,,9.484,4.881,,,,
2025-10-13T15:35:42.053636+00:00,11.142,8.264,,9.942,4.325,,,,
2025-10-13T15:35:42.659239+00:00,11.130,8.007,,8.622,3.381,,,,
2025-10-13T15:35:43.270038+00:00,11.117,8.466,,5.745,2.117,,,,
2025-10-13T15:35:43.878603+00:00,11.105,9.475,,1.849,0.662,,,,
2025-10-13T15:35:44.488631+00:00,11.093,10.675,,-2.387,-0.857,,,,
2025-10-13T15:35:45.101382+00:00,11.081,11.635,,-6.209,-2.302,,,,
2025-10-13T15:35:45.712524+00:00,11.069,12.000,,-8.902,-3.531,,,,
2025-10-13T15:35:46.318774+00:00,11.057,11.647,,-9.988,-4.427,,,,
2025-10-13T15:35:46.927977+00:00,11.045,10.701,,-9.295,-4.920,,,,
2025-10-13T15:35:47.541064+00:00,11.033,9.495,,-6.917,-4.959,,,,
2025-10-13T15:35:48.152168+00:00,11.022,8.476,,-3.298,-4.538,,,,
2025-10-13T15:35:48.758283+00:00,11.011,8.010,,0.881,-3.705,,,,
2025-10-13T15:35:49.364789+00:00,11.000,8.253,,4.906,-2.534,,,,
2025-10-13T15:35:49.980922+00:00,10.990,9.136,,8.099,-1.107,,,,
2025-10-13T15:35:50.592947+00:00,10.980,10.329,,9.804,0.413,,,,
2025-10-13T15:35:51.199192+00:00,10.970,11.395,,9.746,1.882,,,,
2025-10-13T15:35:51.805133+00:00,10.961,11.963,,7.960,3.178,,,,
2025-10-13T15:35:52.416641+00:00,10.953,11.828,,4.729,4.193,,,,
2025-10-13T15:35:53.030669+00:00,10.945,11.026,,0.627,4.820,,,,
2025-10-13T15:35:53.638835+00:00,10.937,9.861,,-3.551,4.997,,,,
2025-10-13T15:35:54.250443+00:00,10.931,8.740,,-7.111,4.713,,,,
2025-10-13T15:35:54.857539+00:00,10.924,8.079,,-9.377,3.998,,,,
2025-10-13T15:35:55.467776+00:00,10.919,8.107,,-9.974,2.911,,,,
2025-10-13T15:35:56.074718+00:00,10.914,8.812,,-8.789,1.563,,,,
2025-10-13T15:35:56.686032+00:00,10.910,9.951,,-6.017,0.062,,,,
2025-10-13T15:35:57.291455+00:00,10.907,11.097,,-2.200,-1.432,,,,
2025-10-13T15:35:57.903612+00:00,10.904,11.859,,2.053,-2.809,,,,
2025-10-13T15:35:58.510328+00:00,10.902,11.948,,5.903,-3.916,,,,
2025-10-13T15:35:59.119143+00:00,10.901,11.338,,8.712,-4.668,,,,
2025-10-13T15:35:59.724527+00:00,10.900,10.255,,9.960,-4.990,,,,
2025-10-13T15:36:00.332688+00:00,10.900,9.076,,9.440,-4.856,,,,
2025-10-13T15:36:00.953471+00:00,10.901,8.217,,7.173,-4.261,,,,
2025-10-13T15:36:01.562581+00:00,10.903,8.019,,3.650,-3.281,,,,
2025-10-13T15:36:02.165390+00:00,10.905,8.526,,-0.484,-2.013,,,,
2025-10-13T15:36:02.771012+00:00,10.908,9.558,,-4.550,-0.556,,,,
2025-10-13T15:36:03.387159+00:00,10.912,10.766,,-7.856,0.977,,,,
2025-10-13T15:36:03.996817+00:00,10.917,11.686,,-9.712,2.404,,,,
2025-10-13T15:36:04.599544+00:00,10.922,11.999,,-9.836,3.597,,,,
2025-10-13T15:36:05.205037+00:00,10.928,11.604,,-8.223,4.469,,,,
2025-10-13T15:36:05.816113+00:00,10.935,10.628,,-5.122,4.936,,,,
2025-10-13T15:36:06.427239+00:00,10.942,9.425,,-1.097,4.947,,,,
2025-10-13T15:36:07.031957+00:00,10.949,8.438,,3.083,4.506,,,,
2025-10-13T15:36:07.640730+00:00,10.958,8.004,,6.739,3.649,,,,
2025-10-13T15:36:08.250873+00:00,10.966,8.289,,9.194,2.454,,,,
