ts_iso,batt_v,airspeed_ms,groundspeed_ms,roll_deg,pitch_deg,yaw_deg,lat,lon,alt_m
2025-10-17T15:27:11.817241+00:00,,,,,,,,,
2025-10-17T15:27:12.435413+00:00,,,,,,,,,
2025-10-17T15:27:13.037650+00:00,,,,,,,,,
2025-10-17T15:27:13.708407+00:00,,,,,,,,,
2025-10-17T15:27:14.920730+00:00,,,,,,,,,
2025-10-17T15:27:15.525893+00:00,,,,,,,,,
2025-10-17T15:27:16.128895+00:00,,,,,,,,,
2025-10-17T15:27:16.747504+00:00,11.112,11.160,,4.197,1.522,,,,
2025-10-17T15:27:17.350759+00:00,11.124,11.880,,7.548,2.868,,,,
2025-10-17T15:27:17.972034+00:00,11.137,11.926,,9.609,3.983,,,,
2025-10-17T15:27:18.592276+00:00,11.149,11.255,,9.882,4.715,,,,
2025-10-17T15:27:19.200354+00:00,11.160,10.140,,8.368,4.997,,,,
2025-10-17T15:27:19.819997+00:00,11.172,8.955,,5.293,4.812,,,,
2025-10-17T15:27:20.426896+00:00,11.183,8.169,,1.325,4.187,,,,
2025-10-17T15:27:21.029326+00:00,11.194,8.035,,-2.848,3.188,,,,
2025-10-17T15:27:21.634470+00:00,11.205,8.597,,-6.537,1.895,,,,
2025-10-17T15:27:22.244350+00:00,11.215,9.666,,-9.083,0.419,,,,
2025-10-17T15:27:22.848887+00:00,11.225,10.846,,-10.000,-1.084,,,,
2025-10-17T15:27:23.455812+00:00,11.234,11.729,,-9.145,-2.493,,,,
2025-10-17T15:27:24.059827+00:00,11.243,11.994,,-6.679,-3.669,,,,
2025-10-17T15:27:24.665678+00:00,11.251,11.551,,-3.025,-4.515,,,,
2025-10-17T15:27:25.269919+00:00,11.258,10.560,,1.154,-4.950,,,,
2025-10-17T15:27:25.876616+00:00,11.266,9.365,,5.144,-4.935,,,,
2025-10-17T15:27:26.482853+00:00,11.272,8.398,,8.219,-4.470,,,,
2025-10-17T15:27:27.091919+00:00,11.278,8.001,,9.839,-3.592,,,,
2025-10-17T15:27:27.698298+00:00,11.283,8.320,,9.702,-2.390,,,,
2025-10-17T15:27:28.301888+00:00,11.288,9.234,,7.856,-0.977,,,,
2025-10-17T15:27:28.904572+00:00,11.291,10.416,,4.633,0.522,,,,
2025-10-17T15:27:29.515573+00:00,11.295,11.463,,0.540,1.994,,,,
2025-10-17T15:27:30.125842+00:00,11.297,11.980,,-3.646,3.279,,,,
2025-10-17T15:27:30.734504+00:00,11.299,11.784,,-7.168,4.260,,,,
2025-10-17T15:27:31.337813+00:00,11.300,10.957,,-9.396,4.845,,,,
2025-10-17T15:27:31.947065+00:00,11.300,9.780,,-9.970,4.992,,,,
2025-10-17T15:27:32.552625+00:00,11.299,8.687,,-8.770,4.683,,,,
2025-10-17T15:27:33.159588+00:00,11.298,8.061,,-6.010,3.946,,,,
2025-10-17T15:27:33.767960+00:00,11.296,8.129,,-2.172,2.845,,,,
2025-10-17T15:27:34.376251+00:00,11.294,8.867,,2.054,1.483,,,,
2025-10-17T15:27:34.986919+00:00,11.290,10.017,,5.926,-0.021,,,,
2025-10-17T15:27:35.592613+00:00,11.286,11.153,,8.715,-1.512,,,,
2025-10-17T15:27:36.195798+00:00,11.281,11.876,,9.959,-2.859,,,,
2025-10-17T15:27:36.803208+00:00,11.276,11.936,,9.444,-3.955,,,,
2025-10-17T15:27:37.412366+00:00,11.270,11.300,,7.239,-4.690,,,,
2025-10-17T15:27:38.023107+00:00,11.263,10.193,,3.727,-4.994,,,,
2025-10-17T15:27:38.631422+00:00,11.256,9.021,,-0.439,-4.837,,,,
2025-10-17T15:27:39.241493+00:00,11.248,8.198,,-4.537,-4.234,,,,
2025-10-17T15:27:39.846781+00:00,11.239,8.024,,-7.800,-3.249,,,,
2025-10-17T15:27:40.450136+00:00,11.230,8.550,,-9.680,-1.973,,,,
2025-10-17T15:27:41.056664+00:00,11.221,9.593,,-9.855,-0.511,,,,
2025-10-17T15:27:41.669554+00:00,11.211,10.794,,-8.255,1.013,,,,
2025-10-17T15:27:42.282601+00:00,11.200,11.705,,-5.157,2.443,,,,
2025-10-17T15:27:42.886078+00:00,11.190,11.997,,-1.192,3.629,,,,
2025-10-17T15:27:43.491317+00:00,11.179,11.581,,2.996,4.489,,,,
2025-10-17T15:27:44.099536+00:00,11.168,10.598,,6.669,4.943,,,,
2025-10-17T15:27:44.709047+00:00,11.156,9.398,,9.155,4.942,,,,
2025-10-17T15:27:45.321494+00:00,11.144,8.411,,9.999,4.482,,,,
2025-10-17T15:27:45.925490+00:00,11.132,8.002,,9.059,3.620,,,,
2025-10-17T15:27:46.537989+00:00,11.120,8.310,,6.478,2.412,,,,
2025-10-17T15:27:47.146181+00:00,11.108,9.224,,2.754,0.990,,,,
2025-10-17T15:27:47.749755+00:00,11.096,10.407,,-1.430,-0.512,,,,
2025-10-17T15:27:48.352665+00:00,11.084,11.446,,-5.359,-1.965,,,,
2025-10-17T15:27:48.963913+00:00,11.072,11.977,,-8.379,-3.258,,,,
2025-10-17T15:27:49.575145+00:00,11.060,11.792,,-9.888,-4.248,,,,
2025-10-17T15:27:50.184082+00:00,11.048,10.963,,-9.619,-4.843,,,,
2025-10-17T15:27:50.790020+00:00,11.036,9.793,,-7.642,-4.993,,,,
2025-10-17T15:27:51.397354+00:00,11.025,8.695,,-4.302,-4.687,,,,
2025-10-17T15:27:52.003388+00:00,11.014,8.064,,-0.205,-3.954,,,,
2025-10-17T15:27:52.617781+00:00,11.003,8.129,,3.982,-2.844,,,,
2025-10-17T15:27:53.224238+00:00,10.992,8.865,,7.407,-1.486,,,,
2025-10-17T15:27:53.834549+00:00,10.982,10.013,,9.525,0.017,,,,
2025-10-17T15:27:54.441260+00:00,10.973,11.151,,9.934,1.509,,,,
2025-10-17T15:27:55.056188+00:00,10.964,11.884,,8.548,2.881,,,,
2025-10-17T15:27:55.659178+00:00,10.955,11.933,,5.672,3.965,,,,
2025-10-17T15:27:56.267453+00:00,10.947,11.292,,1.763,4.695,,,,
2025-10-17T15:27:56.886040+00:00,10.939,10.167,,-2.530,4.996,,,,
2025-10-17T15:27:57.490441+00:00,10.932,9.005,,-6.279,4.831,,,,
2025-10-17T15:27:58.104071+00:00,10.926,8.187,,-8.950,4.217,,,,
2025-10-17T15:27:58.765469+00:00,10.920,8.050,,-10.000,3.116,,,,
2025-10-17T15:27:59.387358+00:00,10.915,8.676,,-9.065,1.770,,,,
2025-10-17T15:27:59.992914+00:00,10.911,9.764,,-6.526,0.295,,,,
2025-10-17T15:28:00.599537+00:00,10.907,10.939,,-2.825,-1.209,,,,
2025-10-17T15:28:01.212296+00:00,10.904,11.784,,1.420,-2.616,,,,
2025-10-17T15:28:01.826200+00:00,10.902,11.979,,5.415,-3.781,,,,
2025-10-17T15:28:02.430474+00:00,10.901,11.465,,8.389,-4.583,,,,
2025-10-17T15:28:03.035591+00:00,10.900,10.431,,9.885,-4.971,,,,
2025-10-17T15:28:03.649987+00:00,10.900,9.226,,9.616,-4.902,,,,
2025-10-17T15:28:04.258916+00:00,10.901,8.310,,7.620,-4.380,,,,
2025-10-17T15:28:04.867588+00:00,10.903,8.002,,4.263,-3.457,,,,
2025-10-17T15:28:05.470879+00:00,10.905,8.405,,0.180,-2.227,,,,
2025-10-17T15:28:06.083532+00:00,10.908,9.388,,-3.994,-0.774,,,,
2025-10-17T15:28:06.691366+00:00,10.912,10.586,,-7.422,0.740,,,,
2025-10-17T15:28:07.294918+00:00,10.916,11.567,,-9.517,2.176,,,,
2025-10-17T15:28:07.898077+00:00,10.921,11.996,,-9.939,3.415,,,,
2025-10-17T15:28:08.509345+00:00,10.927,11.711,,-8.587,4.356,,,,
2025-10-17T15:28:09.124000+00:00,10.933,10.801,,-5.667,4.894,,,,
2025-10-17T15:28:09.731631+00:00,10.941,9.611,,-1.762,4.976,,,,
2025-10-17T15:28:10.336295+00:00,10.948,8.565,,2.437,4.605,,,,
2025-10-17T15:28:10.941919+00:00,10.956,8.027,,6.211,3.814,,,,
2025-10-17T15:28:11.556698+00:00,10.965,8.199,,8.914,2.657,,,,
2025-10-17T15:28:12.170724+00:00,10.974,9.029,,9.992,1.253,,,,
2025-10-17T15:28:12.776721+00:00,10.984,10.198,,9.273,-0.248,,,,
2025-10-17T15:28:13.386025+00:00,10.994,11.302,,6.894,-1.735,,,,
2025-10-17T15:28:13.992921+00:00,11.005,11.935,,3.295,-3.057,,,,
2025-10-17T15:28:14.597846+00:00,11.015,11.879,,-0.875,-4.097,,,,
2025-10-17T15:28:15.201540+00:00,11.027,11.158,,-4.884,-4.764,,,,
2025-10-17T15:28:15.812092+00:00,11.038,10.014,,-8.061,-5.000,,,,
2025-10-17T15:28:16.422310+00:00,11.050,8.865,,-9.789,-4.774,,,,
2025-10-17T15:28:17.026086+00:00,11.062,8.131,,-9.766,-4.117,,,,
2025-10-17T15:28:17.634419+00:00,11.074,8.060,,-8.006,-3.078,,,,
2025-10-17T15:28:18.244381+00:00,11.086,8.687,,-4.806,-1.753,,,,
2025-10-17T15:28:18.849694+00:00,11.098,9.779,,-0.776,-0.277,,,,
2025-10-17T15:28:19.456442+00:00,11.110,10.951,,3.401,1.227,,,,
2025-10-17T15:28:20.062794+00:00,11.122,11.784,,6.972,2.618,,,,
2025-10-17T15:28:20.671956+00:00,11.134,11.980,,9.313,3.775,,,,
2025-10-17T15:28:21.280063+00:00,11.146,11.465,,9.986,4.583,,,,
2025-10-17T15:28:21.902193+00:00,11.158,10.397,,8.831,4.975,,,,
2025-10-17T15:28:22.504342+00:00,11.169,9.217,,6.139,4.899,,,,
2025-10-17T15:28:23.109885+00:00,11.181,8.309,,2.349,4.379,,,,
2025-10-17T15:28:23.716388+00:00,11.192,8.002,,-1.864,3.458,,,,
2025-10-17T15:28:24.327026+00:00,11.202,8.413,,-5.769,2.213,,,,
2025-10-17T15:28:24.935761+00:00,11.213,9.394,,-8.629,0.767,,,,
2025-10-17T15:28:25.543095+00:00,11.222,10.590,,-9.945,-0.745,,,,
2025-10-17T15:28:26.151055+00:00,11.232,11.576,,-9.489,-2.191,,,,
2025-10-17T15:28:26.754377+00:00,11.241,11.996,,-7.363,-3.427,,,,
2025-10-17T15:28:27.360711+00:00,11.249,11.709,,-3.923,-4.358,,,,
2025-10-17T15:28:27.973829+00:00,11.257,10.800,,0.261,-4.895,,,,
2025-10-17T15:28:28.579420+00:00,11.264,9.614,,4.349,-4.976,,,,
2025-10-17T15:28:29.188286+00:00,11.271,8.561,,7.683,-4.602,,,,
2025-10-17T15:28:29.793882+00:00,11.277,8.026,,9.636,-3.811,,,,
2025-10-17T15:28:30.404296+00:00,11.282,8.197,,9.878,-2.662,,,,
2025-10-17T15:28:31.008983+00:00,11.287,9.010,,8.365,-1.281,,,,
2025-10-17T15:28:31.614336+00:00,11.291,10.174,,5.373,0.218,,,,
2025-10-17T15:28:32.229624+00:00,11.294,11.292,,1.361,1.721,,,,
2025-10-17T15:28:32.847213+00:00,11.297,11.938,,-2.915,3.066,,,,
2025-10-17T15:28:33.452640+00:00,11.299,11.875,,-6.591,4.104,,,,
2025-10-17T15:28:34.054883+00:00,11.300,11.152,,-9.091,4.766,,,,
2025-10-17T15:28:34.657201+00:00,11.300,10.023,,-10.000,5.000,,,,
2025-10-17T15:28:35.300273+00:00,11.300,8.819,,-9.038,4.753,,,,
2025-10-17T15:28:35.913283+00:00,11.298,8.105,,-6.438,4.063,,,,
2025-10-17T15:28:36.524198+00:00,11.297,8.081,,-2.685,2.998,,,,
2025-10-17T15:28:37.130531+00:00,11.294,8.743,,1.520,1.667,,,,
2025-10-17T15:28:37.747937+00:00,11.291,9.876,,5.520,0.156,,,,
2025-10-17T15:28:38.402435+00:00,11.286,11.116,,8.639,-1.459,,,,
2025-10-17T15:28:39.023453+00:00,11.281,11.874,,9.957,-2.851,,,,
2025-10-17T15:28:39.635520+00:00,11.276,11.936,,9.443,-3.956,,,,
2025-10-17T15:28:40.245437+00:00,11.270,11.298,,7.233,-4.691,,,,
2025-10-17T15:28:40.857903+00:00,11.263,10.187,,3.708,-4.994,,,,
2025-10-17T15:28:41.463616+00:00,11.256,9.020,,-0.441,-4.837,,,,
2025-10-17T15:28:42.066201+00:00,11.248,8.205,,-4.493,-4.244,,,,
2025-10-17T15:28:42.673896+00:00,11.239,8.023,,-7.779,-3.258,,,,
2025-10-17T15:28:43.282517+00:00,11.230,8.550,,-9.681,-1.972,,,,
2025-10-17T15:28:43.891239+00:00,11.221,9.598,,-9.851,-0.504,,,,
2025-10-17T15:28:44.499874+00:00,11.211,10.791,,-8.261,1.009,,,,
2025-10-17T15:28:45.109631+00:00,11.201,11.700,,-5.186,2.433,,,,
2025-10-17T15:28:45.715259+00:00,11.190,11.997,,-1.210,3.625,,,,
2025-10-17T15:28:46.319019+00:00,11.179,11.586,,2.968,4.485,,,,
2025-10-17T15:28:46.925477+00:00,11.168,10.609,,6.638,4.940,,,,
2025-10-17T15:28:47.538192+00:00,11.156,9.403,,9.147,4.943,,,,
2025-10-17T15:28:48.148801+00:00,11.144,8.416,,9.999,4.487,,,,
2025-10-17T15:28:48.751969+00:00,11.132,8.003,,9.075,3.629,,,,
2025-10-17T15:28:49.357240+00:00,11.120,8.297,,6.545,2.439,,,,
2025-10-17T15:28:49.964197+00:00,11.108,9.198,,2.847,1.024,,,,
2025-10-17T15:28:50.573093+00:00,11.096,10.391,,-1.371,-0.491,,,,
2025-10-17T15:28:51.181689+00:00,11.084,11.442,,-5.342,-1.959,,,,
2025-10-17T15:28:51.785935+00:00,11.072,11.974,,-8.341,-3.239,,,,
2025-10-17T15:28:52.400693+00:00,11.060,11.798,,-9.882,-4.240,,,,
2025-10-17T15:28:53.008171+00:00,11.048,10.976,,-9.634,-4.838,,,,
2025-10-17T15:28:53.611472+00:00,11.036,9.814,,-7.689,-4.995,,,,
2025-10-17T15:28:54.214370+00:00,11.025,8.717,,-4.396,-4.700,,,,
2025-10-17T15:28:54.825798+00:00,11.014,8.069,,-0.271,-3.969,,,,
2025-10-17T15:28:55.438129+00:00,11.003,8.121,,3.908,-2.868,,,,
2025-10-17T15:28:56.047223+00:00,10.993,8.850,,7.365,-1.507,,,,
2025-10-17T15:28:56.652641+00:00,10.983,9.986,,9.495,-0.018,,,,
2025-10-17T15:28:57.260708+00:00,10.973,11.131,,9.943,1.480,,,,
2025-10-17T15:28:57.866851+00:00,10.964,11.869,,8.624,2.838,,,,
2025-10-17T15:28:58.473831+00:00,10.955,11.941,,5.770,3.938,,,,
2025-10-17T15:28:59.080940+00:00,10.947,11.319,,1.890,4.679,,,,
2025-10-17T15:28:59.690820+00:00,10.940,10.221,,-2.346,4.992,,,,
2025-10-17T15:29:00.296022+00:00,10.933,9.050,,-6.135,4.848,,,,
2025-10-17T15:29:00.902423+00:00,10.926,8.217,,-8.843,4.261,,,,
2025-10-17T15:29:01.504912+00:00,10.921,8.018,,-9.979,3.293,,,,
2025-10-17T15:29:02.113737+00:00,10.916,8.525,,-9.352,2.014,,,,
2025-10-17T15:29:02.723398+00:00,10.911,9.564,,-7.047,0.548,,,,
2025-10-17T15:29:03.342922+00:00,10.907,10.779,,-3.413,-0.993,,,,
2025-10-17T15:29:03.950213+00:00,10.905,11.691,,0.767,-2.413,,,,
2025-10-17T15:29:04.557862+00:00,10.902,11.998,,4.813,-3.613,,,,
2025-10-17T15:29:05.162936+00:00,10.901,11.593,,7.990,-4.479,,,,
2025-10-17T15:29:05.766147+00:00,10.900,10.626,,9.753,-4.937,,,,
2025-10-17T15:29:06.371233+00:00,10.900,9.434,,9.799,-4.949,,,,
2025-10-17T15:29:06.981304+00:00,10.901,8.437,,8.094,-4.506,,,,
2025-10-17T15:29:07.589952+00:00,10.902,8.004,,4.943,-3.649,,,,
2025-10-17T15:29:08.194851+00:00,10.904,8.284,,0.934,-2.465,,,,
2025-10-17T15:29:08.797955+00:00,10.907,9.170,,-3.227,-1.062,,,,
2025-10-17T15:29:08.797955+00:00,10.907,9.170,,-3.227,-1.062,,,,
2025-10-17T15:29:13.021901+00:00,10.946,8.783,,1.433,4.735,,,,
2025-10-17T15:29:13.821814+00:00,10.957,8.014,,6.471,3.736,,,,
2025-10-17T15:29:14.741274+00:00,10.970,8.611,,9.751,1.873,,,,
2025-10-17T15:29:15.344489+00:00,10.980,9.672,,9.803,0.412,,,,
2025-10-17T15:29:15.952169+00:00,10.990,10.857,,8.114,-1.098,,,,
2025-10-17T15:29:16.556865+00:00,11.000,11.732,,4.998,-2.501,,,,
2025-10-17T15:29:17.162868+00:00,11.011,11.993,,0.990,-3.679,,,,
2025-10-17T15:29:17.769484+00:00,11.022,11.543,,-3.198,-4.522,,,,
2025-10-17T15:29:18.375520+00:00,11.033,10.544,,-6.814,-4.953,,,,
2025-10-17T15:29:19.001597+00:00,11.045,9.313,,-9.276,-4.923,,,,
2025-10-17T15:29:19.606118+00:00,11.057,8.367,,-9.992,-4.440,,,,
2025-10-17T15:29:20.209461+00:00,11.068,8.000,,-8.949,-3.557,,,,
2025-10-17T15:29:20.815601+00:00,11.080,8.342,,-6.318,-2.346,,,,
2025-10-17T15:29:21.422796+00:00,11.093,9.277,,-2.559,-0.919,,,,
2025-10-17T15:29:22.030071+00:00,11.105,10.471,,1.655,0.593,,,,
2025-10-17T15:29:22.641025+00:00,11.117,11.501,,5.597,2.058,,,,
2025-10-17T15:29:23.250959+00:00,11.129,11.987,,8.526,3.332,,,,
2025-10-17T15:29:23.856444+00:00,11.141,11.762,,9.921,4.292,,,,
2025-10-17T15:29:24.464461+00:00,11.153,10.905,,9.555,4.863,,,,
2025-10-17T15:29:25.089569+00:00,11.165,9.690,,7.404,4.985,,,,
2025-10-17T15:29:25.699775+00:00,11.176,8.614,,3.954,4.638,,,,
2025-10-17T15:29:26.308207+00:00,11.187,8.039,,-0.194,3.866,,,,
2025-10-17T15:29:26.911818+00:00,11.198,8.163,,-4.277,2.748,,,,
2025-10-17T15:29:27.517889+00:00,11.208,8.941,,-7.619,1.376,,,,
2025-10-17T15:29:28.126835+00:00,11.218,10.102,,-9.615,-0.128,,,,
2025-10-17T15:29:28.737427+00:00,11.228,11.229,,-9.889,-1.624,,,,
2025-10-17T15:29:29.352229+00:00,11.237,11.914,,-8.368,-2.979,,,,
2025-10-17T15:29:29.955854+00:00,11.246,11.905,,-5.386,-4.038,,,,
2025-10-17T15:29:30.916658+00:00,11.258,10.592,,1.035,-4.944,,,,
2025-10-17T15:29:31.524177+00:00,11.265,9.396,,5.047,-4.941,,,,
2025-10-17T15:29:32.127008+00:00,11.272,8.421,,8.140,-4.492,,,,
2025-10-17T15:29:32.730186+00:00,11.278,8.003,,9.805,-3.636,,,,
2025-10-17T15:29:33.350025+00:00,11.283,8.308,,9.722,-2.416,,,,
2025-10-17T15:29:33.963468+00:00,11.288,9.230,,7.865,-0.982,,,,
2025-10-17T15:29:34.573255+00:00,11.291,10.426,,4.602,0.535,,,,
2025-10-17T15:29:35.181507+00:00,11.295,11.466,,0.524,1.999,,,,
2025-10-17T15:29:35.795879+00:00,11.297,11.982,,-3.687,3.291,,,,
2025-10-17T15:29:36.403100+00:00,11.299,11.780,,-7.192,4.266,,,,
2025-10-17T15:29:37.013808+00:00,11.300,10.935,,-9.425,4.853,,,,
2025-10-17T15:29:37.623714+00:00,11.300,9.754,,-9.963,4.991,,,,
2025-10-17T15:29:38.241232+00:00,11.299,8.650,,-8.685,4.661,,,,
2025-10-17T15:29:38.847911+00:00,11.298,8.050,,-5.872,3.907,,,,
2025-10-17T15:29:39.455139+00:00,11.296,8.146,,-2.011,2.796,,,,
2025-10-17T15:29:40.059102+00:00,11.293,8.899,,2.185,1.437,,,,
2025-10-17T15:29:40.671813+00:00,11.290,10.060,,6.045,-0.074,,,,
2025-10-17T15:29:41.295874+00:00,11.286,11.216,,8.848,-1.606,,,,
2025-10-17T15:29:42.450617+00:00,11.276,11.944,,9.481,-3.930,,,,
2025-10-17T15:29:43.061979+00:00,11.270,11.321,,7.307,-4.678,,,,
2025-10-17T15:29:43.667330+00:00,11.263,10.232,,3.853,-4.992,,,,
2025-10-17T15:29:44.272845+00:00,11.256,9.060,,-0.283,-4.851,,,,
2025-10-17T15:29:44.879522+00:00,11.248,8.221,,-4.376,-4.268,,,,
2025-10-17T15:29:45.494718+00:00,11.239,8.020,,-7.730,-3.279,,,,
2025-10-17T15:29:46.097806+00:00,11.231,8.528,,-9.651,-2.010,,,,
2025-10-17T15:29:46.716708+00:00,11.221,9.586,,-9.859,-0.520,,,,
2025-10-17T15:29:47.321716+00:00,11.211,10.772,,-8.300,0.985,,,,
2025-10-17T15:29:47.930823+00:00,11.201,11.689,,-5.250,2.409,,,,
2025-10-17T15:29:48.533694+00:00,11.190,11.999,,-1.303,3.601,,,,
2025-10-17T15:29:49.143757+00:00,11.179,11.595,,2.920,4.477,,,,
2025-10-17T15:29:49.752317+00:00,11.168,10.619,,6.611,4.938,,,,
2025-10-17T15:29:50.364639+00:00,11.156,9.413,,9.132,4.945,,,,
2025-10-17T15:29:50.969997+00:00,11.144,8.429,,10.000,4.499,,,,
2025-10-17T15:29:51.575684+00:00,11.133,8.004,,9.098,3.643,,,,
2025-10-17T15:29:52.178686+00:00,11.121,8.286,,6.600,2.462,,,,
2025-10-17T15:29:52.790192+00:00,11.108,9.188,,2.886,1.038,,,,
2025-10-17T15:29:53.398489+00:00,11.096,10.378,,-1.327,-0.474,,,,
2025-10-17T15:29:54.013847+00:00,11.084,11.442,,-5.344,-1.960,,,,
2025-10-17T15:29:54.617426+00:00,11.072,11.974,,-8.340,-3.238,,,,
2025-10-17T15:29:55.227033+00:00,11.060,11.803,,-9.876,-4.232,,,,
2025-10-17T15:29:55.830241+00:00,11.048,10.993,,-9.652,-4.832,,,,
2025-10-17T15:29:56.439514+00:00,11.036,9.821,,-7.706,-4.995,,,,
2025-10-17T15:29:57.047383+00:00,11.025,8.716,,-4.388,-4.699,,,,
2025-10-17T15:29:57.655467+00:00,11.014,8.070,,-0.287,-3.972,,,,
2025-10-17T15:29:58.263724+00:00,11.003,8.116,,3.868,-2.880,,,,
2025-10-17T15:29:58.871931+00:00,10.993,8.838,,7.331,-1.525,,,,
2025-10-17T15:29:59.474940+00:00,10.983,9.967,,9.474,-0.042,,,,
2025-10-17T15:30:00.082017+00:00,10.973,11.113,,9.951,1.455,,,,
2025-10-17T15:30:00.688333+00:00,10.964,11.862,,8.660,2.816,,,,
2025-10-17T15:30:01.299565+00:00,10.955,11.944,,5.805,3.929,,,,
2025-10-17T15:30:01.908995+00:00,10.947,11.325,,1.916,4.676,,,,
2025-10-17T15:30:02.519586+00:00,10.940,10.227,,-2.325,4.992,,,,
2025-10-17T15:30:03.122647+00:00,10.933,9.060,,-6.106,4.851,,,,
2025-10-17T15:30:03.728345+00:00,10.926,8.222,,-8.823,4.269,,,,
2025-10-17T15:30:04.335126+00:00,10.921,8.017,,-9.979,3.296,,,,
2025-10-17T15:30:04.948860+00:00,10.916,8.530,,-9.344,2.007,,,,
2025-10-17T15:30:05.557222+00:00,10.911,9.568,,-7.037,0.543,,,,
2025-10-17T15:30:06.163224+00:00,10.908,10.757,,-3.489,-0.965,,,,
2025-10-17T15:30:06.768099+00:00,10.905,11.676,,0.670,-2.382,,,,
2025-10-17T15:30:07.375547+00:00,10.902,11.999,,4.726,-3.588,,,,
2025-10-17T15:30:07.981952+00:00,10.901,11.609,,7.936,-4.464,,,,
2025-10-17T15:30:08.592609+00:00,10.900,10.636,,9.744,-4.935,,,,
2025-10-17T15:30:09.196301+00:00,10.900,9.447,,9.809,-4.951,,,,
2025-10-17T15:30:09.808677+00:00,10.901,8.443,,8.112,-4.511,,,,
2025-10-17T15:30:10.414093+00:00,10.902,8.005,,4.990,-3.662,,,,
2025-10-17T15:30:11.019928+00:00,10.904,8.277,,0.982,-2.480,,,,
2025-10-17T15:30:11.622722+00:00,10.907,9.157,,-3.180,-1.080,,,,
2025-10-17T15:30:12.233807+00:00,10.911,10.350,,-6.827,0.439,,,,
2025-10-17T15:30:12.841919+00:00,10.915,11.412,,-9.235,1.910,,,,
2025-10-17T15:30:13.452964+00:00,10.920,11.969,,-9.994,3.212,,,,
2025-10-17T15:30:14.058686+00:00,10.926,11.818,,-8.969,4.208,,,,
2025-10-17T15:30:14.665800+00:00,10.932,11.018,,-6.348,4.823,,,,
2025-10-17T15:30:15.268949+00:00,10.939,9.861,,-2.625,4.997,,,,
2025-10-17T15:30:15.878284+00:00,10.947,8.744,,1.602,4.715,,,,
2025-10-17T15:30:16.486353+00:00,10.955,8.080,,5.535,4.000,,,,
2025-10-17T15:30:17.099363+00:00,10.963,8.107,,8.499,2.909,,,,
2025-10-17T15:30:17.702250+00:00,10.972,8.807,,9.912,1.570,,,,
2025-10-17T15:30:18.311293+00:00,10.982,9.940,,9.573,0.075,,,,
2025-10-17T15:30:18.914723+00:00,10.992,11.085,,7.547,-1.414,,,,
2025-10-17T15:30:19.525188+00:00,11.002,11.852,,4.149,-2.790,,,,
2025-10-17T15:30:20.133629+00:00,11.013,11.951,,0.019,-3.905,,,,
2025-10-17T15:30:20.739868+00:00,11.024,11.353,,-4.100,-4.659,,,,
2025-10-17T15:30:21.349587+00:00,11.036,10.266,,-7.508,-4.989,,,,
2025-10-17T15:30:21.959302+00:00,11.047,9.083,,-9.569,-4.859,,,,
2025-10-17T15:30:22.562240+00:00,11.059,8.237,,-9.919,-4.289,,,,
2025-10-17T15:30:23.168048+00:00,11.071,8.013,,-8.518,-3.327,,,,
2025-10-17T15:30:23.774873+00:00,11.083,8.498,,-5.602,-2.060,,,,
2025-10-17T15:30:24.387093+00:00,11.095,9.530,,-1.653,-0.592,,,,
2025-10-17T15:30:24.995594+00:00,11.107,10.726,,2.570,0.923,,,,
2025-10-17T15:30:25.603949+00:00,11.120,11.661,,6.332,2.352,,,,
2025-10-17T15:30:26.206805+00:00,11.132,12.000,,8.947,3.556,,,,
2025-10-17T15:30:26.814480+00:00,11.143,11.629,,9.993,4.445,,,,
2025-10-17T15:30:27.420789+00:00,11.155,10.677,,9.262,4.926,,,,
2025-10-17T15:30:28.031789+00:00,11.167,9.475,,6.863,4.956,,,,
2025-10-17T15:30:28.640316+00:00,11.178,8.466,,3.244,4.530,,,,
2025-10-17T15:30:29.247591+00:00,11.189,8.008,,-0.945,3.690,,,,
2025-10-17T15:30:29.852915+00:00,11.200,8.261,,-4.955,2.516,,,,
2025-10-17T15:30:30.459064+00:00,11.210,9.133,,-8.092,1.112,,,,
2025-10-17T15:30:31.067039+00:00,11.220,10.318,,-9.796,-0.398,,,,
2025-10-17T15:30:31.680956+00:00,11.230,11.397,,-9.743,-1.886,,,,
2025-10-17T15:30:32.284213+00:00,11.239,11.962,,-7.964,-3.176,,,,
2025-10-17T15:30:32.895173+00:00,11.247,11.829,,-4.738,-4.191,,,,
2025-10-17T15:30:33.500510+00:00,11.255,11.043,,-0.698,-4.813,,,,
2025-10-17T15:30:34.107341+00:00,11.262,9.884,,3.475,-4.998,,,,
2025-10-17T15:30:34.710673+00:00,11.269,8.771,,7.013,-4.729,,,,
2025-10-17T15:30:35.322009+00:00,11.275,8.088,,9.339,-4.021,,,,
2025-10-17T15:30:35.930270+00:00,11.281,8.096,,9.982,-2.947,,,,
2025-10-17T15:30:36.544625+00:00,11.286,8.796,,8.823,-1.587,,,,
2025-10-17T15:30:37.149740+00:00,11.290,9.918,,6.107,-0.102,,,,
2025-10-17T15:30:37.755372+00:00,11.293,11.070,,2.310,1.393,,,,
2025-10-17T15:30:38.358733+00:00,11.296,11.840,,-1.882,2.757,,,,
2025-10-17T15:30:38.969051+00:00,11.298,11.957,,-5.782,3.883,,,,
2025-10-17T15:30:39.577399+00:00,11.299,11.370,,-8.636,4.648,,,,
2025-10-17T15:30:40.188511+00:00,11.300,10.287,,-9.949,4.987,,,,
2025-10-17T15:30:40.791491+00:00,11.300,9.114,,-9.488,4.869,,,,
2025-10-17T15:30:41.401536+00:00,11.299,8.246,,-7.327,4.302,,,,
2025-10-17T15:30:42.004133+00:00,11.297,8.010,,-3.899,3.352,,,,
2025-10-17T15:30:42.613323+00:00,11.295,8.484,,0.259,2.086,,,,
2025-10-17T15:30:43.221749+00:00,11.292,9.501,,4.366,0.629,,,,
2025-10-17T15:30:43.829015+00:00,11.288,10.695,,7.688,-0.883,,,,
2025-10-17T15:30:44.439177+00:00,11.283,11.644,,9.646,-2.321,,,,
2025-10-17T15:30:45.049397+00:00,11.278,12.000,,9.872,-3.544,,,,
2025-10-17T15:30:45.652212+00:00,11.272,11.642,,8.352,-4.431,,,,
2025-10-17T15:30:46.259761+00:00,11.266,10.697,,5.339,-4.921,,,,
2025-10-17T15:30:46.866110+00:00,11.259,9.504,,1.383,-4.961,,,,
2025-10-17T15:30:47.476738+00:00,11.251,8.483,,-2.847,-4.544,,,,
2025-10-17T15:30:48.084972+00:00,11.243,8.010,,-6.552,-3.710,,,,
2025-10-17T15:30:48.694379+00:00,11.234,8.253,,-9.091,-2.533,,,,
2025-10-17T15:30:49.297462+00:00,11.225,9.113,,-10.000,-1.139,,,,
2025-10-17T15:30:49.903442+00:00,11.215,10.292,,-9.145,0.366,,,,
2025-10-17T15:30:50.509967+00:00,11.205,11.368,,-6.666,1.838,,,,
2025-10-17T15:30:51.125890+00:00,11.194,11.959,,-2.941,3.161,,,,
2025-10-17T15:30:51.734286+00:00,11.183,11.837,,1.271,4.176,,,,
2025-10-17T15:30:52.339993+00:00,11.172,11.060,,5.239,4.806,,,,
2025-10-17T15:30:52.945468+00:00,11.161,9.906,,8.278,4.999,,,,
2025-10-17T15:30:53.552594+00:00,11.149,8.783,,9.855,4.735,,,,
2025-10-17T15:30:54.159257+00:00,11.137,8.095,,9.679,4.039,,,,
2025-10-17T15:30:54.770531+00:00,11.125,8.090,,7.763,2.965,,,,
2025-10-17T15:30:55.373541+00:00,11.113,8.763,,4.499,1.636,,,,
2025-10-17T15:30:55.989273+00:00,11.101,9.898,,0.357,0.127,,,,
2025-10-17T15:30:56.594774+00:00,11.089,11.053,,-3.785,-1.369,,,,
2025-10-17T15:30:57.200479+00:00,11.077,11.834,,-7.258,-2.741,,,,
2025-10-17T15:30:57.803800+00:00,11.065,11.963,,-9.440,-3.859,,,,
2025-10-17T15:30:58.414315+00:00,11.053,11.389,,-9.959,-4.636,,,,
2025-10-17T15:30:59.022593+00:00,11.041,10.317,,-8.694,-4.984,,,,
2025-10-17T15:30:59.633921+00:00,11.030,9.126,,-5.859,-4.873,,,,
2025-10-17T15:31:00.239038+00:00,11.018,8.258,,-2.011,-4.318,,,,
2025-10-17T15:31:00.848209+00:00,11.008,8.009,,2.221,-3.363,,,,
2025-10-17T15:31:01.451159+00:00,10.997,8.468,,6.020,-2.112,,,,
2025-10-17T15:31:02.063538+00:00,10.987,9.486,,8.794,-0.648,,,,
2025-10-17T15:31:02.672161+00:00,10.977,10.683,,9.975,0.867,,,,
2025-10-17T15:31:03.287475+00:00,10.967,11.643,,9.357,2.318,,,,
2025-10-17T15:31:03.890851+00:00,10.959,12.000,,7.088,3.530,,,,
2025-10-17T15:31:04.498733+00:00,10.950,11.646,,3.544,4.428,,,,
2025-10-17T15:31:05.101425+00:00,10.943,10.711,,-0.596,4.918,,,,
2025-10-17T15:31:05.712276+00:00,10.935,9.511,,-4.682,4.962,,,,
2025-10-17T15:31:06.321997+00:00,10.929,8.488,,-7.920,4.548,,,,
2025-10-17T15:31:06.928044+00:00,10.923,8.012,,-9.731,3.721,,,,
2025-10-17T15:31:07.536984+00:00,10.917,8.246,,-9.813,2.548,,,,
2025-10-17T15:31:08.145975+00:00,10.913,9.111,,-8.139,1.141,,,,
2025-10-17T15:31:08.749435+00:00,10.909,10.285,,-5.041,-0.357,,,,
2025-10-17T15:31:09.355452+00:00,10.906,11.362,,-1.040,-1.829,,,,
2025-10-17T15:31:09.961801+00:00,10.903,11.954,,3.149,-3.135,,,,
2025-10-17T15:31:10.574842+00:00,10.901,11.844,,6.812,-4.164,,,,
2025-10-17T15:31:11.183180+00:00,10.900,11.071,,9.228,-4.802,,,,
2025-10-17T15:31:11.791395+00:00,10.900,9.914,,9.995,-4.999,,,,
2025-10-17T15:31:12.394683+00:00,10.900,8.795,,8.993,-4.741,,,,
2025-10-17T15:31:13.003123+00:00,10.902,8.099,,6.384,-4.048,,,,
2025-10-17T15:31:13.609617+00:00,10.903,8.084,,2.646,-2.986,,,,
2025-10-17T15:31:14.220913+00:00,10.906,8.760,,-1.594,-1.641,,,,
2025-10-17T15:31:14.831359+00:00,10.909,9.883,,-5.542,-0.146,,,,
2025-10-17T15:31:15.440657+00:00,10.913,11.047,,-8.489,1.360,,,,
2025-10-17T15:31:16.045949+00:00,10.918,11.831,,-9.911,2.732,,,,
2025-10-17T15:31:16.651857+00:00,10.924,11.964,,-9.580,3.857,,,,
2025-10-17T15:31:17.258669+00:00,10.930,11.396,,-7.546,4.631,,,,
2025-10-17T15:31:17.872288+00:00,10.936,10.317,,-4.128,4.984,,,,
2025-10-17T15:31:18.475704+00:00,10.944,9.140,,-0.032,4.877,,,,
2025-10-17T15:31:19.090187+00:00,10.952,8.256,,4.141,4.316,,,,
2025-10-17T15:31:19.695580+00:00,10.960,8.009,,7.518,3.367,,,,
2025-10-17T15:31:20.303313+00:00,10.969,8.472,,9.569,2.106,,,,
2025-10-17T15:31:20.906397+00:00,10.978,9.473,,9.919,0.665,,,,
2025-10-17T15:31:21.515324+00:00,10.988,10.671,,8.505,-0.852,,,,
2025-10-17T15:31:22.124053+00:00,10.998,11.628,,5.571,-2.289,,,,
2025-10-17T15:31:22.736168+00:00,11.009,12.000,,1.617,-3.522,,,,
2025-10-17T15:31:23.341972+00:00,11.020,11.653,,-2.587,-4.420,,,,
2025-10-17T15:31:23.947823+00:00,11.031,10.717,,-6.332,-4.916,,,,
2025-10-17T15:31:24.550547+00:00,11.043,9.532,,-8.946,-4.965,,,,
2025-10-17T15:31:25.161844+00:00,11.055,8.501,,-9.994,-4.558,,,,
2025-10-17T15:31:25.770162+00:00,11.066,8.013,,-9.247,-3.733,,,,
2025-10-17T15:31:26.381273+00:00,11.079,8.241,,-6.834,-2.560,,,,
2025-10-17T15:31:26.984758+00:00,11.091,9.092,,-3.240,-1.168,,,,
2025-10-17T15:31:27.593889+00:00,11.103,10.275,,0.962,0.344,,,,
2025-10-17T15:31:28.197021+00:00,11.115,11.350,,4.956,1.810,,,,
2025-10-17T15:31:28.806365+00:00,11.127,11.952,,8.106,3.125,,,,
2025-10-17T15:31:29.414569+00:00,11.139,11.852,,9.801,4.150,,,,
2025-10-17T15:31:30.023976+00:00,11.151,11.086,,9.744,4.796,,,,
2025-10-17T15:31:30.632163+00:00,11.162,9.931,,7.946,4.999,,,,
2025-10-17T15:31:31.242753+00:00,11.174,8.798,,4.715,4.742,,,,
2025-10-17T15:31:31.845781+00:00,11.185,8.103,,0.688,4.058,,,,
2025-10-17T15:31:32.452836+00:00,11.196,8.080,,-3.486,2.999,,,,
2025-10-17T15:31:33.060697+00:00,11.206,8.744,,-7.044,1.664,,,,
2025-10-17T15:31:33.671455+00:00,11.216,9.864,,-9.353,0.170,,,,
2025-10-17T15:31:34.279723+00:00,11.226,11.029,,-9.979,-1.334,,,,
2025-10-17T15:31:34.887719+00:00,11.235,11.824,,-8.825,-2.716,,,,
2025-10-17T15:31:35.492970+00:00,11.244,11.967,,-6.111,-3.843,,,,
2025-10-17T15:31:36.099121+00:00,11.252,11.409,,-2.310,-4.623,,,,
2025-10-17T15:31:36.707616+00:00,11.260,10.345,,1.916,-4.981,,,,
2025-10-17T15:31:37.322753+00:00,11.267,9.145,,5.838,-4.879,,,,
2025-10-17T15:31:37.925982+00:00,11.273,8.270,,8.653,-4.333,,,,
2025-10-17T15:31:38.536808+00:00,11.279,8.007,,9.952,-3.382,,,,
2025-10-17T15:31:39.142084+00:00,11.284,8.458,,9.473,-2.131,,,,
2025-10-17T15:31:39.749817+00:00,11.288,9.461,,7.306,-0.680,,,,
2025-10-17T15:31:40.352759+00:00,11.292,10.648,,3.868,0.822,,,,
2025-10-17T15:31:40.961860+00:00,11.295,11.614,,-0.292,2.263,,,,
2025-10-17T15:31:41.570436+00:00,11.297,11.999,,-4.396,3.495,,,,
2025-10-17T15:31:42.184926+00:00,11.299,11.660,,-7.741,4.413,,,,
2025-10-17T15:31:42.790416+00:00,11.300,10.730,,-9.660,4.913,,,,
2025-10-17T15:31:43.396277+00:00,11.300,9.540,,-9.868,4.966,,,,
2025-10-17T15:31:43.999232+00:00,11.299,8.517,,-8.340,4.570,,,,
2025-10-17T15:31:44.612695+00:00,11.298,8.015,,-5.285,3.745,,,,
2025-10-17T15:31:45.220994+00:00,11.296,8.232,,-1.306,2.581,,,,
2025-10-17T15:31:45.832015+00:00,11.293,9.088,,2.924,1.173,,,,
2025-10-17T15:31:46.436003+00:00,11.289,10.260,,6.590,-0.325,,,,
2025-10-17T15:31:47.045536+00:00,11.285,11.348,,9.112,-1.808,,,,
2025-10-17T15:31:47.648712+00:00,11.280,11.948,,10.000,-3.111,,,,
2025-10-17T15:31:48.258291+00:00,11.275,11.856,,9.113,-4.142,,,,
2025-10-17T15:31:48.868472+00:00,11.268,11.094,,6.589,-4.792,,,,
2025-10-17T15:31:49.476373+00:00,11.261,9.942,,2.896,-4.999,,,,
2025-10-17T15:31:50.084615+00:00,11.254,8.810,,-1.316,-4.748,,,,
2025-10-17T15:31:50.694772+00:00,11.246,8.104,,-5.304,-4.059,,,,
2025-10-17T15:31:51.299228+00:00,11.237,8.078,,-8.317,-3.005,,,,
2025-10-17T15:31:51.907448+00:00,11.228,8.740,,-9.868,-1.671,,,,
2025-10-17T15:31:52.514184+00:00,11.219,9.851,,-9.659,-0.187,,,,
2025-10-17T15:31:53.125014+00:00,11.209,11.022,,-7.716,1.324,,,,
2025-10-17T15:31:53.734608+00:00,11.198,11.822,,-4.392,2.710,,,,
2025-10-17T15:31:54.345838+00:00,11.187,11.965,,-0.268,3.849,,,,
2025-10-17T15:31:54.948830+00:00,11.176,11.409,,3.851,4.623,,,,
2025-10-17T15:31:55.556655+00:00,11.165,10.346,,7.317,4.981,,,,
2025-10-17T15:31:56.167384+00:00,11.153,9.154,,9.484,4.881,,,,
2025-10-17T15:31:56.781169+00:00,11.142,8.265,,9.943,4.326,,,,
2025-10-17T15:31:57.389693+00:00,11.130,8.008,,8.612,3.376,,,,
2025-10-17T15:31:58.001168+00:00,11.117,8.470,,5.726,2.109,,,,
2025-10-17T15:31:58.607542+00:00,11.105,9.477,,1.841,0.659,,,,
2025-10-17T15:31:59.215305+00:00,11.093,10.673,,-2.379,-0.854,,,,
2025-10-17T15:31:59.821743+00:00,11.081,11.626,,-6.169,-2.286,,,,
2025-10-17T15:32:00.432693+00:00,11.069,12.000,,-8.877,-3.517,,,,
2025-10-17T15:32:01.036963+00:00,11.057,11.657,,-9.985,-4.415,,,,
2025-10-17T15:32:01.649451+00:00,11.045,10.713,,-9.311,-4.917,,,,
2025-10-17T15:32:02.254889+00:00,11.034,9.522,,-6.988,-4.964,,,,
2025-10-17T15:32:02.860788+00:00,11.022,8.501,,-3.425,-4.558,,,,
2025-10-17T15:32:03.463733+00:00,11.011,8.015,,0.725,-3.742,,,,
2025-10-17T15:32:04.074830+00:00,11.001,8.236,,4.797,-2.572,,,,
2025-10-17T15:32:04.682965+00:00,10.990,9.090,,7.992,-1.170,,,,
2025-10-17T15:32:05.295114+00:00,10.980,10.279,,9.767,0.349,,,,
2025-10-17T15:32:05.900894+00:00,10.971,11.357,,9.785,1.821,,,,
2025-10-17T15:32:06.507852+00:00,10.962,11.953,,8.065,3.129,,,,
2025-10-17T15:32:07.110861+00:00,10.953,11.854,,4.935,4.146,,,,
2025-10-17T15:32:07.722427+00:00,10.945,11.087,,0.879,4.795,,,,
2025-10-17T15:32:08.331883+00:00,10.938,9.930,,-3.322,4.999,,,,
2025-10-17T15:32:08.944811+00:00,10.931,8.793,,-6.945,4.740,,,,
2025-10-17T15:32:09.547992+00:00,10.925,8.101,,-9.283,4.053,,,,
2025-10-17T15:32:10.155844+00:00,10.919,8.082,,-9.990,2.991,,,,
2025-10-17T15:32:10.759003+00:00,10.914,8.743,,-8.930,1.666,,,,
2025-10-17T15:32:11.370559+00:00,10.910,9.864,,-6.256,0.170,,,,
2025-10-17T15:32:11.980711+00:00,10.907,11.032,,-2.462,-1.339,,,,
2025-10-17T15:32:12.588970+00:00,10.904,11.826,,1.761,-2.720,,,,
2025-10-17T15:32:13.197212+00:00,10.902,11.965,,5.669,-3.852,,,,
2025-10-17T15:32:13.807146+00:00,10.901,11.396,,8.572,-4.631,,,,
2025-10-17T15:32:14.410135+00:00,10.900,10.338,,9.929,-4.982,,,,
2025-10-17T15:32:15.015939+00:00,10.900,9.156,,9.538,-4.882,,,,
2025-10-17T15:32:15.622990+00:00,10.901,8.272,,7.451,-4.335,,,,
2025-10-17T15:32:16.238651+00:00,10.903,8.008,,3.984,-3.377,,,,
2025-10-17T15:32:16.847386+00:00,10.905,8.466,,-0.163,-2.117,,,,
2025-10-17T15:32:17.457411+00:00,10.908,9.478,,-4.290,-0.659,,,,
2025-10-17T15:32:18.060009+00:00,10.912,10.664,,-7.612,0.842,,,,
2025-10-17T15:32:18.667568+00:00,10.916,11.622,,-9.610,2.278,,,,
2025-10-17T15:32:19.273806+00:00,10.922,12.000,,-9.896,3.502,,,,
2025-10-17T15:32:19.885072+00:00,10.927,11.659,,-8.409,4.414,,,,
2025-10-17T15:32:20.495006+00:00,10.934,10.720,,-5.413,4.915,,,,
2025-10-17T15:32:21.102522+00:00,10.941,9.526,,-1.462,4.964,,,,
2025-10-17T15:32:21.707844+00:00,10.949,8.505,,2.735,4.561,,,,
2025-10-17T15:32:22.313629+00:00,10.957,8.014,,6.451,3.742,,,,
2025-10-17T15:32:22.920130+00:00,10.966,8.232,,9.025,2.581,,,,
2025-10-17T15:32:23.534616+00:00,10.975,9.094,,9.999,1.165,,,,
2025-10-17T15:32:24.137642+00:00,10.985,10.265,,9.183,-0.332,,,,
2025-10-17T15:32:24.748474+00:00,10.995,11.354,,6.714,-1.816,,,,
2025-10-17T15:32:25.354037+00:00,11.005,11.951,,3.072,-3.123,,,,
2025-10-17T15:32:25.961128+00:00,11.016,11.853,,-1.125,-4.147,,,,
2025-10-17T15:32:26.564113+00:00,11.027,11.100,,-5.097,-4.790,,,,
2025-10-17T15:32:27.174798+00:00,11.039,9.943,,-8.205,-4.999,,,,
2025-10-17T15:32:27.783000+00:00,11.050,8.811,,-9.834,-4.749,,,,
2025-10-17T15:32:28.395863+00:00,11.062,8.102,,-9.698,-4.056,,,,
2025-10-17T15:32:29.001174+00:00,11.074,8.080,,-7.838,-3.000,,,,
2025-10-17T15:32:29.606962+00:00,11.086,8.741,,-4.589,-1.670,,,,
2025-10-17T15:32:30.210128+00:00,11.098,9.844,,-0.545,-0.195,,,,
2025-10-17T15:32:30.820641+00:00,11.111,11.016,,3.642,1.316,,,,
2025-10-17T15:32:31.428944+00:00,11.123,11.818,,7.164,2.700,,,,
2025-10-17T15:32:32.040144+00:00,11.135,11.967,,9.413,3.841,,,,
2025-10-17T15:32:32.643506+00:00,11.147,11.415,,9.970,4.619,,,,
2025-10-17T15:32:33.253498+00:00,11.158,10.350,,8.752,4.981,,,,
2025-10-17T15:32:33.856374+00:00,11.170,9.172,,6.002,4.887,,,,
2025-10-17T15:32:34.468001+00:00,11.181,8.277,,2.140,4.341,,,,
2025-10-17T15:32:35.076260+00:00,11.192,8.006,,-2.086,3.399,,,,
2025-10-17T15:32:35.686261+00:00,11.203,8.452,,-5.949,2.141,,,,
2025-10-17T15:32:36.294997+00:00,11.213,9.455,,-8.740,0.688,,,,
2025-10-17T15:32:36.903175+00:00,11.223,10.652,,-9.967,-0.826,,,,
2025-10-17T15:32:37.507217+00:00,11.232,11.610,,-9.424,-2.255,,,,
2025-10-17T15:32:38.114867+00:00,11.241,11.999,,-7.204,-3.487,,,,
2025-10-17T15:32:38.720987+00:00,11.249,11.674,,-3.710,-4.398,,,,
2025-10-17T15:32:39.333585+00:00,11.257,10.740,,0.487,-4.910,,,,
2025-10-17T15:32:39.942225+00:00,11.264,9.545,,4.571,-4.967,,,,
2025-10-17T15:32:40.551385+00:00,11.271,8.513,,7.840,-4.567,,,,
2025-10-17T15:32:41.154488+00:00,11.277,8.017,,9.695,-3.756,,,,
2025-10-17T15:32:41.760324+00:00,11.282,8.223,,9.844,-2.601,,,,
2025-10-17T15:32:42.366643+00:00,11.287,9.063,,8.247,-1.207,,,,
2025-10-17T15:32:42.979659+00:00,11.291,10.250,,5.147,0.313,,,,
2025-10-17T15:32:43.587707+00:00,11.294,11.339,,1.148,1.792,,,,
2025-10-17T15:32:44.193752+00:00,11.297,11.947,,-3.043,3.104,,,,
2025-10-17T15:32:44.799198+00:00,11.299,11.862,,-6.691,4.131,,,,
2025-10-17T15:32:45.406301+00:00,11.300,11.112,,-9.160,4.784,,,,
2025-10-17T15:32:46.012869+00:00,11.300,9.966,,-9.999,5.000,,,,
2025-10-17T15:32:46.624039+00:00,11.300,8.825,,-9.049,4.755,,,,
2025-10-17T15:32:47.227087+00:00,11.298,8.114,,-6.511,4.082,,,,
2025-10-17T15:32:47.840268+00:00,11.297,8.074,,-2.762,3.021,,,,
2025-10-17T15:32:48.445625+00:00,11.294,8.724,,1.434,1.696,,,,
2025-10-17T15:32:49.051393+00:00,11.291,9.828,,5.379,0.215,,,,
2025-10-17T15:32:49.654694+00:00,11.287,10.989,,8.362,-1.278,,,,
2025-10-17T15:32:50.265086+00:00,11.282,11.807,,9.883,-2.672,,,,
2025-10-17T15:32:50.873444+00:00,11.277,11.973,,9.631,-3.815,,,,
2025-10-17T15:32:51.484709+00:00,11.271,11.427,,7.645,-4.611,,,,
2025-10-17T15:32:52.089846+00:00,11.264,10.376,,4.320,-4.978,,,,
2025-10-17T15:32:52.697745+00:00,11.257,9.187,,0.212,-4.891,,,,
2025-10-17T15:32:53.300745+00:00,11.249,8.294,,-3.903,-4.362,,,,
2025-10-17T15:32:53.910239+00:00,11.241,8.004,,-7.363,-3.427,,,,
2025-10-17T15:32:54.519847+00:00,11.232,8.432,,-9.503,-2.177,,,,
2025-10-17T15:32:55.174428+00:00,11.222,9.512,,-9.900,-0.614,,,,
2025-10-17T15:32:55.777497+00:00,11.212,10.698,,-8.452,0.887,,,,
2025-10-17T15:32:56.384072+00:00,11.201,11.642,,-5.500,2.316,,,,
2025-10-17T15:32:56.986989+00:00,11.191,12.000,,-1.596,3.527,,,,
2025-10-17T15:32:57.597168+00:00,11.180,11.644,,2.637,4.429,,,,
2025-10-17T15:32:58.204762+00:00,11.169,10.700,,6.382,4.920,,,,
2025-10-17T15:32:58.811398+00:00,11.157,9.507,,8.987,4.961,,,,
2025-10-17T15:32:59.419471+00:00,11.145,8.488,,9.996,4.548,,,,
2025-10-17T15:33:00.028870+00:00,11.133,8.011,,9.217,3.715,,,,
2025-10-17T15:33:00.632185+00:00,11.121,8.244,,6.818,2.553,,,,
2025-10-17T15:33:01.237959+00:00,11.109,9.101,,3.205,1.155,,,,
2025-10-17T15:33:01.844933+00:00,11.097,10.281,,-0.985,-0.352,,,,
2025-10-17T15:33:02.459018+00:00,11.085,11.371,,-5.043,-1.843,,,,
2025-10-17T15:33:03.066509+00:00,11.073,11.957,,-8.156,-3.149,,,,
2025-10-17T15:33:03.673936+00:00,11.061,11.843,,-9.817,-4.166,,,,
2025-10-17T15:33:04.278020+00:00,11.049,11.075,,-9.734,-4.800,,,,
2025-10-17T15:33:04.884290+00:00,11.037,9.923,,-7.928,-4.999,,,,
2025-10-17T15:33:05.491134+00:00,11.026,8.797,,-4.711,-4.742,,,,
2025-10-17T15:33:06.104056+00:00,11.015,8.097,,-0.615,-4.042,,,,
2025-10-17T15:33:06.713509+00:00,11.004,8.088,,3.570,-2.973,,,,
2025-10-17T15:33:07.321899+00:00,10.993,8.765,,7.110,-1.633,,,,
2025-10-17T15:33:07.928049+00:00,10.983,9.882,,9.375,-0.148,,,,
2025-10-17T15:33:08.535260+00:00,10.974,11.042,,9.976,1.353,,,,
2025-10-17T15:33:09.144069+00:00,10.965,11.831,,8.796,2.734,,,,
2025-10-17T15:33:09.757223+00:00,10.956,11.960,,6.019,3.870,,,,
2025-10-17T15:33:10.361862+00:00,10.948,11.388,,2.208,4.637,,,,
2025-10-17T15:33:10.974224+00:00,10.940,10.308,,-2.045,4.985,,,,
2025-10-17T15:33:11.580963+00:00,10.933,9.126,,-5.897,4.873,,,,
2025-10-17T15:33:12.189452+00:00,10.927,8.255,,-8.707,4.313,,,,
2025-10-17T15:33:12.793286+00:00,10.921,8.009,,-9.958,3.366,,,,
2025-10-17T15:33:13.403472+00:00,10.916,8.475,,-9.442,2.100,,,,
2025-10-17T15:33:14.012758+00:00,10.911,9.490,,-7.233,0.642,,,,
2025-10-17T15:33:14.628127+00:00,10.908,10.700,,-3.689,-0.890,,,,
2025-10-17T15:33:15.234386+00:00,10.905,11.643,,0.465,-2.318,,,,
2025-10-17T15:33:15.843772+00:00,10.902,12.000,,4.556,-3.540,,,,
2025-10-17T15:33:16.447338+00:00,10.901,11.644,,7.806,-4.430,,,,
2025-10-17T15:33:17.061252+00:00,10.900,10.687,,9.700,-4.923,,,,
2025-10-17T15:33:17.671565+00:00,10.900,9.487,,9.835,-4.958,,,,
2025-10-17T15:33:18.283394+00:00,10.901,8.469,,8.196,-4.533,,,,
2025-10-17T15:33:18.887612+00:00,10.902,8.009,,5.123,-3.700,,,,
2025-10-17T15:33:19.498403+00:00,10.904,8.260,,1.101,-2.517,,,,
2025-10-17T15:33:20.102516+00:00,10.907,9.128,,-3.075,-1.118,,,,
2025-10-17T15:33:20.714967+00:00,10.911,10.321,,-6.753,0.403,,,,
2025-10-17T15:33:21.325360+00:00,10.915,11.395,,-9.202,1.882,,,,
2025-10-17T15:33:21.934080+00:00,10.920,11.964,,-9.997,3.184,,,,
2025-10-17T15:33:22.543202+00:00,10.926,11.827,,-9.003,4.193,,,,
2025-10-17T15:33:23.152412+00:00,10.932,11.033,,-6.397,4.817,,,,
2025-10-17T15:33:23.756907+00:00,10.939,9.877,,-2.676,4.998,,,,
2025-10-17T15:33:24.365474+00:00,10.946,8.757,,1.545,4.722,,,,
2025-10-17T15:33:24.972703+00:00,10.954,8.085,,5.481,4.014,,,,
2025-10-17T15:33:25.588969+00:00,10.963,8.103,,8.476,2.921,,,,
2025-10-17T15:33:26.198210+00:00,10.972,8.808,,9.912,1.569,,,,
2025-10-17T15:33:26.809194+00:00,10.982,9.945,,9.568,0.069,,,,
2025-10-17T15:33:27.413163+00:00,10.992,11.090,,7.533,-1.421,,,,
2025-10-17T15:33:28.021304+00:00,11.002,11.853,,4.145,-2.791,,,,
2025-10-17T15:33:28.629562+00:00,11.013,11.951,,0.016,-3.906,,,,
2025-10-17T15:33:29.244768+00:00,11.024,11.339,,-4.160,-4.667,,,,
2025-10-17T15:33:29.855081+00:00,11.036,10.246,,-7.554,-4.991,,,,
2025-10-17T15:33:30.462413+00:00,11.047,9.069,,-9.584,-4.854,,,,
2025-10-17T15:33:31.355537+00:00,11.065,8.037,,-9.442,-3.861,,,,
2025-10-17T15:33:31.977765+00:00,11.077,8.181,,-7.170,-2.703,,,,
2025-10-17T15:33:32.594983+00:00,11.090,8.998,,-3.592,-1.297,,,,
2025-10-17T15:33:33.203753+00:00,11.102,10.168,,0.587,0.210,,,,
2025-10-17T15:33:33.812824+00:00,11.114,11.278,,4.663,1.698,,,,
2025-10-17T15:33:34.419804+00:00,11.126,11.927,,7.895,3.026,,,,
2025-10-17T15:33:35.027421+00:00,11.138,11.888,,9.724,4.078,,,,
2025-10-17T15:33:35.631289+00:00,11.150,11.179,,9.825,4.754,,,,
2025-10-17T15:33:36.237755+00:00,11.161,10.047,,8.187,5.000,,,,
2025-10-17T15:33:36.852008+00:00,11.173,8.886,,5.048,4.784,,,,
2025-10-17T15:33:37.459269+00:00,11.184,8.138,,1.038,4.130,,,,
2025-10-17T15:33:38.069198+00:00,11.195,8.056,,-3.173,3.093,,,,
2025-10-17T15:33:38.680707+00:00,11.206,8.678,,-6.824,1.767,,,,
2025-10-17T15:33:39.296028+00:00,11.216,9.786,,-9.253,0.268,,,,
2025-10-17T15:33:39.901417+00:00,11.225,10.956,,-9.994,-1.233,,,,
2025-10-17T15:33:40.507338+00:00,11.235,11.786,,-8.966,-2.623,,,,
2025-10-17T15:33:41.114536+00:00,11.243,11.980,,-6.342,-3.775,,,,
2025-10-17T15:33:41.725821+00:00,11.252,11.461,,-2.561,-4.587,,,,
2025-10-17T15:33:42.334372+00:00,11.259,10.418,,1.662,-4.972,,,,
2025-10-17T15:33:42.937705+00:00,11.266,9.234,,5.558,-4.904,,,,
2025-10-17T15:33:43.541301+00:00,11.273,8.321,,8.478,-4.392,,,,
2025-10-17T15:33:44.152985+00:00,11.279,8.001,,9.915,-3.469,,,,
2025-10-17T15:33:44.765121+00:00,11.284,8.407,,9.560,-2.222,,,,
2025-10-17T15:33:45.376441+00:00,11.288,9.390,,7.481,-0.771,,,,
2025-10-17T15:33:45.984841+00:00,11.292,10.588,,4.071,0.744,,,,
2025-10-17T15:33:46.595230+00:00,11.295,11.578,,-0.080,2.195,,,,
2025-10-17T15:33:47.200774+00:00,11.297,11.997,,-4.185,3.435,,,,
2025-10-17T15:33:47.806733+00:00,11.299,11.705,,-7.552,4.362,,,,
2025-10-17T15:33:48.414965+00:00,11.300,10.803,,-9.585,4.894,,,,
2025-10-17T15:33:49.021719+00:00,11.300,9.615,,-9.908,4.977,,,,
2025-10-17T15:33:49.632247+00:00,11.299,8.559,,-8.456,4.601,,,,
2025-10-17T15:33:50.237410+00:00,11.298,8.026,,-5.515,3.809,,,,
2025-10-17T15:33:50.840453+00:00,11.296,8.192,,-1.613,2.675,,,,
2025-10-17T15:33:51.450338+00:00,11.293,9.008,,2.618,1.283,,,,
2025-10-17T15:33:52.060033+00:00,11.290,10.181,,6.379,-0.226,,,,
2025-10-17T15:33:52.675092+00:00,11.285,11.297,,9.011,-1.728,,,,
2025-10-17T15:33:53.283510+00:00,11.280,11.934,,9.997,-3.054,,,,
2025-10-17T15:33:53.892340+00:00,11.275,11.877,,9.197,-4.100,,,,
2025-10-17T15:33:54.498101+00:00,11.269,11.151,,6.767,-4.767,,,,
2025-10-17T15:33:55.101434+00:00,11.262,10.019,,3.154,-5.000,,,,
2025-10-17T15:33:55.706963+00:00,11.255,8.877,,-1.028,-4.780,,,,
2025-10-17T15:33:56.318343+00:00,11.246,8.131,,-5.064,-4.116,,,,
2025-10-17T15:33:56.929094+00:00,11.238,8.061,,-8.183,-3.073,,,,
2025-10-17T15:33:57.532582+00:00,11.229,8.681,,-9.820,-1.762,,,,
2025-10-17T15:33:58.138839+00:00,11.219,9.773,,-9.726,-0.284,,,,
2025-10-17T15:33:58.749954+00:00,11.209,10.954,,-7.886,1.231,,,,
2025-10-17T15:33:59.362752+00:00,11.199,11.792,,-4.614,2.635,,,,
2025-10-17T15:33:59.976199+00:00,11.188,11.977,,-0.501,3.795,,,,
2025-10-17T15:34:00.579749+00:00,11.177,11.455,,3.638,4.591,,,,
2025-10-17T15:34:01.192193+00:00,11.166,10.401,,7.181,4.975,,,,
2025-10-17T15:34:01.798996+00:00,11.154,9.212,,9.411,4.898,,,,
2025-10-17T15:34:02.402579+00:00,11.142,8.308,,9.970,4.378,,,,
2025-10-17T15:34:03.005784+00:00,11.130,8.002,,8.777,3.463,,,,
2025-10-17T15:34:03.615280+00:00,11.118,8.408,,6.007,2.221,,,,
2025-10-17T15:34:04.224967+00:00,11.106,9.388,,2.159,0.774,,,,
2025-10-17T15:34:04.833790+00:00,11.094,10.587,,-2.071,-0.742,,,,
2025-10-17T15:34:05.437045+00:00,11.082,11.568,,-5.898,-2.178,,,,
2025-10-17T15:34:06.049417+00:00,11.070,11.997,,-8.721,-3.433,,,,
2025-10-17T15:34:06.656033+00:00,11.058,11.706,,-9.962,-4.362,,,,
2025-10-17T15:34:07.269203+00:00,11.046,10.794,,-9.419,-4.896,,,,
2025-10-17T15:34:07.877146+00:00,11.034,9.603,,-7.192,-4.975,,,,
2025-10-17T15:34:08.483916+00:00,11.023,8.556,,-3.690,-4.599,,,,
2025-10-17T15:34:09.093648+00:00,11.012,8.024,,0.489,-3.798,,,,
2025-10-17T15:34:09.700445+00:00,11.001,8.201,,4.561,-2.653,,,,
2025-10-17T15:34:10.303402+00:00,10.991,9.014,,7.807,-1.275,,,,
2025-10-17T15:34:10.911416+00:00,10.981,10.185,,9.690,0.231,,,,
2025-10-17T15:34:11.519302+00:00,10.971,11.289,,9.845,1.715,,,,
2025-10-17T15:34:12.129301+00:00,10.962,11.933,,8.236,3.046,,,,
2025-10-17T15:34:12.738736+00:00,10.954,11.879,,5.151,4.096,,,,
2025-10-17T15:34:13.350393+00:00,10.946,11.146,,1.127,4.769,,,,
2025-10-17T15:34:13.961121+00:00,10.938,9.999,,-3.094,5.000,,,,
2025-10-17T15:34:14.565160+00:00,10.931,8.863,,-6.723,4.773,,,,
2025-10-17T15:34:15.171021+00:00,10.925,8.128,,-9.174,4.112,,,,
2025-10-17T15:34:15.784512+00:00,10.920,8.064,,-9.998,3.061,,,,
2025-10-17T15:34:16.394425+00:00,10.915,8.700,,-9.017,1.733,,,,
2025-10-17T15:34:16.998241+00:00,10.910,9.792,,-6.450,0.260,,,,
2025-10-17T15:34:17.603107+00:00,10.907,10.960,,-2.741,-1.239,,,,
2025-10-17T15:34:18.209535+00:00,10.904,11.789,,1.463,-2.629,,,,
2025-10-17T15:34:18.818465+00:00,10.902,11.979,,5.422,-3.783,,,,
2025-10-17T15:34:19.428079+00:00,10.901,11.456,,8.414,-4.590,,,,
2025-10-17T15:34:20.031550+00:00,10.900,10.421,,9.890,-4.972,,,,
2025-10-17T15:34:20.647027+00:00,10.900,9.215,,9.604,-4.899,,,,
2025-10-17T15:34:21.262719+00:00,10.901,8.297,,7.562,-4.365,,,,
2025-10-17T15:34:21.867654+00:00,10.903,8.003,,4.206,-3.440,,,,
2025-10-17T15:34:22.471090+00:00,10.905,8.416,,0.117,-2.207,,,,
2025-10-17T15:34:23.081207+00:00,10.908,9.401,,-4.036,-0.757,,,,
2025-10-17T15:34:23.691296+00:00,10.912,10.602,,-7.463,0.762,,,,
2025-10-17T15:34:24.301506+00:00,10.916,11.587,,-9.550,2.211,,,,
2025-10-17T15:34:24.906106+00:00,10.921,11.997,,-9.926,3.446,,,,
2025-10-17T15:34:25.513345+00:00,10.927,11.698,,-8.540,4.371,,,,
2025-10-17T15:34:26.119942+00:00,10.934,10.792,,-5.639,4.897,,,,
2025-10-17T15:34:26.727306+00:00,10.941,9.602,,-1.731,4.975,,,,
2025-10-17T15:34:27.337830+00:00,10.948,8.550,,2.507,4.595,,,,
2025-10-17T15:34:27.952363+00:00,10.957,8.021,,6.316,3.783,,,,
2025-10-17T15:34:28.563260+00:00,10.965,8.213,,8.963,2.625,,,,
2025-10-17T15:34:29.168810+00:00,10.975,9.042,,9.994,1.236,,,,
2025-10-17T15:34:29.772470+00:00,10.984,10.207,,9.261,-0.260,,,,
2025-10-17T15:34:30.382011+00:00,10.994,11.309,,6.869,-1.746,,,,
2025-10-17T15:34:30.992047+00:00,11.005,11.939,,3.242,-3.072,,,,
2025-10-17T15:34:31.595584+00:00,11.016,11.874,,-0.921,-4.106,,,,
2025-10-17T15:34:32.203099+00:00,11.027,11.141,,-4.947,-4.771,,,,
2025-10-17T15:34:32.812035+00:00,11.038,9.996,,-8.098,-5.000,,,,
2025-10-17T15:34:33.418286+00:00,11.050,8.857,,-9.795,-4.771,,,,
2025-10-17T15:34:34.022473+00:00,11.062,8.127,,-9.758,-4.109,,,,
2025-10-17T15:34:34.628918+00:00,11.074,8.061,,-7.992,-3.071,,,,
2025-10-17T15:34:35.248115+00:00,11.086,8.706,,-4.729,-1.723,,,,
2025-10-17T15:34:35.859134+00:00,11.098,9.815,,-0.648,-0.232,,,,
2025-10-17T15:34:36.464715+00:00,11.110,10.982,,3.514,1.268,,,,
2025-10-17T15:34:37.068101+00:00,11.122,11.797,,7.043,2.648,,,,
2025-10-17T15:34:37.676171+00:00,11.134,11.976,,9.346,3.796,,,,
2025-10-17T15:34:38.284969+00:00,11.146,11.446,,9.981,4.597,,,,
2025-10-17T15:34:38.893471+00:00,11.158,10.397,,8.831,4.975,,,,
2025-10-17T15:34:39.500465+00:00,11.169,9.208,,6.111,4.897,,,,
2025-10-17T15:34:40.107970+00:00,11.181,8.301,,2.302,4.370,,,,
2025-10-17T15:34:40.716777+00:00,11.192,8.003,,-1.927,3.441,,,,
2025-10-17T15:34:41.320471+00:00,11.202,8.416,,-5.782,2.207,,,,
2025-10-17T15:34:41.928152+00:00,11.213,9.396,,-8.634,0.764,,,,
2025-10-17T15:34:42.548099+00:00,11.223,10.616,,-9.955,-0.780,,,,
2025-10-17T15:34:43.154815+00:00,11.232,11.591,,-9.461,-2.219,,,,
2025-10-17T15:34:43.762731+00:00,11.241,11.998,,-7.281,-3.459,,,,
2025-10-17T15:34:44.367588+00:00,11.249,11.693,,-3.821,-4.377,,,,
2025-10-17T15:34:44.975896+00:00,11.257,10.780,,0.337,-4.900,,,,
2025-10-17T15:34:45.581328+00:00,11.264,9.593,,4.417,-4.974,,,,
2025-10-17T15:34:46.187746+00:00,11.271,8.550,,7.720,-4.594,,,,
2025-10-17T15:34:46.795542+00:00,11.277,8.023,,9.655,-3.793,,,,
2025-10-17T15:34:47.408043+00:00,11.282,8.209,,9.863,-2.635,,,,
2025-10-17T15:34:48.019358+00:00,11.287,9.043,,8.291,-1.234,,,,
2025-10-17T15:34:48.623665+00:00,11.291,10.211,,5.265,0.264,,,,
2025-10-17T15:34:49.229766+00:00,11.294,11.306,,1.298,1.742,,,,
2025-10-17T15:34:49.844940+00:00,11.297,11.941,,-2.960,3.079,,,,
2025-10-17T15:34:50.457093+00:00,11.299,11.866,,-6.661,4.123,,,,
2025-10-17T15:34:51.065789+00:00,11.300,11.119,,-9.148,4.781,,,,
2025-10-17T15:34:51.668938+00:00,11.300,9.982,,-10.000,5.000,,,,
2025-10-17T15:34:52.276994+00:00,11.300,8.842,,-9.081,4.764,,,,
2025-10-17T15:34:52.883078+00:00,11.299,8.119,,-6.552,4.093,,,,
2025-10-17T15:34:53.489531+00:00,11.297,8.067,,-2.859,3.049,,,,
2025-10-17T15:34:54.099857+00:00,11.294,8.709,,1.369,1.718,,,,
2025-10-17T15:34:54.708096+00:00,11.291,9.814,,5.338,0.233,,,,
2025-10-17T15:34:55.321107+00:00,11.287,10.993,,8.372,-1.285,,,,
2025-10-17T15:34:55.928947+00:00,11.282,11.807,,9.883,-2.672,,,,
2025-10-17T15:34:56.535982+00:00,11.277,11.973,,9.633,-3.813,,,,
2025-10-17T15:34:57.143202+00:00,11.271,11.434,,7.669,-4.606,,,,
2025-10-17T15:34:57.752260+00:00,11.264,10.379,,4.328,-4.977,,,,
2025-10-17T15:34:58.359992+00:00,11.257,9.190,,0.222,-4.892,,,,
2025-10-17T15:34:58.966887+00:00,11.249,8.292,,-3.918,-4.359,,,,
2025-10-17T15:34:59.576279+00:00,11.241,8.004,,-7.374,-3.423,,,,
2025-10-17T15:35:00.182315+00:00,11.232,8.431,,-9.501,-2.180,,,,
2025-10-17T15:35:00.785591+00:00,11.222,9.411,,-9.945,-0.744,,,,
2025-10-17T15:35:01.391585+00:00,11.213,10.605,,-8.632,0.765,,,,
2025-10-17T15:35:02.006007+00:00,11.202,11.593,,-5.742,2.223,,,,
2025-10-17T15:35:02.619576+00:00,11.191,11.999,,-1.811,3.472,,,,
2025-10-17T15:35:03.223914+00:00,11.181,11.685,,2.386,4.385,,,,
2025-10-17T15:35:03.833638+00:00,11.169,10.765,,6.192,4.904,,,,
2025-10-17T15:35:04.441468+00:00,11.158,9.573,,8.881,4.971,,,,
2025-10-17T15:35:05.050479+00:00,11.146,8.532,,9.987,4.581,,,,
2025-10-17T15:35:05.658254+00:00,11.134,8.019,,9.308,3.772,,,,
2025-10-17T15:35:06.261719+00:00,11.122,8.212,,6.991,2.626,,,,
2025-10-17T15:35:06.874407+00:00,11.110,9.053,,3.385,1.221,,,,
2025-10-17T15:35:07.482356+00:00,11.098,10.229,,-0.802,-0.287,,,,
2025-10-17T15:35:08.085768+00:00,11.086,11.316,,-4.818,-1.757,,,,
2025-10-17T15:35:08.688891+00:00,11.074,11.938,,-7.985,-3.068,,,,
2025-10-17T15:35:09.302283+00:00,11.062,11.869,,-9.766,-4.117,,,,
2025-10-17T15:35:09.918866+00:00,11.050,11.113,,-9.770,-4.784,,,,
2025-10-17T15:35:10.529315+00:00,11.038,9.960,,-8.007,-5.000,,,,
2025-10-17T15:35:11.139060+00:00,11.026,8.822,,-4.808,-4.754,,,,
2025-10-17T15:35:11.747385+00:00,11.015,8.110,,-0.757,-4.072,,,,
2025-10-17T15:35:12.353613+00:00,11.004,8.074,,3.416,-3.020,,,,
2025-10-17T15:35:12.959306+00:00,10.994,8.725,,6.980,-1.695,,,,
2025-10-17T15:35:13.566180+00:00,10.984,9.831,,9.311,-0.212,,,,
2025-10-17T15:35:14.178590+00:00,10.974,11.007,,9.985,1.304,,,,
2025-10-17T15:35:14.785315+00:00,10.965,11.813,,8.870,2.687,,,,
2025-10-17T15:35:15.391258+00:00,10.956,11.971,,6.184,3.822,,,,
2025-10-17T15:35:15.994540+00:00,10.948,11.432,,2.420,4.607,,,,
2025-10-17T15:35:16.608579+00:00,10.940,10.366,,-1.843,4.979,,,,
2025-10-17T15:35:17.221850+00:00,10.933,9.167,,-5.767,4.885,,,,
2025-10-17T15:35:17.829126+00:00,10.927,8.279,,-8.623,4.343,,,,
2025-10-17T15:35:18.437592+00:00,10.921,8.006,,-9.945,3.402,,,,
2025-10-17T15:35:19.046874+00:00,10.916,8.449,,-9.488,2.146,,,,
2025-10-17T15:35:19.652494+00:00,10.912,9.444,,-7.348,0.702,,,,
2025-10-17T15:35:20.255795+00:00,10.908,10.632,,-3.923,-0.801,,,,
2025-10-17T15:35:20.861584+00:00,10.905,11.600,,0.210,-2.237,,,,
2025-10-17T15:35:21.474592+00:00,10.903,11.999,,4.350,-3.482,,,,
2025-10-17T15:35:22.085166+00:00,10.901,11.673,,7.691,-4.399,,,,
2025-10-17T15:35:22.690543+00:00,10.900,10.751,,9.639,-4.908,,,,
2025-10-17T15:35:23.296058+00:00,10.900,9.563,,9.881,-4.970,,,,
2025-10-17T15:35:23.905561+00:00,10.901,8.524,,8.359,-4.576,,,,
2025-10-17T15:35:24.516922+00:00,10.902,8.017,,5.328,-3.757,,,,
2025-10-17T15:35:25.130492+00:00,10.904,8.230,,1.320,-2.585,,,,
2025-10-17T15:35:25.738124+00:00,10.907,9.078,,-2.888,-1.186,,,,
2025-10-17T15:35:26.345554+00:00,10.911,10.256,,-6.580,0.321,,,,
2025-10-17T15:35:26.953000+00:00,10.915,11.342,,-9.100,1.798,,,,
2025-10-17T15:35:27.556340+00:00,10.920,11.947,,-10.000,3.103,,,,
2025-10-17T15:35:28.162588+00:00,10.925,11.861,,-9.134,4.132,,,,
2025-10-17T15:35:28.775029+00:00,10.932,11.102,,-6.615,4.789,,,,
2025-10-17T15:35:29.380781+00:00,10.938,9.956,,-2.944,5.000,,,,
2025-10-17T15:35:29.988341+00:00,10.946,8.822,,1.262,4.754,,,,
2025-10-17T15:35:30.594480+00:00,10.954,8.111,,5.234,4.076,,,,
2025-10-17T15:35:31.202985+00:00,10.962,8.074,,8.287,3.021,,,,
2025-10-17T15:35:31.810412+00:00,10.972,8.727,,9.858,1.691,,,,
2025-10-17T15:35:32.422866+00:00,10.981,9.845,,9.664,0.194,,,,
2025-10-17T15:35:33.030820+00:00,10.991,11.012,,7.741,-1.310,,,,
2025-10-17T15:35:33.642997+00:00,11.002,11.819,,4.411,-2.704,,,,
2025-10-17T15:35:34.249804+00:00,11.012,11.968,,0.321,-3.837,,,,
2025-10-17T15:35:34.852815+00:00,11.023,11.420,,-3.802,-4.616,,,,
2025-10-17T15:35:35.456069+00:00,11.035,10.370,,-7.259,-4.978,,,,
2025-10-17T15:35:36.065678+00:00,11.046,9.178,,-9.455,-4.888,,,,
2025-10-17T15:35:36.676479+00:00,11.058,8.281,,-9.954,-4.346,,,,
2025-10-17T15:35:37.286040+00:00,11.070,8.005,,-8.666,-3.404,,,,
2025-10-17T15:35:37.889753+00:00,11.082,8.441,,-5.857,-2.161,,,,
2025-10-17T15:35:38.501444+00:00,11.094,9.443,,-1.962,-0.703,,,,
2025-10-17T15:35:39.111946+00:00,11.107,10.645,,2.278,0.817,,,,
2025-10-17T15:35:39.718493+00:00,11.119,11.609,,6.087,2.253,,,,
2025-10-17T15:35:40.326733+00:00,11.131,11.999,,8.820,3.486,,,,
2025-10-17T15:35:40.934006+00:00,11.143,11.673,,9.979,4.398,,,,
2025-10-17T15:35:41.544019+00:00,11.155,10.744,,9.354,4.909,,,,
2025-10-17T15:35:42.149157+00:00,11.166,9.556,,7.073,4.969,,,,
2025-10-17T15:35:42.752082+00:00,11.177,8.528,,3.557,4.579,,,,
2025-10-17T15:35:43.359459+00:00,11.188,8.019,,-0.615,3.768,,,,
2025-10-17T15:35:43.972038+00:00,11.199,8.222,,-4.709,2.602,,,,
2025-10-17T15:35:44.584332+00:00,11.210,9.072,,-7.949,1.194,,,,
2025-10-17T15:35:45.194374+00:00,11.220,10.254,,-9.748,-0.319,,,,
2025-10-17T15:35:45.806878+00:00,11.229,11.349,,-9.793,-1.808,,,,
2025-10-17T15:35:46.417603+00:00,11.238,11.952,,-8.072,-3.126,,,,
2025-10-17T15:35:47.021294+00:00,11.247,11.855,,-4.941,-4.145,,,,
2025-10-17T15:35:47.627416+00:00,11.255,11.098,,-0.924,-4.791,,,,
2025-10-17T15:35:48.238959+00:00,11.262,9.939,,3.293,-4.999,,,,
2025-10-17T15:35:48.849465+00:00,11.269,8.804,,6.910,-4.745,,,,
2025-10-17T15:35:49.452914+00:00,11.275,8.106,,9.266,-4.063,,,,
2025-10-17T15:35:50.057998+00:00,11.281,8.077,,9.993,-3.010,,,,
2025-10-17T15:35:50.664989+00:00,11.286,8.735,,8.947,-1.679,,,,
2025-10-17T15:35:51.275810+00:00,11.290,9.852,,6.290,-0.185,,,,
2025-10-17T15:35:51.886234+00:00,11.293,11.022,,2.502,1.325,,,,
2025-10-17T15:35:52.490062+00:00,11.296,11.817,,-1.689,2.698,,,,
2025-10-17T15:35:53.105539+00:00,11.298,11.966,,-5.650,3.846,,,,
2025-10-17T15:35:53.716183+00:00,11.299,11.400,,-8.563,4.629,,,,
2025-10-17T15:35:54.321984+00:00,11.300,10.338,,-9.930,4.982,,,,
2025-10-17T15:35:54.925459+00:00,11.300,9.159,,-9.542,4.883,,,,
2025-10-17T15:35:55.535246+00:00,11.299,8.271,,-7.448,4.335,,,,
2025-10-17T15:35:56.145612+00:00,11.297,8.007,,-4.013,3.385,,,,
2025-10-17T15:35:56.755744+00:00,11.295,8.462,,0.141,2.124,,,,
2025-10-17T15:35:57.361002+00:00,11.292,9.462,,4.240,0.678,,,,
2025-10-17T15:35:57.967662+00:00,11.288,10.657,,7.595,-0.832,,,,
2025-10-17T15:35:58.573691+00:00,11.284,11.616,,9.599,-2.266,,,,
2025-10-17T15:35:59.181119+00:00,11.278,11.999,,9.901,-3.495,,,,
2025-10-17T15:35:59.790830+00:00,11.273,11.665,,8.430,-4.407,,,,
2025-10-17T15:36:00.409351+00:00,11.266,10.715,,5.396,-4.917,,,,
2025-10-17T15:36:01.015746+00:00,11.259,9.523,,1.449,-4.964,,,,
2025-10-17T15:36:01.621122+00:00,11.251,8.502,,-2.747,-4.559,,,,
2025-10-17T15:36:02.224010+00:00,11.243,8.015,,-6.445,-3.744,,,,
2025-10-17T15:36:02.834571+00:00,11.234,8.234,,-9.034,-2.574,,,,
2025-10-17T15:36:03.446756+00:00,11.225,9.095,,-9.999,-1.163,,,,
2025-10-17T15:36:04.050542+00:00,11.215,10.268,,-9.179,0.335,,,,
2025-10-17T15:36:04.658654+00:00,11.205,11.352,,-6.721,1.813,,,,
2025-10-17T15:36:05.268746+00:00,11.195,11.952,,-3.050,3.129,,,,
2025-10-17T15:36:05.875957+00:00,11.184,11.851,,1.148,4.152,,,,
2025-10-17T15:36:06.479979+00:00,11.173,11.093,,5.123,4.793,,,,
2025-10-17T15:36:07.087421+00:00,11.161,9.941,,8.210,4.999,,,,
2025-10-17T15:36:07.711452+00:00,11.149,8.784,,9.854,4.735,,,,
2025-10-17T15:36:08.322753+00:00,11.137,8.093,,9.671,4.033,,,,
2025-10-17T15:36:08.928092+00:00,11.125,8.089,,7.771,2.969,,,,
2025-10-17T15:36:09.531322+00:00,11.113,8.761,,4.509,1.640,,,,
2025-10-17T15:36:10.138443+00:00,11.101,9.878,,0.427,0.153,,,,
2025-10-17T15:36:10.746741+00:00,11.089,11.041,,-3.738,-1.351,,,,
2025-10-17T15:36:11.354477+00:00,11.077,11.830,,-7.232,-2.730,,,,
2025-10-17T15:36:11.964129+00:00,11.065,11.963,,-9.442,-3.861,,,,
2025-10-17T15:36:12.571392+00:00,11.053,11.392,,-9.960,-4.634,,,,
2025-10-17T15:36:13.182174+00:00,11.041,10.317,,-8.693,-4.984,,,,
2025-10-17T15:36:13.786318+00:00,11.030,9.139,,-5.898,-4.877,,,,
2025-10-17T15:36:14.394799+00:00,11.019,8.262,,-2.035,-4.322,,,,
2025-10-17T15:36:15.013855+00:00,11.007,8.010,,2.265,-3.351,,,,
2025-10-17T15:36:15.619776+00:00,10.997,8.481,,6.072,-2.091,,,,
2025-10-17T15:36:16.228446+00:00,10.987,9.497,,8.813,-0.634,,,,
2025-10-17T15:36:16.833304+00:00,10.977,10.687,,9.976,0.872,,,,
2025-10-17T15:36:17.440738+00:00,10.968,11.636,,9.371,2.305,,,,
2025-10-17T15:36:18.046471+00:00,10.959,12.000,,7.106,3.523,,,,
2025-10-17T15:36:18.652947+00:00,10.950,11.651,,3.577,4.422,,,,
2025-10-17T15:36:19.260288+00:00,10.943,10.712,,-0.593,4.917,,,,
2025-10-17T15:36:19.872302+00:00,10.935,9.509,,-4.686,4.962,,,,
2025-10-17T15:36:20.482793+00:00,10.929,8.486,,-7.926,4.546,,,,
2025-10-17T15:36:21.086853+00:00,10.923,8.012,,-9.730,3.722,,,,
2025-10-17T15:36:21.695174+00:00,10.917,8.245,,-9.814,2.551,,,,
2025-10-17T15:36:22.305420+00:00,10.913,9.111,,-8.138,1.141,,,,
2025-10-17T15:36:22.914414+00:00,10.909,10.296,,-5.007,-0.371,,,,
2025-10-17T15:36:23.522388+00:00,10.906,11.373,,-0.986,-1.846,,,,
2025-10-17T15:36:24.125912+00:00,10.903,11.956,,3.181,-3.144,,,,
2025-10-17T15:36:24.734161+00:00,10.901,11.844,,6.812,-4.164,,,,
2025-10-17T15:36:25.339735+00:00,10.900,11.075,,9.221,-4.800,,,,
2025-10-17T15:36:25.945591+00:00,10.900,9.924,,9.996,-4.999,,,,
2025-10-17T15:36:26.553325+00:00,10.900,8.796,,8.995,-4.742,,,,
2025-10-17T15:36:27.162972+00:00,10.902,8.099,,6.381,-4.047,,,,
2025-10-17T15:36:27.776857+00:00,10.903,8.088,,2.592,-2.970,,,,
2025-10-17T15:36:28.382915+00:00,10.906,8.764,,-1.613,-1.635,,,,
2025-10-17T15:36:28.990574+00:00,10.909,9.883,,-5.542,-0.146,,,,
2025-10-17T15:36:29.598606+00:00,10.913,11.045,,-8.484,1.357,,,,
2025-10-17T15:36:30.208378+00:00,10.918,11.833,,-9.914,2.739,,,,
2025-10-17T15:36:30.816925+00:00,10.924,11.961,,-9.568,3.866,,,,
2025-10-17T15:36:31.424375+00:00,10.930,11.387,,-7.517,4.637,,,,
2025-10-17T15:36:32.034384+00:00,10.936,10.311,,-4.110,4.985,,,,
2025-10-17T15:36:32.640226+00:00,10.944,9.131,,0.005,4.874,,,,
2025-10-17T15:36:33.245187+00:00,10.951,8.261,,4.114,4.321,,,,
2025-10-17T15:36:33.851607+00:00,10.960,8.008,,7.503,3.373,,,,
2025-10-17T15:36:34.466113+00:00,10.969,8.476,,9.576,2.098,,,,
