ts_iso,batt_v,airspeed_ms,groundspeed_ms,roll_deg,pitch_deg,yaw_deg,lat,lon,alt_m
2025-10-17T16:43:30.002061+00:00,,,,,,,,,
2025-10-17T16:43:30.611465+00:00,,,,,,,,,
2025-10-17T16:43:31.212910+00:00,,,,,,,,,
2025-10-17T16:43:31.816947+00:00,,,,,,,,,
2025-10-17T16:43:32.795536+00:00,,,,,,,,,
2025-10-17T16:43:33.400672+00:00,,,,,,,,,
2025-10-17T16:43:34.003773+00:00,,,,,,,,,
2025-10-17T16:43:34.621572+00:00,11.112,11.159,,4.191,1.520,,,,
2025-10-17T16:43:35.241879+00:00,11.125,11.890,,7.622,2.902,,,,
2025-10-17T16:43:35.845331+00:00,11.137,11.927,,9.606,3.981,,,,
2025-10-17T16:43:36.465909+00:00,11.149,11.257,,9.884,4.714,,,,
2025-10-17T16:43:37.090070+00:00,11.161,10.110,,8.311,4.998,,,,
2025-10-17T16:43:37.696014+00:00,11.172,8.953,,5.286,4.812,,,,
2025-10-17T16:43:38.301062+00:00,11.183,8.170,,1.330,4.188,,,,
2025-10-17T16:43:38.903251+00:00,11.194,8.035,,-2.841,3.190,,,,
2025-10-17T16:43:39.508238+00:00,11.205,8.595,,-6.530,1.898,,,,
2025-10-17T16:43:40.118703+00:00,11.215,9.665,,-9.082,0.420,,,,
2025-10-17T16:43:40.727621+00:00,11.225,10.853,,-10.000,-1.093,,,,
2025-10-17T16:43:41.330126+00:00,11.234,11.728,,-9.147,-2.491,,,,
2025-10-17T16:43:41.934470+00:00,11.243,11.994,,-6.681,-3.669,,,,
2025-10-17T16:43:42.540361+00:00,11.251,11.552,,-3.027,-4.515,,,,
2025-10-17T16:43:43.152982+00:00,11.259,10.544,,1.210,-4.953,,,,
2025-10-17T16:43:43.760697+00:00,11.266,9.348,,5.199,-4.931,,,,
2025-10-17T16:43:44.363935+00:00,11.272,8.390,,8.243,-4.463,,,,
2025-10-17T16:43:44.978913+00:00,11.278,8.000,,9.854,-3.571,,,,
2025-10-17T16:43:45.585446+00:00,11.283,8.334,,9.681,-2.363,,,,
2025-10-17T16:43:46.187587+00:00,11.288,9.254,,7.809,-0.950,,,,
2025-10-17T16:43:46.798714+00:00,11.292,10.453,,4.513,0.570,,,,
2025-10-17T16:43:47.407093+00:00,11.295,11.485,,0.424,2.032,,,,
2025-10-17T16:43:48.017489+00:00,11.297,11.985,,-3.755,3.311,,,,
2025-10-17T16:43:48.625396+00:00,11.299,11.770,,-7.246,4.280,,,,
2025-10-17T16:43:49.263104+00:00,11.300,10.867,,-9.511,4.875,,,,
2025-10-17T16:43:49.868773+00:00,11.300,9.687,,-9.940,4.985,,,,
2025-10-17T16:43:50.474574+00:00,11.299,8.618,,-8.608,4.641,,,,
2025-10-17T16:43:51.080576+00:00,11.298,8.041,,-5.750,3.874,,,,
2025-10-17T16:43:51.688792+00:00,11.296,8.163,,-1.857,2.749,,,,
2025-10-17T16:43:52.310637+00:00,11.293,8.967,,2.459,1.340,,,,
2025-10-17T16:43:52.916254+00:00,11.290,10.126,,6.229,-0.158,,,,
2025-10-17T16:43:53.521535+00:00,11.286,11.239,,8.894,-1.640,,,,
2025-10-17T16:43:54.124433+00:00,11.281,11.911,,9.986,-2.968,,,,
2025-10-17T16:43:54.735136+00:00,11.275,11.904,,9.306,-4.041,,,,
2025-10-17T16:43:55.346643+00:00,11.269,11.207,,6.946,-4.740,,,,
2025-10-17T16:43:55.949513+00:00,11.262,10.091,,3.390,-4.999,,,,
2025-10-17T16:43:56.558054+00:00,11.255,8.932,,-0.800,-4.803,,,,
2025-10-17T16:43:57.167911+00:00,11.247,8.156,,-4.856,-4.164,,,,
2025-10-17T16:43:57.778284+00:00,11.238,8.045,,-8.042,-3.140,,,,
2025-10-17T16:43:58.381662+00:00,11.229,8.630,,-9.772,-1.842,,,,
2025-10-17T16:43:58.986973+00:00,11.220,9.702,,-9.781,-0.373,,,,
2025-10-17T16:43:59.596303+00:00,11.210,10.888,,-8.044,1.140,,,,
2025-10-17T16:44:00.213125+00:00,11.199,11.761,,-4.820,2.564,,,,
2025-10-17T16:44:00.823169+00:00,11.189,11.987,,-0.758,3.734,,,,
2025-10-17T16:44:01.425762+00:00,11.178,11.506,,3.390,4.553,,,,
2025-10-17T16:44:02.031591+00:00,11.166,10.488,,6.961,4.962,,,,
2025-10-17T16:44:02.638120+00:00,11.155,9.295,,9.301,4.919,,,,
2025-10-17T16:44:03.246590+00:00,11.143,8.352,,9.988,4.425,,,,
2025-10-17T16:44:03.861557+00:00,11.131,8.000,,8.869,3.513,,,,
2025-10-17T16:44:04.469210+00:00,11.119,8.373,,6.173,2.288,,,,
2025-10-17T16:44:05.077507+00:00,11.107,9.329,,2.372,0.851,,,,
2025-10-17T16:44:05.680124+00:00,11.095,10.515,,-1.814,-0.649,,,,
2025-10-17T16:44:06.286624+00:00,11.083,11.525,,-5.703,-2.100,,,,
2025-10-17T16:44:06.899653+00:00,11.071,11.992,,-8.604,-3.372,,,,
2025-10-17T16:44:07.505574+00:00,11.059,11.740,,-9.939,-4.320,,,,
2025-10-17T16:44:08.114317+00:00,11.047,10.864,,-9.506,-4.876,,,,
2025-10-17T16:44:08.720511+00:00,11.035,9.683,,-7.386,-4.984,,,,
2025-10-17T16:44:09.331572+00:00,11.024,8.607,,-3.924,-4.634,,,,
2025-10-17T16:44:09.937104+00:00,11.013,8.038,,0.207,-3.863,,,,
2025-10-17T16:44:10.542347+00:00,11.002,8.166,,4.298,-2.741,,,,
2025-10-17T16:44:11.148536+00:00,10.992,8.947,,7.635,-1.368,,,,
2025-10-17T16:44:11.772090+00:00,10.981,10.138,,9.649,0.173,,,,
2025-10-17T16:44:12.378073+00:00,10.972,11.250,,9.875,1.656,,,,
2025-10-17T16:44:12.980164+00:00,10.963,11.915,,8.365,2.981,,,,
2025-10-17T16:44:13.582731+00:00,10.954,11.905,,5.388,4.038,,,,
2025-10-17T16:44:14.193359+00:00,10.946,11.212,,1.411,4.737,,,,
2025-10-17T16:44:14.804350+00:00,10.939,10.080,,-2.822,4.999,,,,
2025-10-17T16:44:15.412613+00:00,10.932,8.924,,-6.533,4.800,,,,
2025-10-17T16:44:16.016096+00:00,10.926,8.157,,-9.063,4.166,,,,
2025-10-17T16:44:16.626128+00:00,10.920,8.044,,-10.000,3.144,,,,
2025-10-17T16:44:17.231643+00:00,10.915,8.630,,-9.153,1.841,,,,
2025-10-17T16:44:17.838020+00:00,10.911,9.705,,-6.683,0.370,,,,
2025-10-17T16:44:18.446323+00:00,10.907,10.889,,-3.013,-1.141,,,,
2025-10-17T16:44:19.053469+00:00,10.904,11.752,,1.186,-2.544,,,,
2025-10-17T16:44:19.665105+00:00,10.902,11.988,,5.202,-3.722,,,,
2025-10-17T16:44:20.274969+00:00,10.901,11.506,,8.271,-4.553,,,,
2025-10-17T16:44:20.877981+00:00,10.900,10.494,,9.848,-4.961,,,,
2025-10-17T16:44:21.484061+00:00,10.900,9.302,,9.690,-4.921,,,,
2025-10-17T16:44:22.098213+00:00,10.901,8.349,,7.779,-4.423,,,,
2025-10-17T16:44:22.710476+00:00,10.903,8.000,,4.464,-3.514,,,,
2025-10-17T16:44:23.316611+00:00,10.905,8.370,,0.385,-2.292,,,,
2025-10-17T16:44:23.923566+00:00,10.908,9.322,,-3.769,-0.860,,,,
2025-10-17T16:44:24.528258+00:00,10.911,10.512,,-7.241,0.646,,,,
2025-10-17T16:44:25.130574+00:00,10.916,11.518,,-9.429,2.088,,,,
2025-10-17T16:44:25.741250+00:00,10.921,11.990,,-9.961,3.357,,,,
2025-10-17T16:44:26.354188+00:00,10.927,11.741,,-8.693,4.318,,,,
2025-10-17T16:44:26.965427+00:00,10.933,10.862,,-5.858,4.877,,,,
2025-10-17T16:44:27.568538+00:00,10.940,9.686,,-2.023,4.984,,,,
2025-10-17T16:44:28.173897+00:00,10.948,8.618,,2.183,4.640,,,,
2025-10-17T16:44:28.781176+00:00,10.956,8.040,,6.013,3.871,,,,
2025-10-17T16:44:29.390778+00:00,10.964,8.165,,8.781,2.743,,,,
2025-10-17T16:44:29.999097+00:00,10.974,8.949,,9.973,1.366,,,,
2025-10-17T16:44:30.602693+00:00,10.983,10.101,,9.396,-0.126,,,,
2025-10-17T16:44:31.218847+00:00,10.993,11.236,,7.104,-1.636,,,,
2025-10-17T16:44:31.825494+00:00,11.004,11.912,,3.574,-2.972,,,,
2025-10-17T16:44:32.428284+00:00,11.015,11.908,,-0.565,-4.032,,,,
2025-10-17T16:44:33.030730+00:00,11.026,11.231,,-4.602,-4.728,,,,
2025-10-17T16:44:33.653116+00:00,11.037,10.082,,-7.919,-4.999,,,,
2025-10-17T16:44:34.261364+00:00,11.049,8.925,,-9.734,-4.800,,,,
2025-10-17T16:44:34.867196+00:00,11.061,8.156,,-9.814,-4.164,,,,
2025-10-17T16:44:35.470990+00:00,11.073,8.042,,-8.164,-3.153,,,,
2025-10-17T16:44:36.076455+00:00,11.085,8.623,,-5.067,-1.852,,,,
2025-10-17T16:44:36.681496+00:00,11.097,9.693,,-1.076,-0.385,,,,
2025-10-17T16:44:37.287898+00:00,11.109,10.874,,3.114,1.121,,,,
2025-10-17T16:44:37.900676+00:00,11.121,11.750,,6.784,2.539,,,,
2025-10-17T16:44:38.513061+00:00,11.133,11.989,,9.224,3.719,,,,
2025-10-17T16:44:39.119658+00:00,11.145,11.512,,9.996,4.547,,,,
2025-10-17T16:44:39.724368+00:00,11.157,10.500,,8.998,4.960,,,,
2025-10-17T16:44:40.327743+00:00,11.168,9.313,,6.420,4.923,,,,
2025-10-17T16:44:40.938778+00:00,11.180,8.360,,2.661,4.433,,,,
2025-10-17T16:44:41.549783+00:00,11.191,8.000,,-1.577,3.532,,,,
2025-10-17T16:44:42.153152+00:00,11.201,8.355,,-5.486,2.321,,,,
2025-10-17T16:44:42.761608+00:00,11.212,9.301,,-8.450,0.888,,,,
2025-10-17T16:44:43.374802+00:00,11.222,10.507,,-9.909,-0.638,,,,
2025-10-17T16:44:43.979957+00:00,11.231,11.517,,-9.586,-2.087,,,,
2025-10-17T16:44:44.582312+00:00,11.240,11.989,,-7.581,-3.341,,,,
2025-10-17T16:44:45.187129+00:00,11.248,11.757,,-4.233,-4.297,,,,
2025-10-17T16:44:45.810479+00:00,11.256,10.870,,-0.007,-4.874,,,,
2025-10-17T16:44:46.418456+00:00,11.264,9.685,,4.122,-4.984,,,,
2025-10-17T16:44:47.022346+00:00,11.270,8.619,,7.497,-4.641,,,,
2025-10-17T16:44:47.624889+00:00,11.276,8.042,,9.549,-3.881,,,,
2025-10-17T16:44:48.233332+00:00,11.282,8.160,,9.923,-2.758,,,,
2025-10-17T16:44:48.842650+00:00,11.286,8.939,,8.520,-1.380,,,,
2025-10-17T16:44:49.450678+00:00,11.291,10.098,,5.598,0.122,,,,
2025-10-17T16:44:50.059045+00:00,11.294,11.222,,1.675,1.613,,,,
2025-10-17T16:44:50.666552+00:00,11.296,11.907,,-2.541,2.955,,,,
2025-10-17T16:44:51.274096+00:00,11.298,11.910,,-6.305,4.026,,,,
2025-10-17T16:44:51.877241+00:00,11.300,11.236,,-8.932,4.725,,,,
2025-10-17T16:44:52.484582+00:00,11.300,10.118,,-9.991,4.998,,,,
2025-10-17T16:44:53.098243+00:00,11.300,8.947,,-9.255,4.809,,,,
2025-10-17T16:44:53.707931+00:00,11.299,8.163,,-6.858,4.176,,,,
2025-10-17T16:44:54.316574+00:00,11.297,8.041,,-3.237,3.161,,,,
2025-10-17T16:44:54.921541+00:00,11.294,8.617,,0.937,1.863,,,,
2025-10-17T16:44:55.528053+00:00,11.291,9.687,,4.955,0.392,,,,
2025-10-17T16:44:56.149470+00:00,11.287,10.896,,8.154,-1.151,,,,
2025-10-17T16:44:56.754733+00:00,11.283,11.754,,9.813,-2.548,,,,
2025-10-17T16:44:57.361648+00:00,11.277,11.989,,9.734,-3.717,,,,
2025-10-17T16:44:57.971116+00:00,11.271,11.510,,7.914,-4.549,,,,
2025-10-17T16:44:58.579322+00:00,11.265,10.490,,4.683,-4.962,,,,
2025-10-17T16:44:59.187008+00:00,11.257,9.295,,0.619,-4.919,,,,
2025-10-17T16:44:59.790574+00:00,11.250,8.357,,-3.528,-4.430,,,,
2025-10-17T16:45:00.401986+00:00,11.241,8.000,,-7.093,-3.528,,,,
2025-10-17T16:45:01.006562+00:00,11.233,8.360,,-9.362,-2.313,,,,
2025-10-17T16:45:01.613153+00:00,11.223,9.305,,-9.979,-0.883,,,,
2025-10-17T16:45:02.220163+00:00,11.213,10.498,,-8.821,0.628,,,,
2025-10-17T16:45:02.829174+00:00,11.203,11.517,,-6.084,2.086,,,,
2025-10-17T16:45:03.434567+00:00,11.193,11.989,,-2.282,3.346,,,,
2025-10-17T16:45:04.036698+00:00,11.182,11.757,,1.901,4.297,,,,
2025-10-17T16:45:04.644167+00:00,11.171,10.898,,5.782,4.865,,,,
2025-10-17T16:45:05.258851+00:00,11.159,9.703,,8.658,4.986,,,,
2025-10-17T16:45:05.870253+00:00,11.147,8.622,,9.954,4.643,,,,
2025-10-17T16:45:06.473839+00:00,11.135,8.043,,9.472,3.882,,,,
2025-10-17T16:45:07.079639+00:00,11.123,8.157,,7.313,2.765,,,,
2025-10-17T16:45:07.709063+00:00,11.111,8.968,,3.706,1.339,,,,
2025-10-17T16:45:08.318770+00:00,11.099,10.135,,-0.471,-0.168,,,,
2025-10-17T16:45:08.926641+00:00,11.087,11.250,,-4.552,-1.656,,,,
2025-10-17T16:45:09.530125+00:00,11.074,11.915,,-7.802,-2.983,,,,
2025-10-17T16:45:10.143513+00:00,11.062,11.898,,-9.698,-4.055,,,,
2025-10-17T16:45:10.756740+00:00,11.050,11.188,,-9.833,-4.749,,,,
2025-10-17T16:45:11.359843+00:00,11.039,10.066,,-8.225,-4.999,,,,
2025-10-17T16:45:11.962868+00:00,11.027,8.921,,-5.172,-4.798,,,,
2025-10-17T16:45:12.573152+00:00,11.016,8.151,,-1.161,-4.155,,,,
2025-10-17T16:45:13.184267+00:00,11.005,8.048,,3.064,-3.125,,,,
2025-10-17T16:45:13.792674+00:00,10.995,8.649,,6.723,-1.813,,,,
2025-10-17T16:45:14.397802+00:00,10.985,9.727,,9.171,-0.342,,,,
2025-10-17T16:45:15.005038+00:00,10.975,10.906,,9.999,1.165,,,,
2025-10-17T16:45:15.610543+00:00,10.966,11.760,,9.052,2.562,,,,
2025-10-17T16:45:16.221518+00:00,10.957,11.987,,6.474,3.735,,,,
2025-10-17T16:45:16.828461+00:00,10.949,11.500,,2.757,4.557,,,,
2025-10-17T16:45:17.433828+00:00,10.941,10.480,,-1.440,4.963,,,,
2025-10-17T16:45:18.035893+00:00,10.934,9.296,,-5.362,4.919,,,,
2025-10-17T16:45:18.653480+00:00,10.927,8.342,,-8.405,4.415,,,,
2025-10-17T16:45:19.259671+00:00,10.922,8.000,,-9.890,3.513,,,,
2025-10-17T16:45:19.863610+00:00,10.917,8.368,,-9.626,2.296,,,,
2025-10-17T16:45:20.468470+00:00,10.912,9.315,,-7.662,0.869,,,,
2025-10-17T16:45:21.076216+00:00,10.908,10.511,,-4.327,-0.644,,,,
2025-10-17T16:45:21.683018+00:00,10.905,11.522,,-0.227,-2.096,,,,
2025-10-17T16:45:22.291165+00:00,10.903,11.991,,3.922,-3.359,,,,
2025-10-17T16:45:22.903734+00:00,10.901,11.740,,7.392,-4.319,,,,
2025-10-17T16:45:23.509557+00:00,10.900,10.870,,9.508,-4.874,,,,
2025-10-17T16:45:24.115032+00:00,10.900,9.690,,9.941,-4.985,,,,
2025-10-17T16:45:24.718066+00:00,10.901,8.624,,8.623,-4.645,,,,
2025-10-17T16:45:25.328578+00:00,10.902,8.041,,5.748,-3.873,,,,
2025-10-17T16:45:25.939732+00:00,10.904,8.165,,1.835,-2.743,,,,
2025-10-17T16:45:26.543243+00:00,10.907,8.941,,-2.356,-1.376,,,,
2025-10-17T16:45:27.154460+00:00,10.910,10.107,,-6.176,0.134,,,,
2025-10-17T16:45:27.762492+00:00,10.914,11.229,,-8.873,1.624,,,,
2025-10-17T16:45:28.366819+00:00,10.919,11.908,,-9.984,2.957,,,,
2025-10-17T16:45:28.977088+00:00,10.925,11.908,,-9.320,4.032,,,,
2025-10-17T16:45:29.587972+00:00,10.931,11.218,,-6.979,4.735,,,,
2025-10-17T16:45:30.208680+00:00,10.938,10.068,,-3.315,4.999,,,,
2025-10-17T16:45:30.819108+00:00,10.945,8.910,,0.893,4.794,,,,
2025-10-17T16:45:31.423335+00:00,10.953,8.150,,4.902,4.154,,,,
2025-10-17T16:45:32.025620+00:00,10.962,8.045,,8.040,3.141,,,,
2025-10-17T16:45:32.633261+00:00,10.971,8.635,,9.777,1.834,,,,
2025-10-17T16:45:33.242131+00:00,10.980,9.717,,9.770,0.355,,,,
2025-10-17T16:45:33.850727+00:00,10.990,10.900,,8.017,-1.156,,,,
2025-10-17T16:45:34.459070+00:00,11.000,11.759,,4.831,-2.560,,,,
2025-10-17T16:45:35.065919+00:00,11.011,11.988,,0.794,-3.726,,,,
2025-10-17T16:45:35.674042+00:00,11.022,11.505,,-3.394,-4.553,,,,
2025-10-17T16:45:36.280944+00:00,11.034,10.485,,-6.969,-4.963,,,,
2025-10-17T16:45:36.886678+00:00,11.045,9.294,,-9.303,-4.919,,,,
2025-10-17T16:45:37.496224+00:00,11.057,8.350,,-9.987,-4.423,,,,
2025-10-17T16:45:38.100686+00:00,11.069,8.000,,-8.897,-3.528,,,,
2025-10-17T16:45:38.721412+00:00,11.081,8.378,,-6.148,-2.278,,,,
2025-10-17T16:45:39.325210+00:00,11.093,9.329,,-2.372,-0.851,,,,
2025-10-17T16:45:39.930536+00:00,11.105,10.520,,1.832,0.656,,,,
2025-10-17T16:45:40.539226+00:00,11.117,11.531,,5.731,2.111,,,,
2025-10-17T16:45:41.144221+00:00,11.129,11.991,,8.592,3.366,,,,
2025-10-17T16:45:41.800213+00:00,11.142,11.692,,9.970,4.377,,,,
2025-10-17T16:45:42.412797+00:00,11.154,10.772,,9.390,4.902,,,,
2025-10-17T16:45:43.020792+00:00,11.166,9.580,,7.133,4.972,,,,
2025-10-17T16:45:43.623555+00:00,11.177,8.545,,3.637,4.591,,,,
2025-10-17T16:45:43.623555+00:00,11.177,8.545,,3.637,4.591,,,,
2025-10-17T16:45:49.435165+00:00,11.266,9.328,,5.262,-4.927,,,,
2025-10-17T16:45:50.069241+00:00,11.272,8.342,,8.404,-4.415,,,,
2025-10-17T16:45:50.682643+00:00,11.278,8.000,,9.897,-3.501,,,,
2025-10-17T16:45:51.289811+00:00,11.284,8.380,,9.606,-2.273,,,,
2025-10-17T16:45:51.894343+00:00,11.288,9.334,,7.617,-0.844,,,,
2025-10-17T16:45:52.501178+00:00,11.292,10.528,,4.270,0.667,,,,
2025-10-17T16:45:53.111502+00:00,11.295,11.538,,0.140,2.124,,,,
2025-10-17T16:45:53.717798+00:00,11.297,11.992,,-3.991,3.379,,,,
2025-10-17T16:45:54.325711+00:00,11.299,11.734,,-7.420,4.327,,,,
2025-10-17T16:45:54.957595+00:00,11.300,10.811,,-9.575,4.891,,,,
2025-10-17T16:45:55.562830+00:00,11.300,9.627,,-9.914,4.978,,,,
2025-10-17T16:45:56.169160+00:00,11.299,8.574,,-8.496,4.611,,,,
2025-10-17T16:45:56.776100+00:00,11.298,8.029,,-5.566,3.823,,,,
2025-10-17T16:45:57.993126+00:00,11.293,9.000,,2.587,1.295,,,,
2025-10-17T16:45:58.602561+00:00,11.290,10.171,,6.352,-0.214,,,,
2025-10-17T16:45:59.213908+00:00,11.285,11.284,,8.984,-1.707,,,,
2025-10-17T16:45:59.824109+00:00,11.281,11.931,,9.996,-3.040,,,,
2025-10-17T16:46:00.428892+00:00,11.275,11.885,,9.227,-4.084,,,,
2025-10-17T16:46:01.034171+00:00,11.269,11.169,,6.825,-4.758,,,,
2025-10-17T16:46:01.637445+00:00,11.262,10.042,,3.230,-5.000,,,,
2025-10-17T16:46:02.266336+00:00,11.254,8.858,,-1.111,-4.771,,,,
2025-10-17T16:46:02.874997+00:00,11.246,8.124,,-5.119,-4.103,,,,
2025-10-17T16:46:03.484397+00:00,11.238,8.065,,-8.214,-3.057,,,,
2025-10-17T16:46:04.088987+00:00,11.229,8.695,,-9.832,-1.741,,,,
2025-10-17T16:46:05.326080+00:00,11.209,11.004,,-7.761,1.300,,,,
2025-10-17T16:46:05.937337+00:00,11.198,11.815,,-4.445,2.692,,,,
2025-10-17T16:46:06.543392+00:00,11.188,11.970,,-0.363,3.827,,,,
2025-10-17T16:46:07.478031+00:00,11.171,10.895,,5.793,4.866,,,,
2025-10-17T16:46:08.087650+00:00,11.159,9.709,,8.647,4.987,,,,
2025-10-17T16:46:08.698947+00:00,11.147,8.626,,9.952,4.646,,,,
2025-10-17T16:46:09.301812+00:00,11.135,8.044,,9.481,3.888,,,,
2025-10-17T16:46:09.908744+00:00,11.123,8.155,,7.326,2.771,,,,
2025-10-17T16:46:10.521699+00:00,11.111,8.935,,3.831,1.386,,,,
2025-10-17T16:46:11.133181+00:00,11.099,10.100,,-0.349,-0.125,,,,
2025-10-17T16:46:11.740399+00:00,11.087,11.222,,-4.439,-1.613,,,,
2025-10-17T16:46:12.345491+00:00,11.075,11.906,,-7.730,-2.950,,,,
2025-10-17T16:46:12.952579+00:00,11.063,11.912,,-9.658,-4.022,,,,
2025-10-17T16:46:14.063387+00:00,11.041,10.322,,-8.702,-4.984,,,,
2025-10-17T16:46:14.674772+00:00,11.030,9.130,,-5.872,-4.874,,,,
2025-10-17T16:46:15.285271+00:00,11.018,8.255,,-1.989,-4.314,,,,
2025-10-17T16:46:15.893181+00:00,11.007,8.009,,2.234,-3.359,,,,
2025-10-17T16:46:16.497238+00:00,10.997,8.472,,6.037,-2.105,,,,
2025-10-17T16:46:17.104501+00:00,10.987,9.482,,8.787,-0.653,,,,
2025-10-17T16:46:17.805101+00:00,10.975,10.849,,10.000,1.088,,,,
2025-10-17T16:46:18.416018+00:00,10.966,11.734,,9.129,2.505,,,,
2025-10-17T16:46:19.024821+00:00,10.957,11.992,,6.625,3.687,,,,
2025-10-17T16:46:19.634412+00:00,10.949,11.533,,2.931,4.530,,,,
2025-10-17T16:46:20.249662+00:00,10.941,10.511,,-1.329,4.958,,,,
2025-10-17T16:46:20.858525+00:00,10.934,9.313,,-5.307,4.923,,,,
2025-10-17T16:46:21.535878+00:00,10.927,8.288,,-8.591,4.354,,,,
2025-10-17T16:46:22.960691+00:00,10.914,8.728,,-8.960,1.689,,,,
2025-10-17T16:46:23.574865+00:00,10.910,9.850,,-6.293,0.187,,,,
2025-10-17T16:46:24.185991+00:00,10.907,11.022,,-2.502,-1.325,,,,
2025-10-17T16:46:24.791203+00:00,10.904,11.819,,1.699,-2.701,,,,
2025-10-17T16:46:25.394429+00:00,10.902,11.970,,5.588,-3.829,,,,
2025-10-17T16:46:26.001208+00:00,10.901,11.421,,8.509,-4.615,,,,
2025-10-17T16:46:26.612075+00:00,10.900,10.356,,9.921,-4.980,,,,
2025-10-17T16:46:27.220604+00:00,10.900,9.168,,9.552,-4.885,,,,
2025-10-17T16:46:27.843019+00:00,10.901,8.263,,7.410,-4.324,,,,
2025-10-17T16:46:28.450673+00:00,10.903,8.008,,3.979,-3.376,,,,
2025-10-17T16:46:29.062505+00:00,10.905,8.471,,-0.191,-2.108,,,,
2025-10-17T16:46:29.665470+00:00,10.908,9.472,,-4.270,-0.667,,,,
2025-10-17T16:46:30.270912+00:00,10.912,10.663,,-7.611,0.841,,,,
2025-10-17T16:46:30.884157+00:00,10.917,11.628,,-9.620,2.290,,,,
2025-10-17T16:46:31.494044+00:00,10.922,12.000,,-9.887,3.518,,,,
2025-10-17T16:46:32.603751+00:00,10.933,10.907,,-6.001,4.862,,,,
2025-10-17T16:46:33.213207+00:00,10.940,9.723,,-2.153,4.988,,,,
2025-10-17T16:46:33.816251+00:00,10.947,8.649,,2.037,4.660,,,,
2025-10-17T16:46:34.421774+00:00,10.955,8.050,,5.883,3.908,,,,
2025-10-17T16:46:35.029630+00:00,10.964,8.146,,8.696,2.795,,,,
2025-10-17T16:46:35.643276+00:00,10.973,8.916,,9.962,1.412,,,,
2025-10-17T16:46:36.251609+00:00,10.983,10.071,,9.431,-0.089,,,,
2025-10-17T16:46:36.860148+00:00,10.993,11.201,,7.214,-1.583,,,,
2025-10-17T16:46:37.463362+00:00,11.003,11.896,,3.742,-2.920,,,,
2025-10-17T16:46:38.071718+00:00,11.014,11.919,,-0.423,-4.002,,,,
2025-10-17T16:46:38.678543+00:00,11.025,11.256,,-4.503,-4.715,,,,
2025-10-17T16:46:39.289434+00:00,11.037,10.136,,-7.800,-4.997,,,,
2025-10-17T16:46:39.897676+00:00,11.049,8.972,,-9.688,-4.819,,,,
2025-10-17T16:46:40.505942+00:00,11.060,8.176,,-9.846,-4.198,,,,
2025-10-17T16:46:41.111009+00:00,11.072,8.033,,-8.259,-3.199,,,,
2025-10-17T16:46:41.728810+00:00,11.085,8.607,,-5.135,-1.879,,,,
2025-10-17T16:46:42.335122+00:00,11.097,9.673,,-1.146,-0.410,,,,
2025-10-17T16:46:42.948524+00:00,11.109,10.869,,3.093,1.114,,,,
2025-10-17T16:46:43.552019+00:00,11.121,11.738,,6.720,2.512,,,,
2025-10-17T16:46:44.161881+00:00,11.133,11.992,,9.183,3.694,,,,
2025-10-17T16:46:44.769877+00:00,11.145,11.530,,9.998,4.533,,,,
2025-10-17T16:46:45.379217+00:00,11.157,10.517,,9.025,4.957,,,,
2025-10-17T16:46:46.484591+00:00,11.178,8.506,,3.446,4.562,,,,
2025-10-17T16:46:47.094232+00:00,11.189,8.014,,-0.748,3.737,,,,
2025-10-17T16:46:47.702198+00:00,11.199,8.236,,-4.798,2.571,,,,
2025-10-17T16:46:48.315141+00:00,11.210,9.099,,-8.013,1.158,,,,
2025-10-17T16:46:48.920686+00:00,11.220,10.276,,-9.765,-0.345,,,,
2025-10-17T16:46:49.525935+00:00,11.229,11.354,,-9.788,-1.816,,,,
2025-10-17T16:46:50.129017+00:00,11.238,11.950,,-8.089,-3.118,,,,
2025-10-17T16:46:50.739768+00:00,11.247,11.852,,-4.924,-4.149,,,,
2025-10-17T16:46:51.349163+00:00,11.255,11.087,,-0.881,-4.795,,,,
2025-10-17T16:46:51.960692+00:00,11.262,9.927,,3.333,-4.999,,,,
2025-10-17T16:46:52.563441+00:00,11.269,8.807,,6.902,-4.747,,,,
2025-10-17T16:46:53.172763+00:00,11.275,8.103,,9.277,-4.057,,,,
2025-10-17T16:46:53.776231+00:00,11.281,8.079,,9.992,-3.005,,,,
2025-10-17T16:46:54.386829+00:00,11.286,8.744,,8.928,-1.665,,,,
2025-10-17T16:46:54.994774+00:00,11.290,9.858,,6.272,-0.177,,,,
2025-10-17T16:46:55.602425+00:00,11.293,11.023,,2.499,1.326,,,,
2025-10-17T16:46:56.212322+00:00,11.296,11.823,,-1.735,2.712,,,,
2025-10-17T16:46:56.823307+00:00,11.298,11.965,,-5.663,3.850,,,,
2025-10-17T16:46:57.426839+00:00,11.299,11.407,,-8.545,4.624,,,,
2025-10-17T16:46:58.033860+00:00,11.300,10.345,,-9.926,4.981,,,,
2025-10-17T16:46:58.640487+00:00,11.300,9.160,,-9.544,4.883,,,,
2025-10-17T16:46:59.250815+00:00,11.299,8.272,,-7.448,4.335,,,,
2025-10-17T16:46:59.859871+00:00,11.297,8.007,,-4.022,3.388,,,,
2025-10-17T16:47:00.471591+00:00,11.295,8.462,,0.143,2.123,,,,
2025-10-17T16:47:01.074203+00:00,11.292,9.458,,4.224,0.684,,,,
2025-10-17T16:47:01.680528+00:00,11.288,10.651,,7.582,-0.826,,,,
2025-10-17T16:47:02.287908+00:00,11.284,11.614,,9.596,-2.262,,,,
2025-10-17T16:47:02.903989+00:00,11.278,12.000,,9.893,-3.508,,,,
2025-10-17T16:47:03.517713+00:00,11.272,11.653,,8.388,-4.420,,,,
2025-10-17T16:47:04.125613+00:00,11.266,10.713,,5.392,-4.917,,,,
2025-10-17T16:47:04.730777+00:00,11.259,9.524,,1.454,-4.964,,,,
2025-10-17T16:47:05.338210+00:00,11.251,8.500,,-2.757,-4.557,,,,
2025-10-17T16:47:05.943726+00:00,11.243,8.014,,-6.466,-3.737,,,,
2025-10-17T16:47:06.554961+00:00,11.234,8.239,,-9.049,-2.564,,,,
2025-10-17T16:47:07.158235+00:00,11.225,9.088,,-9.998,-1.173,,,,
2025-10-17T16:47:08.269908+00:00,11.207,11.191,,-7.244,1.568,,,,
2025-10-17T16:47:08.877774+00:00,11.197,11.895,,-3.752,2.917,,,,
2025-10-17T16:47:09.480760+00:00,11.186,11.923,,0.375,3.991,,,,
2025-10-17T16:47:10.083953+00:00,11.175,11.273,,4.437,4.706,,,,
2025-10-17T16:47:10.697758+00:00,11.163,10.151,,7.767,4.996,,,,
2025-10-17T16:47:11.308643+00:00,11.152,8.980,,9.680,4.822,,,,
2025-10-17T16:47:11.917401+00:00,11.140,8.180,,9.852,4.204,,,,
2025-10-17T16:47:12.522804+00:00,11.128,8.032,,8.275,3.206,,,,
2025-10-17T16:47:13.133176+00:00,11.116,8.591,,5.205,1.906,,,,
2025-10-17T16:47:13.739218+00:00,11.104,9.650,,1.229,0.439,,,,
2025-10-17T16:47:14.345487+00:00,11.091,10.834,,-2.967,-1.068,,,,
2025-10-17T16:47:14.955939+00:00,11.079,11.726,,-6.658,-2.486,,,,
2025-10-17T16:47:15.568956+00:00,11.067,11.993,,-9.159,-3.679,,,,
2025-10-17T16:47:16.175334+00:00,11.055,11.543,,-9.999,-4.522,,,,
2025-10-17T16:47:16.781485+00:00,11.043,10.544,,-9.066,-4.953,,,,
2025-10-17T16:47:17.383942+00:00,11.032,9.357,,-6.544,-4.933,,,,
2025-10-17T16:47:17.994768+00:00,11.021,8.387,,-2.820,-4.460,,,,
2025-10-17T16:47:18.606293+00:00,11.010,8.000,,1.417,-3.573,,,,
2025-10-17T16:47:19.210795+00:00,10.999,8.331,,5.357,-2.370,,,,
2025-10-17T16:47:19.819062+00:00,10.989,9.259,,8.366,-0.943,,,,
2025-10-17T16:47:20.428728+00:00,10.979,10.457,,9.883,0.575,,,,
2025-10-17T16:47:21.034120+00:00,10.969,11.484,,9.635,2.029,,,,
2025-10-17T16:47:21.638324+00:00,10.960,11.983,,7.688,3.297,,,,
2025-10-17T16:47:22.244705+00:00,10.952,11.778,,4.372,4.269,,,,
2025-10-17T16:47:22.858256+00:00,10.944,10.927,,0.230,4.856,,,,
2025-10-17T16:47:23.471177+00:00,10.937,9.738,,-3.950,4.989,,,,
2025-10-17T16:47:24.082708+00:00,10.930,8.647,,-7.407,4.659,,,,
2025-10-17T16:47:24.685474+00:00,10.924,8.051,,-9.509,3.911,,,,
2025-10-17T16:47:25.316760+00:00,10.918,8.163,,-9.919,2.750,,,,
2025-10-17T16:47:25.925725+00:00,10.914,8.945,,-8.507,1.372,,,,
2025-10-17T16:47:26.534332+00:00,10.909,10.106,,-5.575,-0.132,,,,
2025-10-17T16:47:27.144105+00:00,10.906,11.230,,-1.638,-1.626,,,,
2025-10-17T16:47:27.751298+00:00,10.903,11.910,,2.576,-2.965,,,,
2025-10-17T16:47:28.359762+00:00,10.902,11.906,,6.338,-4.035,,,,
2025-10-17T16:47:28.962490+00:00,10.900,11.227,,8.950,-4.730,,,,
2025-10-17T16:47:29.568828+00:00,10.900,10.109,,9.993,-4.998,,,,
2025-10-17T16:47:30.181247+00:00,10.900,8.941,,9.246,-4.807,,,,
2025-10-17T16:47:30.790521+00:00,10.901,8.161,,6.843,-4.172,,,,
2025-10-17T16:47:31.399023+00:00,10.903,8.042,,3.219,-3.155,,,,
2025-10-17T16:47:32.003917+00:00,10.906,8.621,,-0.956,-1.856,,,,
2025-10-17T16:47:32.611465+00:00,10.909,9.695,,-4.977,-0.383,,,,
2025-10-17T16:47:33.217329+00:00,10.913,10.875,,-8.106,1.122,,,,
2025-10-17T16:47:33.823553+00:00,10.917,11.744,,-9.798,2.525,,,,
2025-10-17T16:47:34.432830+00:00,10.923,11.991,,-9.748,3.703,,,,
2025-10-17T16:47:35.046797+00:00,10.929,11.515,,-7.931,4.545,,,,
2025-10-17T16:47:35.654610+00:00,10.935,10.498,,-4.709,4.960,,,,
2025-10-17T16:47:36.259140+00:00,10.942,9.309,,-0.671,4.922,,,,
2025-10-17T16:47:36.861664+00:00,10.950,8.367,,3.472,4.440,,,,
2025-10-17T16:47:37.472129+00:00,10.959,8.000,,7.046,3.544,,,,
2025-10-17T16:47:38.084067+00:00,10.967,8.357,,9.357,2.317,,,,
2025-10-17T16:47:38.692094+00:00,10.977,9.303,,9.979,0.885,,,,
2025-10-17T16:47:39.301209+00:00,10.987,10.501,,8.816,-0.632,,,,
2025-10-17T16:47:39.910926+00:00,10.997,11.520,,6.072,-2.091,,,,
2025-10-17T16:47:40.517807+00:00,11.007,11.990,,2.257,-3.353,,,,
2025-10-17T16:47:41.124066+00:00,11.018,11.750,,-1.954,-4.307,,,,
2025-10-17T16:47:41.731487+00:00,11.030,10.884,,-5.826,-4.869,,,,
2025-10-17T16:47:42.340601+00:00,11.041,9.699,,-8.665,-4.986,,,,
2025-10-17T16:47:42.952692+00:00,11.053,8.618,,-9.956,-4.640,,,,
2025-10-17T16:47:44.059911+00:00,11.075,8.089,,-7.770,-2.968,,,,
2025-10-17T16:47:44.666338+00:00,11.087,8.766,,-4.487,-1.631,,,,
2025-10-17T16:47:45.270957+00:00,11.099,9.880,,-0.421,-0.150,,,,
2025-10-17T16:47:45.878935+00:00,11.111,11.042,,3.742,1.353,,,,
2025-10-17T16:47:46.485085+00:00,11.123,11.829,,7.228,2.728,,,,
2025-10-17T16:47:47.091700+00:00,11.135,11.964,,9.433,3.855,,,,
2025-10-17T16:47:47.695435+00:00,11.147,11.403,,9.965,4.627,,,,
2025-10-17T16:47:48.299686+00:00,11.159,10.344,,8.741,4.981,,,,
2025-10-17T16:47:48.904505+00:00,11.170,9.163,,5.974,4.884,,,,
2025-10-17T16:47:49.517263+00:00,11.181,8.271,,2.097,4.333,,,,
2025-10-17T16:47:50.120548+00:00,11.192,8.006,,-2.095,3.397,,,,
2025-10-17T16:47:50.732399+00:00,11.203,8.456,,-5.966,2.134,,,,
2025-10-17T16:47:51.338246+00:00,11.213,9.455,,-8.740,0.688,,,,
2025-10-17T16:47:51.945894+00:00,11.223,10.651,,-9.966,-0.825,,,,
2025-10-17T16:47:52.549455+00:00,11.232,11.609,,-9.426,-2.254,,,,
2025-10-17T16:47:53.158510+00:00,11.241,11.999,,-7.201,-3.488,,,,
2025-10-17T16:47:53.766488+00:00,11.249,11.671,,-3.694,-4.401,,,,
2025-10-17T16:47:54.380910+00:00,11.257,10.732,,0.517,-4.912,,,,
2025-10-17T16:47:54.986358+00:00,11.264,9.543,,4.578,-4.967,,,,
2025-10-17T16:47:55.592052+00:00,11.271,8.516,,7.830,-4.569,,,,
2025-10-17T16:47:56.195015+00:00,11.277,8.017,,9.691,-3.760,,,,
2025-10-17T16:47:56.806419+00:00,11.282,8.226,,9.841,-2.594,,,,
2025-10-17T16:47:57.414646+00:00,11.287,9.071,,8.228,-1.195,,,,
2025-10-17T16:47:58.025820+00:00,11.291,10.256,,5.128,0.321,,,,
2025-10-17T16:47:58.628923+00:00,11.294,11.336,,1.160,1.788,,,,
2025-10-17T16:47:59.239699+00:00,11.297,11.948,,-3.062,3.109,,,,
2025-10-17T16:47:59.843377+00:00,11.299,11.861,,-6.697,4.133,,,,
2025-10-17T16:48:00.453021+00:00,11.300,11.106,,-9.170,4.787,,,,
2025-10-17T16:48:01.061489+00:00,11.300,9.955,,-9.999,5.000,,,,
2025-10-17T16:48:01.670052+00:00,11.300,8.820,,-9.040,4.753,,,,
2025-10-17T16:48:02.278329+00:00,11.298,8.109,,-6.468,4.070,,,,
2025-10-17T16:48:02.888750+00:00,11.297,8.077,,-2.725,3.010,,,,
2025-10-17T16:48:03.491442+00:00,11.294,8.728,,1.453,1.689,,,,
2025-10-17T16:48:04.098674+00:00,11.291,9.836,,5.404,0.205,,,,
2025-10-17T16:48:04.705280+00:00,11.287,11.002,,8.391,-1.297,,,,
2025-10-17T16:48:05.319947+00:00,11.282,11.817,,9.895,-2.697,,,,
2025-10-17T16:48:05.928559+00:00,11.277,11.969,,9.608,-3.834,,,,
2025-10-17T16:48:06.541321+00:00,11.270,11.408,,7.584,-4.624,,,,
2025-10-17T16:48:07.144371+00:00,11.264,10.354,,4.247,-4.980,,,,
2025-10-17T16:48:07.750232+00:00,11.257,9.170,,0.146,-4.886,,,,
2025-10-17T16:48:08.356167+00:00,11.249,8.281,,-3.982,-4.347,,,,
2025-10-17T16:48:08.968275+00:00,11.240,8.006,,-7.433,-3.400,,,,
2025-10-17T16:48:09.576772+00:00,11.231,8.450,,-9.533,-2.146,,,,
2025-10-17T16:48:10.182607+00:00,11.222,9.445,,-9.931,-0.701,,,,
2025-10-17T16:48:10.788954+00:00,11.212,10.639,,-8.568,0.809,,,,
2025-10-17T16:48:11.395892+00:00,11.202,11.606,,-5.681,2.247,,,,
2025-10-17T16:48:12.002205+00:00,11.191,11.999,,-1.788,3.478,,,,
2025-10-17T16:48:12.616282+00:00,11.180,11.671,,2.475,4.401,,,,
2025-10-17T16:48:13.218999+00:00,11.169,10.754,,6.225,4.907,,,,
2025-10-17T16:48:13.831703+00:00,11.157,9.551,,8.916,4.968,,,,
2025-10-17T16:48:14.437191+00:00,11.146,8.522,,9.989,4.574,,,,
2025-10-17T16:48:15.052767+00:00,11.134,8.015,,9.269,3.747,,,,
2025-10-17T16:48:15.656541+00:00,11.122,8.226,,6.913,2.593,,,,
2025-10-17T16:48:16.267056+00:00,11.110,9.077,,3.297,1.188,,,,
2025-10-17T16:48:16.877321+00:00,11.097,10.260,,-0.911,-0.326,,,,
2025-10-17T16:48:17.486759+00:00,11.085,11.348,,-4.950,-1.807,,,,
2025-10-17T16:48:18.092593+00:00,11.073,11.949,,-8.087,-3.116,,,,
2025-10-17T16:48:18.701180+00:00,11.061,11.855,,-9.795,-4.144,,,,
2025-10-17T16:48:19.303883+00:00,11.049,11.104,,-9.761,-4.788,,,,
2025-10-17T16:48:20.412083+00:00,11.028,9.000,,-5.447,-4.830,,,,
2025-10-17T16:48:21.018284+00:00,11.017,8.191,,-1.511,-4.223,,,,
2025-10-17T16:48:21.627881+00:00,11.006,8.028,,2.716,-3.226,,,,
2025-10-17T16:48:22.232216+00:00,10.996,8.568,,6.427,-1.942,,,,
2025-10-17T16:48:22.836080+00:00,10.986,9.614,,9.004,-0.485,,,,
2025-10-17T16:48:23.438205+00:00,10.976,10.794,,9.996,1.013,,,,
2025-10-17T16:48:24.048095+00:00,10.967,11.702,,9.217,2.436,,,,
2025-10-17T16:48:24.656140+00:00,10.958,11.997,,6.793,3.632,,,,
2025-10-17T16:48:25.258776+00:00,10.950,11.583,,3.193,4.488,,,,
2025-10-17T16:48:25.867464+00:00,10.942,10.599,,-1.009,4.942,,,,
2025-10-17T16:48:26.478244+00:00,10.935,9.397,,-5.044,4.941,,,,
2025-10-17T16:48:27.083948+00:00,10.928,8.418,,-8.150,4.489,,,,
2025-10-17T16:48:27.687612+00:00,10.922,8.003,,-9.809,3.631,,,,
2025-10-17T16:48:28.293543+00:00,10.917,8.296,,-9.740,2.441,,,,
2025-10-17T16:48:28.909285+00:00,10.912,9.214,,-7.902,1.003,,,,
2025-10-17T16:48:29.520666+00:00,10.909,10.412,,-4.646,-0.517,,,,
2025-10-17T16:48:30.125583+00:00,10.905,11.452,,-0.597,-1.975,,,,
2025-10-17T16:48:30.728884+00:00,10.903,11.976,,3.546,-3.251,,,,
2025-10-17T16:48:31.335719+00:00,10.901,11.800,,7.085,-4.237,,,,
2025-10-17T16:48:31.947561+00:00,10.900,10.972,,9.376,-4.840,,,,
2025-10-17T16:48:32.550689+00:00,10.900,9.809,,9.978,-4.994,,,,
2025-10-17T16:48:33.153525+00:00,10.900,8.714,,8.828,-4.698,,,,
2025-10-17T16:48:33.760955+00:00,10.902,8.070,,6.104,-3.971,,,,
2025-10-17T16:48:34.372033+00:00,10.904,8.119,,2.269,-2.874,,,,
2025-10-17T16:48:34.980324+00:00,10.906,8.844,,-1.957,-1.516,,,,
2025-10-17T16:48:35.584320+00:00,10.910,9.975,,-5.808,-0.031,,,,
2025-10-17T16:48:36.193471+00:00,10.914,11.124,,-8.655,1.470,,,,
2025-10-17T16:48:36.799883+00:00,10.919,11.866,,-9.950,2.830,,,,
2025-10-17T16:48:37.406889+00:00,10.924,11.943,,-9.477,3.933,,,,
2025-10-17T16:48:38.046945+00:00,10.930,11.275,,-7.160,4.704,,,,
