ts_iso,batt_v,airspeed_ms,groundspeed_ms,roll_deg,pitch_deg,yaw_deg,lat,lon,alt_m
2025-10-13T13:49:27.400138+00:00,,,,,,,,,
2025-10-13T13:49:27.559227+00:00,11.168,9.343,9.479,6.506,4.930,69.522,56.162876,10.203947,60.22
2025-10-13T13:49:27.761416+00:00,11.172,8.977,9.446,5.369,4.821,73.566,56.162863,10.203870,58.60
2025-10-13T13:49:27.963456+00:00,11.176,8.653,9.399,4.126,4.663,77.607,56.162857,10.203913,60.69
2025-10-13T13:49:28.164623+00:00,11.179,8.385,9.337,2.807,4.458,81.630,56.162874,10.203933,57.53
2025-10-13T13:49:28.365633+00:00,11.183,8.182,9.262,1.433,4.208,85.651,56.162882,10.203934,62.48
2025-10-13T13:49:28.844617+00:00,11.192,8.002,9.034,-1.903,3.448,95.230,56.162914,10.203892,60.87
2025-10-13T13:49:28.997508+00:00,11.194,8.041,8.948,-2.941,3.161,98.288,56.162914,10.203892,60.87
2025-10-13T13:49:29.199508+00:00,11.198,8.161,8.826,-4.258,2.754,102.328,56.162939,10.203879,61.32
2025-10-13T13:49:29.401588+00:00,11.201,8.356,8.696,-5.491,2.319,106.370,56.162853,10.203883,57.93
2025-10-13T13:49:29.603401+00:00,11.205,8.618,8.558,-6.613,1.861,110.406,56.162893,10.203947,58.28
2025-10-13T13:49:29.805199+00:00,11.208,8.936,8.415,-7.604,1.384,114.442,56.162930,10.203859,57.63
2025-10-13T13:49:30.007491+00:00,11.212,9.298,8.268,-8.444,0.892,118.487,56.162863,10.203916,59.51
2025-10-13T13:49:30.210016+00:00,11.215,9.689,8.117,-9.116,0.390,122.538,56.162917,10.203935,58.75
2025-10-13T13:49:30.413966+00:00,11.218,10.095,7.964,-9.608,-0.119,126.617,56.162885,10.203909,59.94
2025-10-13T13:49:30.617204+00:00,11.222,10.497,7.812,-9.904,-0.626,130.682,56.162924,10.203882,58.01
2025-10-13T13:49:30.819360+00:00,11.225,10.875,7.663,-10.000,-1.123,134.725,56.162907,10.203920,62.03
2025-10-13T13:49:31.021596+00:00,11.228,11.219,7.517,-9.896,-1.609,138.769,56.162861,10.203924,61.12
2025-10-13T13:49:31.223648+00:00,11.231,11.512,7.376,-9.594,-2.078,142.811,56.162886,10.203917,57.68
2025-10-13T13:49:31.428580+00:00,11.234,11.747,7.240,-9.092,-2.533,146.909,56.162922,10.203895,58.92
2025-10-13T13:49:31.632544+00:00,11.237,11.908,7.113,-8.407,-2.958,150.988,56.162948,10.203878,57.93
2025-10-13T13:49:31.833690+00:00,11.240,11.989,6.996,-7.564,-3.348,155.012,56.162949,10.203931,60.97
2025-10-13T13:49:32.035319+00:00,11.243,11.990,6.889,-6.569,-3.705,159.044,56.162942,10.203876,58.00
2025-10-13T13:49:32.237678+00:00,11.246,11.910,6.792,-5.438,-4.025,163.091,56.162924,10.203855,61.87
2025-10-13T13:49:32.441452+00:00,11.248,11.751,6.708,-4.190,-4.306,167.167,56.162851,10.203902,60.72
2025-10-13T13:49:32.644368+00:00,11.251,11.520,6.638,-2.862,-4.541,171.225,56.162869,10.203883,58.03
2025-10-13T13:49:32.846932+00:00,11.254,11.228,6.581,-1.480,-4.729,175.276,56.162860,10.203884,57.82
2025-10-13T13:49:33.049021+00:00,11.256,10.886,6.539,-0.071,-4.869,179.318,56.162948,10.203872,58.19
2025-10-13T13:49:33.251079+00:00,11.259,10.508,6.512,1.340,-4.959,183.359,56.162918,10.203940,61.51
2025-10-13T13:49:33.453613+00:00,11.261,10.108,6.501,2.727,-4.998,187.410,56.162911,10.203887,59.91
2025-10-13T13:49:33.656383+00:00,11.264,9.704,6.504,4.060,-4.986,191.466,56.162857,10.203855,60.57
2025-10-13T13:49:33.859217+00:00,11.266,9.312,6.523,5.313,-4.923,195.522,56.162923,10.203902,57.67
2025-10-13T13:49:34.062263+00:00,11.268,8.947,6.557,6.459,-4.809,199.583,56.162919,10.203869,59.95
2025-10-13T13:49:34.264392+00:00,11.270,8.627,6.606,7.471,-4.647,203.626,56.162935,10.203920,61.09
2025-10-13T13:49:34.467437+00:00,11.272,8.362,6.669,8.337,-4.436,207.686,56.162933,10.203899,60.50
2025-10-13T13:49:34.670162+00:00,11.274,8.165,6.746,9.034,-4.179,211.741,56.162874,10.203907,61.64
2025-10-13T13:49:34.872824+00:00,11.276,8.042,6.836,9.550,-3.880,215.794,56.162929,10.203941,61.43
2025-10-13T13:49:35.025695+00:00,11.278,8.003,6.912,9.812,-3.628,218.851,56.162920,10.203861,58.22
2025-10-13T13:49:35.228907+00:00,11.280,8.023,7.022,9.987,-3.260,222.916,56.162905,10.203936,60.83
2025-10-13T13:49:35.431659+00:00,11.281,8.123,7.142,9.960,-2.860,226.971,56.162926,10.203892,61.33
2025-10-13T13:49:35.633917+00:00,11.283,8.300,7.271,9.733,-2.431,231.016,56.162864,10.203944,58.04
2025-10-13T13:49:35.836039+00:00,11.285,8.547,7.407,9.312,-1.978,235.058,56.162870,10.203894,58.92
2025-10-13T13:49:36.038010+00:00,11.286,8.852,7.549,8.706,-1.505,239.098,56.162905,10.203950,60.80
2025-10-13T13:49:36.241678+00:00,11.288,9.207,7.696,7.918,-1.012,243.171,56.162882,10.203914,62.15
2025-10-13T13:49:36.445323+00:00,11.289,9.595,7.847,6.970,-0.509,247.244,56.162926,10.203918,58.54
2025-10-13T13:49:36.647184+00:00,11.290,9.995,7.998,5.891,-0.006,251.282,56.162927,10.203902,58.58
2025-10-13T13:49:51.788682+00:00,11.173,11.077,9.440,5.178,4.799,194.111,56.162884,10.203857,61.96
2025-10-13T13:49:51.990560+00:00,11.169,10.717,9.475,6.332,4.916,198.149,56.162867,10.203946,58.61
2025-10-13T13:49:52.192583+00:00,11.165,10.328,9.495,7.360,4.983,202.190,56.162932,10.203943,59.25
2025-10-13T13:49:52.396088+00:00,11.161,9.923,9.500,8.246,4.999,206.259,56.162938,10.203870,59.83
2025-10-13T13:49:52.599929+00:00,11.157,9.520,9.489,8.967,4.963,210.336,56.162857,10.203881,58.23
2025-10-13T13:49:52.803154+00:00,11.153,9.138,9.463,9.504,4.876,214.401,56.162867,10.203946,60.22
2025-10-13T13:49:53.004991+00:00,11.149,8.794,9.422,9.847,4.740,218.438,56.162873,10.203917,58.23
2025-10-13T13:49:53.206867+00:00,11.145,8.498,9.367,9.994,4.556,222.475,56.162924,10.203946,61.11
2025-10-13T13:49:53.409992+00:00,11.141,8.263,9.297,9.941,4.323,226.537,56.162933,10.203870,61.46
2025-10-13T13:49:53.612864+00:00,11.138,8.099,9.214,9.688,4.047,230.595,56.162920,10.203870,58.55
2025-10-13T13:49:53.816053+00:00,11.134,8.013,9.118,9.239,3.728,234.659,56.162887,10.203941,61.91
2025-10-13T13:49:54.018371+00:00,11.130,8.008,9.012,8.606,3.373,238.705,56.162886,10.203922,60.00
2025-10-13T13:49:54.222713+00:00,11.125,8.086,8.894,7.792,2.979,242.792,56.162930,10.203917,61.37
2025-10-13T13:49:54.425987+00:00,11.121,8.243,8.767,6.825,2.556,246.857,56.162897,10.203872,58.74
2025-10-13T13:49:54.628012+00:00,11.117,8.470,8.633,5.726,2.109,250.898,56.162890,10.203889,61.26
2025-10-13T13:49:54.831763+00:00,11.113,8.762,8.491,4.503,1.637,254.973,56.162900,10.203945,61.19
2025-10-13T13:49:55.034454+00:00,11.109,9.104,8.345,3.195,1.151,259.027,56.162860,10.203909,58.22
2025-10-13T13:49:55.237225+00:00,11.105,9.482,8.196,1.823,0.653,263.082,56.162862,10.203852,62.23
2025-10-13T13:49:55.439998+00:00,11.101,9.882,8.044,0.413,0.148,267.138,56.162926,10.203914,59.77
2025-10-13T13:49:55.592240+00:00,11.098,10.186,7.930,-0.652,-0.233,270.182,56.162902,10.203893,58.08
2025-10-13T13:49:55.795304+00:00,11.094,10.584,7.779,-2.059,-0.738,274.244,56.162897,10.203912,60.29
2025-10-13T13:49:55.999426+00:00,11.090,10.960,7.629,-3.431,-1.238,278.326,56.162909,10.203919,60.12
2025-10-13T13:49:56.201964+00:00,11.086,11.293,7.484,-4.724,-1.721,282.377,56.162940,10.203915,58.48
2025-10-13T13:49:56.404429+00:00,11.082,11.573,7.344,-5.922,-2.187,286.426,56.162920,10.203905,60.28
2025-10-13T13:49:56.608207+00:00,11.078,11.791,7.210,-7.007,-2.633,290.502,56.162929,10.203931,62.25
2025-10-13T13:49:56.812583+00:00,11.074,11.934,7.084,-7.953,-3.053,294.589,56.162908,10.203945,62.13
2025-10-13T13:49:57.015208+00:00,11.070,11.997,6.969,-8.730,-3.438,298.642,56.162874,10.203930,60.64
2025-10-13T13:49:57.217988+00:00,11.066,11.978,6.864,-9.332,-3.787,302.697,56.162924,10.203946,60.94
2025-10-13T13:49:57.422530+00:00,11.062,11.877,6.770,-9.749,-4.101,306.788,56.162877,10.203932,60.84
2025-10-13T13:49:57.625516+00:00,11.058,11.699,6.689,-9.966,-4.370,310.848,56.162949,10.203868,61.04
2025-10-13T13:49:57.828396+00:00,11.054,11.452,6.622,-9.982,-4.593,314.906,56.162916,10.203867,59.24
2025-10-13T13:49:58.031158+00:00,11.050,11.145,6.569,-9.797,-4.770,318.961,56.162865,10.203878,62.09
2025-10-13T13:49:58.234226+00:00,11.046,10.791,6.531,-9.415,-4.897,323.022,56.162915,10.203890,60.63
2025-10-13T13:49:58.437269+00:00,11.042,10.404,6.508,-8.842,-4.974,327.083,56.162851,10.203859,62.02
2025-10-13T13:49:58.639303+00:00,11.038,10.003,6.500,-8.096,-5.000,331.124,56.162885,10.203892,58.27
2025-10-13T13:49:58.842510+00:00,11.034,9.599,6.508,-7.182,-4.975,335.188,56.162944,10.203884,60.41
2025-10-13T13:49:59.045274+00:00,11.031,9.213,6.531,-6.125,-4.898,339.243,56.162856,10.203934,62.16
2025-10-13T13:49:59.248024+00:00,11.027,8.859,6.569,-4.945,-4.771,343.298,56.162879,10.203883,58.04
2025-10-13T13:49:59.453994+00:00,11.023,8.547,6.622,-3.645,-4.592,347.417,56.162891,10.203945,61.18
2025-10-13T13:49:59.658230+00:00,11.019,8.298,6.690,-2.282,-4.367,351.502,56.162932,10.203874,59.77
2025-10-13T13:49:59.860104+00:00,11.016,8.122,6.770,-0.887,-4.099,355.540,56.162941,10.203927,60.41
2025-10-13T13:50:00.063274+00:00,11.012,8.022,6.864,0.533,-3.788,359.603,56.162859,10.203872,60.17
2025-10-13T13:50:00.266101+00:00,11.008,8.003,6.969,1.941,-3.438,3.660,56.162895,10.203941,60.03
2025-10-13T13:50:00.469012+00:00,11.005,8.066,7.084,3.310,-3.052,7.718,56.162921,10.203940,59.94
2025-10-13T13:50:00.625319+00:00,11.002,8.169,7.180,4.321,-2.734,10.844,56.162934,10.203862,62.02
2025-10-13T13:50:00.828594+00:00,10.998,8.369,7.312,5.556,-2.295,14.909,56.162914,10.203904,59.96
2025-10-13T13:50:01.030522+00:00,10.995,8.634,7.449,6.672,-1.835,18.948,56.162853,10.203852,59.72
2025-10-13T13:50:01.232745+00:00,10.992,8.955,7.593,7.656,-1.357,22.992,56.162927,10.203905,59.84
2025-10-13T13:50:01.435423+00:00,10.988,9.320,7.741,8.489,-0.863,27.046,56.162851,10.203934,59.69
2025-10-13T13:50:01.638845+00:00,10.985,9.714,7.893,9.153,-0.358,31.114,56.162922,10.203855,58.76
2025-10-13T13:50:01.843148+00:00,10.981,10.122,8.046,9.634,0.152,35.201,56.162883,10.203906,58.63
2025-10-13T13:50:02.049074+00:00,10.978,10.527,8.200,9.919,0.665,39.319,56.162871,10.203852,58.49
2025-10-13T13:50:02.251025+00:00,10.975,10.904,8.348,9.999,1.161,43.358,56.162889,10.203944,57.82
2025-10-13T13:50:02.453190+00:00,10.972,11.243,8.494,9.879,1.646,47.401,56.162924,10.203926,61.35
2025-10-13T13:50:02.655861+00:00,10.969,11.533,8.635,9.561,2.115,51.455,56.162912,10.203915,61.38
2025-10-13T13:50:02.858864+00:00,10.966,11.761,8.769,9.050,2.563,55.515,56.162860,10.203899,60.62
2025-10-13T13:50:03.062234+00:00,10.963,11.916,8.896,8.355,2.986,59.582,56.162946,10.203867,60.39
2025-10-13T13:50:03.264642+00:00,10.960,11.992,9.013,7.495,3.376,63.631,56.162878,10.203879,61.25
2025-10-13T13:50:03.466299+00:00,10.957,11.987,9.119,6.489,3.730,67.664,56.162895,10.203913,60.75
2025-10-13T13:50:03.668106+00:00,10.954,11.902,9.214,5.353,4.046,71.700,56.162886,10.203856,58.91
2025-10-13T13:50:03.869941+00:00,10.951,11.739,9.297,4.110,4.322,75.737,56.162886,10.203922,61.46
2025-10-13T13:50:04.072044+00:00,10.949,11.505,9.366,2.783,4.553,79.779,56.162898,10.203879,58.04
2025-10-13T13:50:04.274328+00:00,10.946,11.210,9.422,1.400,4.739,83.824,56.162863,10.203859,60.44
2025-10-13T13:50:04.476093+00:00,10.944,10.866,9.463,-0.008,4.875,87.860,56.162879,10.203891,58.56
2025-10-13T13:50:04.677959+00:00,10.941,10.487,9.489,-1.416,4.962,91.897,56.162932,10.203936,59.09
2025-10-13T13:50:04.879898+00:00,10.939,10.088,9.500,-2.796,4.999,95.936,56.162890,10.203928,58.95
2025-10-13T13:50:05.082756+00:00,10.936,9.683,9.495,-4.127,4.984,99.993,56.162928,10.203900,61.98
2025-10-13T13:50:05.284537+00:00,10.934,9.294,9.476,-5.368,4.919,104.029,56.162941,10.203928,62.13
2025-10-13T13:50:05.486041+00:00,10.932,8.934,9.441,-6.501,4.804,108.058,56.162907,10.203861,62.41
2025-10-13T13:50:05.688221+00:00,10.930,8.616,9.392,-7.508,4.639,112.102,56.162905,10.203935,58.96
2025-10-13T13:50:05.891835+00:00,10.928,8.352,9.328,-8.370,4.426,116.175,56.162851,10.203895,61.86
2025-10-13T13:50:06.093983+00:00,10.926,8.158,9.250,-9.058,4.168,120.218,56.162928,10.203853,60.54
2025-10-13T13:50:06.295874+00:00,10.924,8.039,9.161,-9.565,3.869,124.255,56.162862,10.203853,60.89
2025-10-13T13:50:06.498718+00:00,10.922,8.000,9.058,-9.881,3.528,128.312,56.162883,10.203872,58.82
2025-10-13T13:50:06.701358+00:00,10.920,8.043,8.946,-9.999,3.152,132.365,56.162925,10.203859,62.30
2025-10-13T13:50:06.854060+00:00,10.919,8.128,8.854,-9.955,2.847,135.419,56.162901,10.203871,58.29
2025-10-13T13:50:07.055758+00:00,10.917,8.307,8.725,-9.723,2.418,139.453,56.162941,10.203901,58.32
2025-10-13T13:50:07.257709+00:00,10.915,8.555,8.589,-9.297,1.965,143.492,56.162908,10.203905,59.91
2025-10-13T13:50:07.460152+00:00,10.914,8.862,8.447,-8.684,1.490,147.541,56.162938,10.203893,59.15
2025-10-13T13:50:07.662018+00:00,10.912,9.215,8.300,-7.899,1.002,151.578,56.162942,10.203902,62.42
2025-10-13T13:50:07.865465+00:00,10.911,9.603,8.150,-6.949,0.499,155.647,56.162861,10.203897,57.89
2025-10-13T13:50:08.068421+00:00,10.910,10.006,7.998,-5.861,-0.008,159.706,56.162898,10.203893,60.75
2025-10-13T13:50:08.270259+00:00,10.909,10.407,7.847,-4.661,-0.511,163.743,56.162913,10.203911,62.35
2025-10-13T13:50:08.471859+00:00,10.907,10.791,7.697,-3.371,-1.009,167.775,56.162939,10.203853,57.90
2025-10-13T13:50:08.674705+00:00,10.906,11.145,7.550,-2.004,-1.500,171.832,56.162886,10.203901,58.65
2025-10-13T13:50:08.876863+00:00,10.905,11.451,7.408,-0.603,-1.973,175.875,56.162861,10.203864,60.93
2025-10-13T13:50:09.079866+00:00,10.905,11.698,7.271,0.817,-2.429,179.935,56.162946,10.203865,61.65
2025-10-13T13:50:09.282871+00:00,10.904,11.876,7.142,2.220,-2.859,183.995,56.162894,10.203890,59.16
2025-10-13T13:50:09.484722+00:00,10.903,11.977,7.023,3.571,-3.258,188.032,56.162869,10.203899,60.76
2025-10-13T13:50:09.686638+00:00,10.902,11.997,6.913,4.852,-3.624,192.071,56.162868,10.203936,59.63
2025-10-13T13:50:09.888536+00:00,10.902,11.937,6.814,6.035,-3.952,196.109,56.162904,10.203861,61.06
2025-10-13T13:50:10.091342+00:00,10.901,11.796,6.727,7.102,-4.242,200.164,56.162867,10.203861,61.06
2025-10-13T13:50:10.293937+00:00,10.901,11.583,6.654,8.026,-4.488,204.217,56.162912,10.203870,59.82
2025-10-13T13:50:10.496142+00:00,10.901,11.305,6.594,8.787,-4.687,208.261,56.162931,10.203905,57.69
2025-10-13T13:50:10.698085+00:00,10.900,10.974,6.548,9.372,-4.839,212.300,56.162883,10.203859,62.29
2025-10-13T13:50:10.901022+00:00,10.900,10.602,6.518,9.771,-4.942,216.358,56.162850,10.203915,58.06
2025-10-13T13:50:11.102915+00:00,10.900,10.208,6.502,9.973,-4.993,220.396,56.162859,10.203905,60.07
2025-10-13T13:50:11.304935+00:00,10.900,9.804,6.502,9.977,-4.994,224.436,56.162902,10.203950,62.00
2025-10-13T13:50:11.508418+00:00,10.900,9.406,6.517,9.778,-4.943,228.506,56.162911,10.203936,62.24
2025-10-13T13:50:11.710188+00:00,10.900,9.036,6.547,9.386,-4.843,232.542,56.162940,10.203851,59.10
2025-10-13T13:50:11.914115+00:00,10.900,8.701,6.593,8.800,-4.691,236.620,56.162920,10.203894,60.71
2025-10-13T13:50:12.115919+00:00,10.901,8.422,6.652,8.043,-4.492,240.656,56.162943,10.203944,60.98
2025-10-13T13:50:12.317672+00:00,10.901,8.208,6.725,7.127,-4.249,244.691,56.162944,10.203932,60.94
2025-10-13T13:50:12.521193+00:00,10.902,8.065,6.812,6.059,-3.959,248.762,56.162855,10.203904,60.89
2025-10-13T13:50:12.724007+00:00,10.902,8.003,6.911,4.872,-3.629,252.818,56.162859,10.203856,62.50
2025-10-13T13:50:12.926569+00:00,10.903,8.022,7.021,3.589,-3.263,256.869,56.162885,10.203884,62.16
2025-10-13T13:50:13.128517+00:00,10.904,8.122,7.141,2.238,-2.864,260.908,56.162883,10.203921,59.33
2025-10-13T13:50:13.330472+00:00,10.904,8.298,7.269,0.843,-2.437,264.947,56.162882,10.203891,59.13
2025-10-13T13:50:13.532205+00:00,10.905,8.543,7.405,-0.568,-1.985,268.982,56.162864,10.203920,61.73
2025-10-13T13:50:13.684420+00:00,10.906,8.767,7.511,-1.627,-1.630,272.026,56.162861,10.203861,58.32
2025-10-13T13:50:13.889489+00:00,10.907,9.114,7.659,-3.021,-1.138,276.127,56.162888,10.203856,60.13
2025-10-13T13:50:14.091323+00:00,10.908,9.491,7.808,-4.334,-0.641,280.164,56.162920,10.203926,60.86
2025-10-13T13:50:14.293160+00:00,10.909,9.889,7.958,-5.560,-0.139,284.201,56.162903,10.203876,58.54
2025-10-13T13:50:14.495258+00:00,10.911,10.292,8.110,-6.676,0.366,288.243,56.162859,10.203864,60.82
2025-10-13T13:50:14.697000+00:00,10.912,10.683,8.260,-7.657,0.867,292.278,56.162864,10.203928,61.48
2025-10-13T13:50:14.900292+00:00,10.913,11.048,8.409,-8.492,1.362,296.344,56.162878,10.203912,59.43
2025-10-13T13:50:15.103481+00:00,10.915,11.370,8.553,-9.155,1.843,300.407,56.162873,10.203855,60.37
2025-10-13T13:50:15.305372+00:00,10.917,11.635,8.691,-9.630,2.302,304.445,56.162860,10.203870,59.22
2025-10-13T13:50:15.507490+00:00,10.918,11.833,8.821,-9.914,2.738,308.488,56.162861,10.203863,59.41
2025-10-13T13:50:15.709219+00:00,10.920,11.956,8.944,-10.000,3.145,312.522,56.162938,10.203946,60.85
2025-10-13T13:50:15.911533+00:00,10.922,12.000,9.056,-9.885,3.522,316.568,56.162851,10.203876,58.42
2025-10-13T13:50:16.114249+00:00,10.924,11.962,9.159,-9.572,3.863,320.623,56.162870,10.203852,60.43
2025-10-13T13:50:16.316151+00:00,10.926,11.845,9.249,-9.070,4.163,324.661,56.162931,10.203929,60.47
2025-10-13T13:50:16.518447+00:00,10.928,11.652,9.326,-8.384,4.421,328.707,56.162940,10.203911,59.01
2025-10-13T13:50:16.720306+00:00,10.930,11.392,9.390,-7.533,4.634,332.744,56.162888,10.203873,61.95
2025-10-13T13:50:16.924663+00:00,10.932,11.072,9.440,-6.519,4.801,336.831,56.162928,10.203905,58.96
2025-10-13T13:50:17.126479+00:00,10.934,10.711,9.475,-5.386,4.918,340.867,56.162868,10.203903,61.29
2025-10-13T13:50:17.329691+00:00,10.936,10.320,9.495,-4.137,4.984,344.931,56.162947,10.203919,58.63
2025-10-13T13:50:17.531924+00:00,10.939,9.917,9.500,-2.811,4.999,348.976,56.162884,10.203862,62.23
2025-10-13T13:50:17.733815+00:00,10.941,9.518,9.489,-1.431,4.963,353.014,56.162949,10.203878,61.04
2025-10-13T13:50:17.936261+00:00,10.944,9.137,9.463,-0.019,4.876,357.063,56.162898,10.203916,59.51
2025-10-13T13:50:18.138063+00:00,10.946,8.793,9.422,1.389,4.740,1.099,56.162864,10.203919,60.02
2025-10-13T13:50:18.339897+00:00,10.949,8.498,9.367,2.770,4.556,5.135,56.162887,10.203921,59.11
2025-10-13T13:50:18.542924+00:00,10.951,8.262,9.297,4.103,4.323,9.196,56.162920,10.203949,58.31
2025-10-13T13:50:18.744874+00:00,10.954,8.099,9.214,5.347,4.048,13.235,56.162889,10.203878,61.04
2025-10-13T13:50:18.947338+00:00,10.957,8.013,9.119,6.487,3.731,17.284,56.162896,10.203882,61.87
2025-10-13T13:50:19.149615+00:00,10.960,8.008,9.013,7.496,3.375,21.330,56.162935,10.203879,62.21
2025-10-13T13:50:19.351689+00:00,10.963,8.084,8.896,8.354,2.986,25.372,56.162909,10.203908,59.36
2025-10-13T13:50:19.554286+00:00,10.966,8.238,8.770,9.047,2.565,29.423,56.162922,10.203912,60.61
2025-10-13T13:50:19.757193+00:00,10.969,8.465,8.635,9.559,2.117,33.482,56.162890,10.203877,58.42
2025-10-13T13:50:19.959697+00:00,10.972,8.755,8.495,9.878,1.649,37.532,56.162915,10.203876,62.24
2025-10-13T13:50:20.161631+00:00,10.975,9.094,8.349,9.999,1.165,41.570,56.162896,10.203945,60.41
2025-10-13T13:50:20.363762+00:00,10.978,9.470,8.200,9.920,0.668,45.613,56.162872,10.203928,58.65
2025-10-13T13:50:20.565529+00:00,10.981,9.868,8.050,9.644,0.166,49.648,56.162892,10.203869,59.52
2025-10-13T13:50:20.768215+00:00,10.985,10.272,7.898,9.173,-0.341,53.702,56.162937,10.203887,61.01
2025-10-13T13:50:20.971238+00:00,10.988,10.666,7.747,8.516,-0.845,57.763,56.162920,10.203875,61.70
2025-10-13T13:50:21.173504+00:00,10.991,11.031,7.599,7.691,-1.338,61.807,56.162906,10.203897,61.89
2025-10-13T13:50:21.375882+00:00,10.995,11.355,7.455,6.712,-1.818,65.855,56.162892,10.203899,61.93
2025-10-13T13:50:21.577776+00:00,10.998,11.622,7.317,5.600,-2.278,69.893,56.162915,10.203874,59.40
2025-10-13T13:50:21.779479+00:00,11.002,11.824,7.186,4.379,-2.714,73.927,56.162922,10.203855,59.47
2025-10-13T13:50:21.982203+00:00,11.005,11.952,7.062,3.063,-3.125,77.981,56.162895,10.203920,57.92
2025-10-13T13:50:22.134646+00:00,11.008,11.995,6.976,2.032,-3.413,81.031,56.162921,10.203893,62.36
2025-10-13T13:50:22.338618+00:00,11.012,11.982,6.870,0.618,-3.768,85.110,56.162863,10.203857,60.72
2025-10-13T13:50:22.540713+00:00,11.015,11.887,6.776,-0.795,-4.080,89.152,56.162865,10.203880,58.49
2025-10-13T13:50:22.742652+00:00,11.019,11.715,6.695,-2.192,-4.351,93.191,56.162924,10.203867,58.78
2025-10-13T13:50:22.946096+00:00,11.023,11.472,6.627,-3.554,-4.578,97.260,56.162935,10.203857,62.06
2025-10-13T13:50:23.148860+00:00,11.026,11.169,6.573,-4.841,-4.758,101.315,56.162925,10.203858,58.19
2025-10-13T13:50:23.352221+00:00,11.030,10.818,6.533,-6.033,-4.890,105.382,56.162923,10.203922,58.66
2025-10-13T13:50:23.554166+00:00,11.034,10.435,6.509,-7.097,-4.970,109.421,56.162876,10.203897,62.44
2025-10-13T13:50:23.756119+00:00,11.038,10.035,6.500,-8.019,-5.000,113.460,56.162873,10.203875,61.38
2025-10-13T13:50:23.958538+00:00,11.042,9.632,6.506,-8.782,-4.979,117.509,56.162919,10.203862,62.40
2025-10-13T13:50:24.160981+00:00,11.046,9.244,6.528,-9.370,-4.906,121.557,56.162865,10.203913,59.38
2025-10-13T13:50:24.365435+00:00,11.050,8.884,6.565,-9.772,-4.783,125.646,56.162950,10.203869,59.14
2025-10-13T13:50:24.568113+00:00,11.053,8.573,6.617,-9.974,-4.610,129.700,56.162897,10.203915,60.88
2025-10-13T13:50:24.770006+00:00,11.057,8.321,6.682,-9.976,-4.392,133.738,56.162865,10.203912,62.29
2025-10-13T13:50:24.972380+00:00,11.061,8.137,6.762,-9.778,-4.128,137.785,56.162907,10.203863,58.13
2025-10-13T13:50:25.174126+00:00,11.065,8.029,6.853,-9.386,-3.823,141.820,56.162916,10.203895,60.90
2025-10-13T13:50:25.376231+00:00,11.069,8.001,6.956,-8.806,-3.478,145.862,56.162861,10.203927,59.19
2025-10-13T13:50:25.578721+00:00,11.073,8.055,7.071,-8.048,-3.098,149.912,56.162899,10.203852,58.76
2025-10-13T13:50:25.781334+00:00,11.077,8.188,7.195,-7.128,-2.685,153.964,56.162858,10.203911,58.94
2025-10-13T13:50:25.983877+00:00,11.081,8.395,7.327,-6.066,-2.245,158.015,56.162912,10.203896,58.39
2025-10-13T13:50:26.186151+00:00,11.085,8.668,7.465,-4.883,-1.782,162.061,56.162916,10.203873,59.42
2025-10-13T13:50:26.388909+00:00,11.089,8.996,7.610,-3.600,-1.300,166.116,56.162909,10.203855,62.43
2025-10-13T13:50:26.591120+00:00,11.094,9.364,7.758,-2.248,-0.806,170.160,56.162889,10.203936,60.44
2025-10-13T13:50:26.794162+00:00,11.098,9.759,7.909,-0.845,-0.302,174.221,56.162853,10.203865,60.89
2025-10-13T13:50:26.997209+00:00,11.102,10.164,8.062,0.575,0.206,178.282,56.162948,10.203903,61.27
2025-10-13T13:50:27.199059+00:00,11.106,10.561,8.212,1.976,0.708,182.319,56.162860,10.203899,57.94
2025-10-13T13:50:27.401219+00:00,11.110,10.935,8.361,3.338,1.204,186.362,56.162857,10.203945,58.12
2025-10-13T13:50:27.603078+00:00,11.114,11.270,8.506,4.633,1.687,190.399,56.162885,10.203904,57.83
2025-10-13T13:50:27.805698+00:00,11.118,11.555,8.646,5.839,2.154,194.451,56.162909,10.203933,58.63
2025-10-13T13:50:28.010602+00:00,11.122,11.778,8.781,6.939,2.604,198.550,56.162938,10.203892,62.37
2025-10-13T13:50:28.212471+00:00,11.126,11.926,8.906,7.884,3.021,202.587,56.162920,10.203948,61.53
2025-10-13T13:50:28.414472+00:00,11.130,11.995,9.022,8.673,3.407,206.627,56.162911,10.203927,61.36
2025-10-13T13:50:28.616357+00:00,11.134,11.983,9.128,9.287,3.759,210.665,56.162916,10.203858,57.82
2025-10-13T13:50:28.818292+00:00,11.138,11.890,9.222,9.717,4.072,214.704,56.162902,10.203942,61.10
2025-10-13T13:50:29.022231+00:00,11.142,11.719,9.304,9.954,4.346,218.782,56.162885,10.203933,59.76
2025-10-13T13:50:29.174303+00:00,11.145,11.544,9.356,9.999,4.521,221.823,56.162919,10.203877,61.21
2025-10-13T13:50:29.377435+00:00,11.149,11.256,9.414,9.883,4.715,225.886,56.162918,10.203861,60.37
2025-10-13T13:50:29.579286+00:00,11.153,10.919,9.457,9.570,4.858,229.924,56.162906,10.203947,60.99
2025-10-13T13:50:29.780982+00:00,11.157,10.544,9.486,9.067,4.953,233.957,56.162863,10.203895,57.53
2025-10-13T13:50:29.983379+00:00,11.160,10.146,9.499,8.381,4.997,238.005,56.162927,10.203915,60.98
2025-10-13T13:50:30.187011+00:00,11.164,9.740,9.497,7.521,4.989,242.078,56.162876,10.203904,58.96
2025-10-13T13:50:30.390433+00:00,11.168,9.345,9.479,6.509,4.930,246.146,56.162933,10.203867,58.33
2025-10-13T13:50:30.592182+00:00,11.172,8.979,9.447,5.376,4.822,250.181,56.162856,10.203949,62.20
2025-10-13T13:50:30.793909+00:00,11.176,8.655,9.399,4.135,4.664,254.216,56.162908,10.203900,60.16
2025-10-13T13:50:30.996143+00:00,11.179,8.385,9.337,2.809,4.458,258.261,56.162947,10.203946,59.27
2025-10-13T13:50:31.197887+00:00,11.183,8.182,9.262,1.431,4.208,262.296,56.162865,10.203892,62.41
2025-10-13T13:50:31.401737+00:00,11.187,8.051,9.173,0.009,3.911,266.372,56.162870,10.203854,59.76
2025-10-13T13:50:31.604974+00:00,11.190,8.001,9.072,-1.409,3.575,270.437,56.162949,10.203913,61.36
2025-10-13T13:50:31.806749+00:00,11.194,8.032,8.961,-2.789,3.205,274.473,56.162880,10.203939,57.99
2025-10-13T13:50:32.011286+00:00,11.198,8.146,8.839,-4.131,2.796,278.564,56.162852,10.203889,61.41
2025-10-13T13:50:32.213012+00:00,11.201,8.333,8.709,-5.371,2.364,282.598,56.162866,10.203921,59.52
2025-10-13T13:50:32.416132+00:00,11.205,8.591,8.572,-6.512,1.906,286.660,56.162935,10.203907,59.34
2025-10-13T13:50:32.619990+00:00,11.208,8.907,8.428,-7.526,1.425,290.738,56.162924,10.203871,60.81
2025-10-13T13:50:32.822935+00:00,11.211,9.267,8.280,-8.382,0.933,294.796,56.162855,10.203949,62.09
2025-10-13T13:50:33.025240+00:00,11.215,9.656,8.130,-9.068,0.432,298.843,56.162888,10.203863,60.73
2025-10-13T13:50:33.227130+00:00,11.218,10.058,7.978,-9.571,-0.072,302.880,56.162885,10.203887,59.97
2025-10-13T13:50:33.429159+00:00,11.221,10.458,7.827,-9.884,-0.576,306.921,56.162902,10.203932,60.86
2025-10-13T13:50:33.630984+00:00,11.224,10.839,7.678,-9.999,-1.074,310.958,56.162888,10.203939,58.97
2025-10-13T13:50:33.833689+00:00,11.228,11.187,7.531,-9.915,-1.562,315.012,56.162933,10.203875,61.35
2025-10-13T13:50:34.037243+00:00,11.231,11.488,7.389,-9.629,-2.037,319.083,56.162869,10.203919,61.96
2025-10-13T13:50:34.239224+00:00,11.234,11.726,7.254,-9.153,-2.487,323.122,56.162893,10.203943,61.80
2025-10-13T13:50:34.442303+00:00,11.237,11.894,7.126,-8.490,-2.914,327.184,56.162931,10.203861,59.80
2025-10-13T13:50:34.644102+00:00,11.240,11.984,7.008,-7.661,-3.308,331.220,56.162947,10.203935,59.89
2025-10-13T13:50:34.846108+00:00,11.243,11.994,6.899,-6.679,-3.669,335.260,56.162897,10.203941,59.19
2025-10-13T13:50:35.048182+00:00,11.245,11.923,6.802,-5.563,-3.993,339.301,56.162898,10.203857,59.75
2025-10-13T13:50:35.250164+00:00,11.248,11.773,6.717,-4.337,-4.276,343.341,56.162944,10.203948,58.31
2025-10-13T13:50:35.452393+00:00,11.251,11.551,6.645,-3.022,-4.516,347.386,56.162881,10.203932,60.32
2025-10-13T13:50:35.654200+00:00,11.253,11.266,6.587,-1.650,-4.709,351.422,56.162943,10.203889,59.78
2025-10-13T13:50:35.856297+00:00,11.256,10.930,6.544,-0.243,-4.855,355.464,56.162884,10.203871,58.52
2025-10-13T13:50:36.058740+00:00,11.258,10.555,6.515,1.172,-4.951,359.513,56.162866,10.203861,60.82
2025-10-13T13:50:36.261611+00:00,11.261,10.156,6.501,2.566,-4.996,3.570,56.162864,10.203925,61.73
2025-10-13T13:50:36.464042+00:00,11.263,9.752,6.503,3.905,-4.990,7.618,56.162853,10.203879,57.97
2025-10-13T13:50:36.666454+00:00,11.266,9.358,6.520,5.166,-4.933,11.667,56.162925,10.203892,58.23
2025-10-13T13:50:36.868746+00:00,11.268,8.991,6.552,6.322,-4.826,15.712,56.162890,10.203929,61.83
2025-10-13T13:50:37.070890+00:00,11.270,8.665,6.599,7.352,-4.670,19.756,56.162911,10.203924,61.11
2025-10-13T13:50:37.273134+00:00,11.272,8.393,6.660,8.235,-4.465,23.800,56.162943,10.203886,60.95
2025-10-13T13:50:37.426026+00:00,11.274,8.230,6.716,8.794,-4.280,26.858,56.162943,10.203886,60.95
2025-10-13T13:50:37.628133+00:00,11.276,8.079,6.801,9.377,-3.998,30.901,56.162879,10.203943,57.84
2025-10-13T13:50:37.829940+00:00,11.277,8.006,6.897,9.773,-3.675,34.937,56.162873,10.203944,59.67
2025-10-13T13:50:38.032452+00:00,11.279,8.015,7.006,9.974,-3.314,38.987,56.162901,10.203927,61.62
2025-10-13T13:50:38.234265+00:00,11.281,8.104,7.124,9.976,-2.920,43.023,56.162947,10.203897,58.11
2025-10-13T13:50:38.436339+00:00,11.283,8.270,7.251,9.778,-2.495,47.065,56.162915,10.203906,58.48
2025-10-13T13:50:38.639086+00:00,11.284,8.508,7.387,9.384,-2.044,51.120,56.162939,10.203870,59.77
2025-10-13T13:50:38.841895+00:00,11.286,8.807,7.529,8.800,-1.571,55.176,56.162876,10.203855,57.91
2025-10-13T13:50:39.044416+00:00,11.287,9.154,7.675,8.041,-1.084,59.226,56.162923,10.203886,59.51
2025-10-13T13:50:39.246267+00:00,11.289,9.534,7.824,7.124,-0.586,63.263,56.162880,10.203886,58.40
2025-10-13T13:50:39.448468+00:00,11.290,9.934,7.975,6.062,-0.082,67.307,56.162931,10.203855,60.94
2025-10-13T13:50:39.650760+00:00,11.291,10.337,8.127,4.879,0.423,71.353,56.162885,10.203865,57.58
2025-10-13T13:50:39.853136+00:00,11.292,10.727,8.277,3.598,0.924,75.400,56.162927,10.203877,59.10
2025-10-13T13:50:40.055788+00:00,11.293,11.087,8.425,2.243,1.416,79.454,56.162880,10.203886,62.33
2025-10-13T13:50:40.257658+00:00,11.294,11.401,8.568,0.848,1.892,83.491,56.162948,10.203948,57.52
2025-10-13T13:50:40.460644+00:00,11.295,11.660,8.705,-0.572,2.352,87.551,56.162893,10.203935,59.80
2025-10-13T13:50:40.663413+00:00,11.296,11.851,8.836,-1.978,2.786,91.606,56.162882,10.203854,59.63
2025-10-13T13:50:40.865997+00:00,11.297,11.965,8.957,-3.344,3.192,95.657,56.162939,10.203931,59.61
2025-10-13T13:50:41.068467+00:00,11.298,12.000,9.069,-4.641,3.564,99.707,56.162903,10.203897,59.73
2025-10-13T13:50:41.270481+00:00,11.298,11.953,9.170,-5.844,3.900,103.747,56.162937,10.203893,61.05
2025-10-13T13:50:41.473544+00:00,11.299,11.825,9.259,-6.934,4.197,107.809,56.162928,10.203929,59.29
2025-10-13T13:50:41.675885+00:00,11.299,11.623,9.335,-7.882,4.450,111.855,56.162946,10.203907,57.54
2025-10-13T13:50:41.878616+00:00,11.299,11.355,9.397,-8.673,4.658,115.910,56.162864,10.203890,61.70
2025-10-13T13:50:42.082495+00:00,11.300,11.029,9.446,-9.293,4.819,119.987,56.162894,10.203942,62.22
2025-10-13T13:50:42.285555+00:00,11.300,10.662,9.479,-9.722,4.929,124.049,56.162948,10.203873,61.78
2025-10-13T13:50:42.487725+00:00,11.300,10.270,9.497,-9.955,4.989,128.092,56.162907,10.203947,61.34
2025-10-13T13:50:42.689531+00:00,11.300,9.867,9.499,-9.989,4.997,132.128,56.162887,10.203939,62.22
2025-10-13T13:50:42.891924+00:00,11.300,9.468,9.486,-9.823,4.955,136.176,56.162924,10.203864,60.77
2025-10-13T13:50:43.093690+00:00,11.300,9.093,9.459,-9.462,4.862,140.212,56.162920,10.203865,59.59
2025-10-13T13:50:43.297219+00:00,11.300,8.751,9.416,-8.907,4.719,144.282,56.162893,10.203863,58.52
2025-10-13T13:50:43.499494+00:00,11.299,8.463,9.358,-8.176,4.527,148.328,56.162857,10.203935,58.56
2025-10-13T13:50:43.701282+00:00,11.299,8.238,9.287,-7.284,4.291,152.363,56.162881,10.203866,57.57
2025-10-13T13:50:43.903751+00:00,11.298,8.083,9.203,-6.243,4.009,156.413,56.162874,10.203881,58.96
2025-10-13T13:50:44.105627+00:00,11.298,8.008,9.106,-5.080,3.688,160.450,56.162902,10.203927,61.57
2025-10-13T13:50:44.307495+00:00,11.297,8.013,8.999,-3.817,3.329,164.488,56.162906,10.203887,58.65
2025-10-13T13:50:44.509513+00:00,11.296,8.099,8.881,-2.476,2.936,168.528,56.162863,10.203895,61.07
2025-10-13T13:50:44.712079+00:00,11.296,8.263,8.753,-1.082,2.511,172.579,56.162923,10.203854,57.52
2025-10-13T13:50:44.914534+00:00,11.295,8.497,8.618,0.333,2.062,176.628,56.162883,10.203914,61.11
2025-10-13T13:50:45.116404+00:00,11.294,8.793,8.478,1.738,1.592,180.666,56.162882,10.203907,61.68
2025-10-13T13:50:45.318190+00:00,11.293,9.137,8.332,3.107,1.107,184.702,56.162932,10.203905,61.12
2025-10-13T13:50:45.520268+00:00,11.292,9.516,8.183,4.416,0.609,188.743,56.162893,10.203877,59.80
2025-10-13T13:50:45.723143+00:00,11.290,9.917,8.031,5.641,0.103,192.801,56.162932,10.203901,61.63
2025-10-13T13:50:45.876883+00:00,11.290,10.224,7.916,6.495,-0.281,195.875,56.162940,10.203862,57.51
2025-10-13T13:50:46.079312+00:00,11.288,10.619,7.765,7.504,-0.784,199.924,56.162907,10.203898,61.25
2025-10-13T13:50:46.281103+00:00,11.287,10.988,7.617,8.360,-1.277,203.960,56.162883,10.203924,58.93
2025-10-13T13:50:46.484102+00:00,11.285,11.318,7.472,9.053,-1.760,208.020,56.162908,10.203892,62.44
2025-10-13T13:50:46.685899+00:00,11.284,11.593,7.333,9.561,-2.223,212.056,56.162862,10.203897,59.12
2025-10-13T13:50:46.889380+00:00,11.282,11.804,7.200,9.880,-2.666,216.125,56.162927,10.203925,61.02
2025-10-13T13:50:47.093561+00:00,11.280,11.942,7.075,9.999,-3.083,220.209,56.162946,10.203851,60.05
2025-10-13T13:50:47.295601+00:00,11.279,11.998,6.961,9.917,-3.465,224.250,56.162946,10.203907,60.64
2025-10-13T13:50:47.497739+00:00,11.277,11.974,6.857,9.636,-3.811,228.293,56.162931,10.203932,61.05
2025-10-13T13:50:47.699452+00:00,11.275,11.869,6.765,9.163,-4.117,232.327,56.162867,10.203912,60.37
2025-10-13T13:50:47.901717+00:00,11.273,11.688,6.685,8.507,-4.383,236.372,56.162858,10.203944,60.92
2025-10-13T13:50:48.103660+00:00,11.271,11.438,6.619,7.681,-4.603,240.411,56.162894,10.203876,57.89
2025-10-13T13:50:48.305935+00:00,11.269,11.130,6.567,6.701,-4.777,244.457,56.162924,10.203943,61.71
2025-10-13T13:50:48.508140+00:00,11.266,10.775,6.530,5.586,-4.901,248.501,56.162927,10.203881,57.73
2025-10-13T13:50:48.709868+00:00,11.264,10.390,6.507,4.363,-4.976,252.535,56.162905,10.203886,58.15
2025-10-13T13:50:48.912225+00:00,11.262,9.988,6.500,3.049,-5.000,256.582,56.162883,10.203936,60.53
2025-10-13T13:50:49.115364+00:00,11.259,9.585,6.508,1.669,-4.973,260.645,56.162881,10.203928,60.77
2025-10-13T13:50:49.317517+00:00,11.257,9.200,6.532,0.262,-4.895,264.688,56.162908,10.203856,58.98
2025-10-13T13:50:49.519736+00:00,11.254,8.848,6.570,-1.151,-4.767,268.733,56.162888,10.203884,59.31
2025-10-13T13:50:49.721567+00:00,11.252,8.544,6.623,-2.539,-4.590,272.769,56.162880,10.203875,59.11
2025-10-13T13:50:49.924076+00:00,11.249,8.298,6.690,-3.880,-4.366,276.819,56.162937,10.203861,61.45
2025-10-13T13:50:50.125928+00:00,11.246,8.122,6.770,-5.139,-4.099,280.856,56.162877,10.203861,61.08
2025-10-13T13:50:50.327894+00:00,11.244,8.022,6.863,-6.296,-3.789,284.895,56.162891,10.203905,61.55
2025-10-13T13:50:50.530738+00:00,11.241,8.003,6.968,-7.332,-3.439,288.952,56.162867,10.203906,60.01
2025-10-13T13:50:50.732621+00:00,11.238,8.065,7.083,-8.217,-3.056,292.990,56.162861,10.203947,57.64
2025-10-13T13:50:50.934983+00:00,11.235,8.206,7.208,-8.939,-2.640,297.037,56.162916,10.203949,60.74
2025-10-13T13:50:51.136853+00:00,11.232,8.420,7.340,-9.481,-2.199,301.075,56.162896,10.203875,57.68
2025-10-13T13:50:51.338827+00:00,11.229,8.698,7.479,-9.835,-1.735,305.114,56.162864,10.203869,59.34
2025-10-13T13:50:51.542592+00:00,11.226,9.032,7.625,-9.992,-1.249,309.189,56.162915,10.203885,60.04
2025-10-13T13:50:51.745175+00:00,11.222,9.404,7.774,-9.948,-0.753,313.241,56.162936,10.203911,60.07
2025-10-13T13:50:51.948066+00:00,11.219,9.801,7.925,-9.703,-0.249,317.299,56.162855,10.203943,60.98
2025-10-13T13:50:52.150670+00:00,11.216,10.206,8.077,-9.263,0.257,321.351,56.162877,10.203894,58.64
2025-10-13T13:50:52.352640+00:00,11.213,10.600,8.228,-8.640,0.759,325.391,56.162932,10.203897,60.19
2025-10-13T13:50:52.554459+00:00,11.209,10.971,8.376,-7.845,1.253,329.427,56.162884,10.203922,57.64
2025-10-13T13:50:52.757581+00:00,11.206,11.303,8.521,-6.887,1.738,333.489,56.162905,10.203914,59.62
2025-10-13T13:50:52.960058+00:00,11.202,11.582,8.661,-5.794,2.203,337.539,56.162878,10.203873,59.58
2025-10-13T13:50:53.161970+00:00,11.199,11.795,8.793,-4.588,2.644,341.577,56.162884,10.203901,60.98
2025-10-13T13:50:53.363953+00:00,11.195,11.936,8.917,-3.290,3.058,345.617,56.162933,10.203903,57.95
2025-10-13T13:50:53.567394+00:00,11.192,11.997,9.033,-1.917,3.444,349.686,56.162868,10.203876,61.31
2025-10-13T13:50:53.719493+00:00,11.189,11.990,9.113,-0.863,3.709,352.728,56.162868,10.203876,61.31
2025-10-13T13:50:53.926094+00:00,11.185,11.906,9.211,0.582,4.035,356.859,56.162878,10.203900,60.89
2025-10-13T13:50:54.129163+00:00,11.182,11.745,9.294,1.990,4.314,0.921,56.162891,10.203916,60.94
2025-10-13T13:50:54.331175+00:00,11.178,11.513,9.364,3.352,4.547,4.961,56.162910,10.203881,60.04
2025-10-13T13:50:54.535424+00:00,11.174,11.217,9.421,4.660,4.735,9.046,56.162914,10.203926,58.39
2025-10-13T13:50:54.737344+00:00,11.170,10.873,9.462,5.860,4.873,13.085,56.162902,10.203853,61.38
2025-10-13T13:50:54.940683+00:00,11.167,10.492,9.488,6.950,4.961,17.151,56.162938,10.203859,58.63
2025-10-13T13:50:55.143670+00:00,11.163,10.091,9.500,7.898,4.999,21.211,56.162905,10.203946,62.20
2025-10-13T13:50:55.346106+00:00,11.159,9.688,9.495,8.685,4.985,25.260,56.162918,10.203935,59.47
2025-10-13T13:50:55.549186+00:00,11.155,9.296,9.476,9.300,4.919,29.322,56.162862,10.203886,57.63
2025-10-13T13:50:55.750960+00:00,11.151,8.935,9.441,9.725,4.804,33.357,56.162899,10.203891,59.94
2025-10-13T13:50:55.953470+00:00,11.147,8.616,9.392,9.956,4.639,37.407,56.162900,10.203902,61.21
2025-10-13T13:50:56.155406+00:00,11.143,8.355,9.328,9.989,4.428,41.446,56.162928,10.203868,60.83
2025-10-13T13:50:56.358277+00:00,11.139,8.159,9.251,9.820,4.170,45.503,56.162862,10.203881,57.88
2025-10-13T13:50:56.562511+00:00,11.135,8.039,9.160,9.451,3.867,49.588,56.162914,10.203853,57.89
2025-10-13T13:50:56.764304+00:00,11.131,8.000,9.058,8.897,3.528,53.624,56.162877,10.203916,58.65
2025-10-13T13:50:56.967329+00:00,11.127,8.043,8.945,8.160,3.151,57.684,56.162911,10.203855,58.05
2025-10-13T13:50:57.169122+00:00,11.123,8.165,8.823,7.265,2.744,61.720,56.162888,10.203923,58.26
2025-10-13T13:50:57.372253+00:00,11.119,8.363,8.692,6.218,2.306,65.782,56.162915,10.203931,61.03
2025-10-13T13:50:57.575164+00:00,11.115,8.628,8.553,5.047,1.845,69.841,56.162856,10.203910,60.64
2025-10-13T13:50:57.777297+00:00,11.111,8.949,8.410,3.779,1.366,73.884,56.162888,10.203880,58.30
2025-10-13T13:50:57.979880+00:00,11.107,9.312,8.262,2.433,0.873,77.935,56.162892,10.203892,57.97
2025-10-13T13:50:58.182031+00:00,11.103,9.703,8.112,1.040,0.372,81.978,56.162865,10.203906,58.43
2025-10-13T13:50:58.384730+00:00,11.099,10.108,7.960,-0.377,-0.135,86.032,56.162887,10.203912,58.50
2025-10-13T13:50:58.588131+00:00,11.095,10.509,7.808,-1.791,-0.641,90.100,56.162943,10.203878,62.25
2025-10-13T13:50:58.791490+00:00,11.091,10.889,7.658,-3.169,-1.141,94.167,56.162929,10.203852,60.05
2025-10-13T13:50:58.994041+00:00,11.087,11.231,7.512,-4.477,-1.628,98.219,56.162942,10.203855,61.09
2025-10-13T13:50:59.196491+00:00,11.083,11.523,7.371,-5.695,-2.097,102.268,56.162907,10.203919,60.17
2025-10-13T13:50:59.399371+00:00,11.079,11.753,7.236,-6.801,-2.546,106.325,56.162885,10.203877,60.59
2025-10-13T13:50:59.550970+00:00,11.076,11.878,7.141,-7.540,-2.864,109.357,56.162879,10.203868,61.27
2025-10-13T13:50:59.752881+00:00,11.072,11.978,7.021,-8.390,-3.263,113.395,56.162868,10.203930,60.65
2025-10-13T13:50:59.956945+00:00,11.068,11.997,6.910,-9.079,-3.632,117.476,56.162913,10.203884,60.31
2025-10-13T13:51:00.158908+00:00,11.064,11.934,6.812,-9.579,-3.960,121.516,56.162879,10.203867,60.50
2025-10-13T13:51:00.361029+00:00,11.060,11.793,6.726,-9.888,-4.248,125.558,56.162910,10.203919,57.65
2025-10-13T13:51:00.563397+00:00,11.056,11.578,6.652,-10.000,-4.492,129.606,56.162903,10.203931,61.85
2025-10-13T13:51:00.765292+00:00,11.052,11.299,6.593,-9.911,-4.691,133.644,56.162902,10.203875,58.31
2025-10-13T13:51:00.970623+00:00,11.048,10.962,6.547,-9.619,-4.843,137.750,56.162937,10.203924,62.39
2025-10-13T13:51:01.173508+00:00,11.044,10.589,6.517,-9.135,-4.944,141.808,56.162948,10.203897,57.95
2025-10-13T13:51:01.375488+00:00,11.040,10.194,6.502,-8.470,-4.994,145.847,56.162940,10.203931,60.65
2025-10-13T13:51:01.577787+00:00,11.036,9.790,6.502,-7.635,-4.993,149.894,56.162926,10.203908,60.09
2025-10-13T13:51:01.779640+00:00,11.032,9.395,6.518,-6.650,-4.941,153.931,56.162921,10.203947,62.24
2025-10-13T13:51:01.982765+00:00,11.029,9.023,6.549,-5.524,-4.838,157.993,56.162949,10.203945,61.05
2025-10-13T13:51:02.185086+00:00,11.025,8.692,6.594,-4.293,-4.686,162.039,56.162909,10.203866,57.50
2025-10-13T13:51:02.388596+00:00,11.021,8.414,6.655,-2.967,-4.485,166.109,56.162869,10.203943,57.93
2025-10-13T13:51:02.590887+00:00,11.017,8.201,6.728,-1.589,-4.238,170.156,56.162859,10.203943,62.11
2025-10-13T13:51:02.792695+00:00,11.014,8.062,6.815,-0.183,-3.950,174.192,56.162925,10.203909,57.81
2025-10-13T13:51:02.995254+00:00,11.010,8.002,6.914,1.231,-3.619,178.243,56.162899,10.203871,60.11
2025-10-13T13:51:03.197033+00:00,11.006,8.024,7.024,2.616,-3.254,182.278,56.162858,10.203905,60.00
2025-10-13T13:51:03.399953+00:00,11.003,8.126,7.144,3.956,-2.852,186.337,56.162875,10.203897,59.04
2025-10-13T13:51:03.602467+00:00,10.999,8.305,7.273,5.214,-2.423,190.387,56.162894,10.203858,62.03
2025-10-13T13:51:03.804274+00:00,10.996,8.552,7.409,6.364,-1.970,194.423,56.162950,10.203919,58.82
2025-10-13T13:51:04.007518+00:00,10.992,8.860,7.552,7.393,-1.493,198.488,56.162875,10.203942,59.65
2025-10-13T13:51:04.209319+00:00,10.989,9.212,7.699,8.268,-1.005,202.524,56.162938,10.203850,60.35
2025-10-13T13:51:04.411951+00:00,10.986,9.598,7.849,8.980,-0.504,206.577,56.162894,10.203884,57.56
2025-10-13T13:51:04.615062+00:00,10.982,10.002,8.001,9.513,0.002,210.639,56.162861,10.203882,60.75
2025-10-13T13:51:04.817688+00:00,10.979,10.404,8.152,9.853,0.508,214.692,56.162913,10.203919,58.06
2025-10-13T13:51:05.021432+00:00,10.976,10.792,8.303,9.996,1.011,218.766,56.162868,10.203854,60.30
2025-10-13T13:51:05.223416+00:00,10.973,11.145,8.450,9.937,1.500,222.806,56.162924,10.203921,57.80
2025-10-13T13:51:05.426057+00:00,10.970,11.451,8.592,9.679,1.975,226.859,56.162929,10.203874,62.20
2025-10-13T13:51:05.628141+00:00,10.967,11.698,8.728,9.227,2.428,230.901,56.162926,10.203889,58.32
2025-10-13T13:51:05.830634+00:00,10.964,11.876,8.857,8.590,2.857,234.950,56.162924,10.203950,62.00
2025-10-13T13:51:05.983505+00:00,10.961,11.960,8.949,7.994,3.162,238.008,56.162942,10.203858,60.24
2025-10-13T13:51:06.185546+00:00,10.959,12.000,9.061,7.068,3.537,242.049,56.162941,10.203855,59.33
2025-10-13T13:51:06.389288+00:00,10.956,11.958,9.163,5.990,3.878,246.124,56.162925,10.203934,57.55
2025-10-13T13:51:06.591470+00:00,10.953,11.837,9.253,4.801,4.177,250.167,56.162942,10.203888,60.54
2025-10-13T13:51:06.793158+00:00,10.950,11.641,9.330,3.519,4.432,254.201,56.162865,10.203869,59.26
2025-10-13T13:51:06.995906+00:00,10.948,11.378,9.393,2.160,4.644,258.255,56.162915,10.203896,59.35
2025-10-13T13:51:07.198908+00:00,10.945,11.057,9.442,0.755,4.808,262.316,56.162929,10.203869,57.81
2025-10-13T13:51:07.400702+00:00,10.942,10.695,9.476,-0.656,4.921,266.352,56.162937,10.203899,59.00
2025-10-13T13:51:07.602877+00:00,10.940,10.304,9.496,-2.057,4.985,270.395,56.162909,10.203900,59.17
2025-10-13T13:51:07.804715+00:00,10.938,9.902,9.500,-3.415,4.998,274.432,56.162906,10.203868,60.21
2025-10-13T13:51:08.007184+00:00,10.935,9.502,9.488,-4.708,4.961,278.482,56.162896,10.203946,61.26
2025-10-13T13:51:08.209843+00:00,10.933,9.123,9.461,-5.908,4.872,282.535,56.162922,10.203898,62.08
2025-10-13T13:51:08.412662+00:00,10.931,8.779,9.420,-6.990,4.733,286.591,56.162893,10.203897,59.06
2025-10-13T13:51:08.614760+00:00,10.929,8.485,9.364,-7.929,4.546,290.633,56.162880,10.203950,59.04
2025-10-13T13:51:08.817633+00:00,10.927,8.253,9.293,-8.711,4.312,294.690,56.162870,10.203888,58.73
2025-10-13T13:51:09.020030+00:00,10.925,8.093,9.210,-9.318,4.034,298.738,56.162938,10.203893,62.48
2025-10-13T13:51:09.222260+00:00,10.923,8.011,9.114,-9.737,3.715,302.783,56.162909,10.203884,61.42
2025-10-13T13:51:09.426090+00:00,10.921,8.010,9.007,-9.962,3.355,306.859,56.162851,10.203899,61.73
2025-10-13T13:51:09.628063+00:00,10.919,8.090,8.889,-9.985,2.964,310.899,56.162926,10.203905,61.73
2025-10-13T13:51:09.829956+00:00,10.917,8.248,8.763,-9.810,2.543,314.937,56.162939,10.203894,58.40
2025-10-13T13:51:10.033066+00:00,10.916,8.479,8.628,-9.436,2.094,318.999,56.162858,10.203862,61.46
2025-10-13T13:51:10.234945+00:00,10.914,8.770,8.488,-8.875,1.626,323.037,56.162855,10.203868,57.89
2025-10-13T13:51:10.436741+00:00,10.913,9.111,8.342,-8.138,1.141,327.073,56.162930,10.203903,60.69
2025-10-13T13:51:10.639718+00:00,10.911,9.491,8.193,-7.233,0.642,331.132,56.162893,10.203900,59.95
2025-10-13T13:51:10.841722+00:00,10.910,9.889,8.042,-6.188,0.139,335.172,56.162864,10.203862,60.27
2025-10-13T13:51:11.044245+00:00,10.909,10.293,7.890,-5.016,-0.367,339.223,56.162916,10.203894,58.63
2025-10-13T13:51:11.246023+00:00,10.908,10.683,7.740,-3.748,-0.867,343.258,56.162912,10.203905,60.64
2025-10-13T13:51:11.448315+00:00,10.907,11.047,7.592,-2.402,-1.360,347.304,56.162898,10.203939,59.79
2025-10-13T13:51:11.650985+00:00,10.906,11.369,7.448,-1.006,-1.840,351.357,56.162917,10.203942,57.56
2025-10-13T13:51:11.853662+00:00,10.905,11.634,7.310,0.411,-2.301,355.411,56.162855,10.203910,62.38
2025-10-13T13:51:12.057815+00:00,10.904,11.834,7.178,1.830,-2.741,359.494,56.162912,10.203864,60.80
2025-10-13T13:51:12.259635+00:00,10.903,11.957,7.055,3.196,-3.149,3.530,56.162873,10.203872,60.31
2025-10-13T13:51:12.462732+00:00,10.902,12.000,6.942,4.507,-3.526,7.592,56.162908,10.203850,60.62
2025-10-13T13:51:12.664527+00:00,10.902,11.962,6.840,5.719,-3.865,11.628,56.162932,10.203883,61.65
2025-10-13T13:51:12.868052+00:00,10.901,11.842,6.750,6.825,-4.167,15.698,56.162937,10.203930,57.79
2025-10-13T13:51:13.020707+00:00,10.901,11.702,6.690,7.566,-4.366,18.752,56.162910,10.203904,59.86
2025-10-13T13:51:13.222704+00:00,10.901,11.457,6.623,8.412,-4.589,22.792,56.162909,10.203942,60.05
2025-10-13T13:51:13.425331+00:00,10.900,11.152,6.570,9.092,-4.767,26.844,56.162922,10.203948,58.72
2025-10-13T13:51:13.628003+00:00,10.900,10.799,6.532,9.589,-4.895,30.898,56.162920,10.203883,62.26
2025-10-13T13:51:13.829770+00:00,10.900,10.415,6.508,9.893,-4.973,34.933,56.162890,10.203888,62.47
2025-10-13T13:51:14.034776+00:00,10.900,10.008,6.500,10.000,-5.000,39.033,56.162883,10.203878,61.65
2025-10-13T13:51:14.238528+00:00,10.900,9.603,6.507,9.902,-4.975,43.108,56.162932,10.203923,59.49
2025-10-13T13:51:14.441413+00:00,10.900,9.216,6.530,9.606,-4.899,47.166,56.162883,10.203881,58.52
2025-10-13T13:51:14.643500+00:00,10.900,8.863,6.568,9.118,-4.773,51.208,56.162890,10.203934,60.95
2025-10-13T13:51:14.845148+00:00,10.901,8.557,6.620,8.449,-4.599,55.241,56.162920,10.203877,59.55
2025-10-13T13:51:15.047312+00:00,10.901,8.308,6.687,7.610,-4.378,59.284,56.162942,10.203862,59.11
2025-10-13T13:51:15.249925+00:00,10.901,8.128,6.767,6.617,-4.111,63.336,56.162948,10.203853,61.20
2025-10-13T13:51:15.453112+00:00,10.902,8.024,6.860,5.487,-3.801,67.400,56.162909,10.203931,60.51
2025-10-13T13:51:15.654865+00:00,10.903,8.002,6.964,4.256,-3.455,71.435,56.162850,10.203850,60.46
2025-10-13T13:51:15.856630+00:00,10.903,8.061,7.078,2.939,-3.073,75.470,56.162909,10.203924,62.31
2025-10-13T13:51:16.059399+00:00,10.904,8.199,7.203,1.558,-2.658,79.526,56.162891,10.203861,57.93
2025-10-13T13:51:16.261201+00:00,10.905,8.410,7.335,0.152,-2.218,83.562,56.162922,10.203907,61.84
2025-10-13T13:51:16.465089+00:00,10.906,8.688,7.475,-1.272,-1.751,87.639,56.162922,10.203917,62.13
2025-10-13T13:51:16.671839+00:00,10.907,9.026,7.623,-2.689,-1.258,91.774,56.162873,10.203876,58.57
2025-10-13T13:51:16.873757+00:00,10.908,9.396,7.771,-4.019,-0.764,95.813,56.162906,10.203908,57.82
2025-10-13T13:51:17.075874+00:00,10.909,9.791,7.922,-5.270,-0.261,99.855,56.162907,10.203884,59.62
2025-10-13T13:51:17.277764+00:00,10.910,10.194,8.073,-6.415,0.243,103.893,56.162931,10.203897,57.58
2025-10-13T13:51:17.481863+00:00,10.912,10.594,8.225,-7.442,0.751,107.975,56.162921,10.203935,61.77
2025-10-13T13:51:17.684579+00:00,10.913,10.966,8.374,-8.312,1.247,112.029,56.162917,10.203926,58.86
2025-10-13T13:51:17.888655+00:00,10.915,11.301,8.520,-9.019,1.734,116.111,56.162865,10.203929,60.15
2025-10-13T13:51:18.091962+00:00,10.916,11.581,8.660,-9.540,2.201,120.177,56.162891,10.203903,57.98
2025-10-13T13:51:18.293819+00:00,10.918,11.794,8.793,-9.867,2.642,124.214,56.162927,10.203905,62.43
2025-10-13T13:51:18.496959+00:00,10.920,11.936,8.918,-9.998,3.059,128.277,56.162900,10.203884,57.93
2025-10-13T13:51:18.698759+00:00,10.921,11.997,9.032,-9.928,3.442,132.313,56.162850,10.203915,58.03
2025-10-13T13:51:18.850747+00:00,10.923,11.990,9.112,-9.744,3.707,135.353,56.162931,10.203887,59.72
2025-10-13T13:51:19.055049+00:00,10.925,11.908,9.209,-9.324,4.030,139.439,56.162938,10.203946,58.82
2025-10-13T13:51:19.257622+00:00,10.927,11.749,9.293,-8.720,4.308,143.490,56.162906,10.203895,57.62
2025-10-13T13:51:19.460711+00:00,10.929,11.517,9.363,-7.938,4.543,147.552,56.162901,10.203939,61.33
2025-10-13T13:51:19.662483+00:00,10.931,11.226,9.419,-7.003,4.731,151.588,56.162927,10.203889,61.15
2025-10-13T13:51:19.864253+00:00,10.933,10.884,9.461,-5.929,4.870,155.623,56.162888,10.203933,57.82
2025-10-13T13:51:20.066895+00:00,10.935,10.505,9.488,-4.731,4.959,159.676,56.162915,10.203924,61.92
2025-10-13T13:51:20.269334+00:00,10.938,10.105,9.499,-3.439,4.998,163.725,56.162852,10.203885,62.10
2025-10-13T13:51:20.473466+00:00,10.940,9.698,9.496,-2.067,4.986,167.807,56.162941,10.203869,57.79
2025-10-13T13:51:20.675473+00:00,10.942,9.308,9.477,-0.667,4.922,171.847,56.162894,10.203920,58.41
2025-10-13T13:51:20.877243+00:00,10.945,8.946,9.443,0.744,4.809,175.883,56.162929,10.203856,58.64
2025-10-13T13:51:21.080558+00:00,10.948,8.624,9.393,2.151,4.645,179.949,56.162903,10.203865,62.02
2025-10-13T13:51:21.283456+00:00,10.950,8.360,9.330,3.512,4.433,184.007,56.162941,10.203875,61.21
2025-10-13T13:51:21.485894+00:00,10.953,8.163,9.253,4.799,4.177,188.056,56.162943,10.203881,57.86
2025-10-13T13:51:21.687722+00:00,10.956,8.042,9.164,5.987,3.879,192.092,56.162864,10.203935,58.29
2025-10-13T13:51:21.889899+00:00,10.959,8.000,9.062,7.056,3.541,196.136,56.162880,10.203927,59.53
2025-10-13T13:51:22.093220+00:00,10.961,8.040,8.949,7.990,3.164,200.202,56.162919,10.203946,62.46
2025-10-13T13:51:22.295140+00:00,10.964,8.160,8.827,8.758,2.758,204.241,56.162856,10.203883,61.45
2025-10-13T13:51:22.500952+00:00,10.967,8.359,8.694,9.360,2.315,208.357,56.162881,10.203888,61.91
2025-10-13T13:51:22.703774+00:00,10.970,8.622,8.556,9.764,1.854,212.413,56.162863,10.203851,60.78
2025-10-13T13:51:22.906187+00:00,10.974,8.942,8.413,9.971,1.376,216.461,56.162915,10.203865,60.16
2025-10-13T13:51:23.108366+00:00,10.977,9.304,8.265,9.979,0.883,220.505,56.162922,10.203856,59.53
2025-10-13T13:51:23.310112+00:00,10.980,9.694,8.115,9.787,0.383,224.540,56.162927,10.203869,61.32
2025-10-13T13:51:23.512241+00:00,10.983,10.097,7.964,9.400,-0.122,228.583,56.162867,10.203947,59.54
2025-10-13T13:51:23.715733+00:00,10.987,10.499,7.811,8.820,-0.629,232.652,56.162929,10.203928,59.12
2025-10-13T13:51:23.919057+00:00,10.990,10.880,7.661,8.063,-1.129,236.719,56.162934,10.203880,59.97
2025-10-13T13:51:24.121172+00:00,10.993,11.222,7.516,7.148,-1.614,240.761,56.162895,10.203950,59.66
2025-10-13T13:51:24.322947+00:00,10.997,11.515,7.375,6.093,-2.083,244.797,56.162942,10.203858,61.76
2025-10-13T13:51:24.525013+00:00,11.000,11.746,7.241,4.914,-2.531,248.838,56.162870,10.203926,59.64
2025-10-13T13:51:24.727390+00:00,11.004,11.906,7.114,3.635,-2.953,252.885,56.162901,10.203920,59.71
2025-10-13T13:51:24.929789+00:00,11.007,11.989,6.996,2.283,-3.346,256.933,56.162896,10.203893,57.80
2025-10-13T13:51:25.133096+00:00,11.011,11.990,6.888,0.879,-3.706,261.000,56.162899,10.203923,59.65
2025-10-13T13:51:25.334872+00:00,11.015,11.910,6.793,-0.532,-4.025,265.035,56.162933,10.203854,60.93
2025-10-13T13:51:25.537939+00:00,11.018,11.752,6.709,-1.941,-4.305,269.097,56.162890,10.203880,61.58
2025-10-13T13:51:25.739742+00:00,11.022,11.523,6.638,-3.303,-4.539,273.133,56.162935,10.203879,59.58
2025-10-13T13:51:25.942525+00:00,11.026,11.231,6.582,-4.605,-4.728,277.188,56.162907,10.203852,60.19
2025-10-13T13:51:26.146134+00:00,11.030,10.886,6.539,-5.819,-4.869,281.260,56.162932,10.203944,58.88
2025-10-13T13:51:26.348099+00:00,11.033,10.509,6.512,-6.907,-4.959,285.300,56.162939,10.203914,58.45
2025-10-13T13:51:26.500648+00:00,11.036,10.209,6.502,-7.639,-4.993,288.351,56.162869,10.203898,59.60
2025-10-13T13:51:26.702362+00:00,11.040,9.806,6.502,-8.471,-4.994,292.385,56.162859,10.203949,58.60
2025-10-13T13:51:26.904894+00:00,11.044,9.410,6.517,-9.137,-4.944,296.435,56.162919,10.203888,58.41
2025-10-13T13:51:27.107778+00:00,11.048,9.037,6.547,-9.620,-4.843,300.493,56.162852,10.203882,60.58
2025-10-13T13:51:27.310500+00:00,11.052,8.704,6.592,-9.910,-4.692,304.547,56.162949,10.203925,57.89
2025-10-13T13:51:27.513849+00:00,11.056,8.423,6.652,-10.000,-4.493,308.615,56.162881,10.203860,60.23
2025-10-13T13:51:27.716600+00:00,11.060,8.207,6.726,-9.888,-4.248,312.670,56.162943,10.203879,61.85
2025-10-13T13:51:27.919136+00:00,11.064,8.066,6.812,-9.578,-3.959,316.720,56.162930,10.203874,60.84
2025-10-13T13:51:28.121626+00:00,11.068,8.003,6.911,-9.076,-3.630,320.770,56.162935,10.203855,59.51
2025-10-13T13:51:28.324395+00:00,11.072,8.022,7.021,-8.391,-3.264,324.825,56.162901,10.203855,59.31
2025-10-13T13:51:28.527546+00:00,11.076,8.122,7.141,-7.536,-2.863,328.888,56.162913,10.203939,60.32
2025-10-13T13:51:28.729472+00:00,11.080,8.299,7.269,-6.535,-2.435,332.927,56.162895,10.203948,59.34
2025-10-13T13:51:28.931696+00:00,11.084,8.544,7.405,-5.401,-1.982,336.972,56.162940,10.203927,60.82
2025-10-13T13:51:29.134225+00:00,11.088,8.850,7.548,-4.158,-1.508,341.022,56.162868,10.203853,58.71
2025-10-13T13:51:29.336126+00:00,11.092,9.202,7.694,-2.835,-1.020,345.060,56.162925,10.203942,59.36
2025-10-13T13:51:29.538018+00:00,11.096,9.585,7.844,-1.456,-0.521,349.098,56.162911,10.203893,61.93
2025-10-13T13:51:29.740640+00:00,11.100,9.988,7.995,-0.043,-0.015,353.151,56.162895,10.203944,57.83
2025-10-13T13:51:29.942826+00:00,11.104,10.389,8.147,1.368,0.489,357.194,56.162919,10.203913,60.22
2025-10-13T13:51:30.144958+00:00,11.108,10.775,8.297,2.751,0.989,1.237,56.162875,10.203941,58.60
2025-10-13T13:51:30.347741+00:00,11.112,11.131,8.444,4.084,1.480,5.293,56.162892,10.203902,59.03
2025-10-13T13:51:30.549755+00:00,11.116,11.439,8.586,5.329,1.954,9.333,56.162850,10.203942,61.99
2025-10-13T13:51:30.752389+00:00,11.120,11.689,8.723,6.472,2.409,13.386,56.162912,10.203890,60.53
2025-10-13T13:51:30.955413+00:00,11.124,11.870,8.852,7.486,2.841,17.446,56.162947,10.203944,59.05
2025-10-13T13:51:31.158595+00:00,11.128,11.975,8.973,8.351,3.244,21.510,56.162944,10.203850,58.29
2025-10-13T13:51:31.360401+00:00,11.132,11.998,9.083,9.042,3.610,25.546,56.162918,10.203899,58.14
2025-10-13T13:51:31.562440+00:00,11.136,11.940,9.182,9.554,3.941,29.587,56.162925,10.203885,58.62
2025-10-13T13:51:31.764189+00:00,11.140,11.804,9.269,9.874,4.231,33.622,56.162882,10.203928,58.04
2025-10-13T13:51:31.968057+00:00,11.144,11.592,9.344,9.999,4.480,37.699,56.162944,10.203897,60.52
2025-10-13T13:51:32.170298+00:00,11.148,11.316,9.404,9.921,4.681,41.744,56.162923,10.203857,61.07
2025-10-13T13:51:32.372237+00:00,11.152,10.987,9.450,9.646,4.834,45.783,56.162897,10.203947,62.15
2025-10-13T13:51:32.574298+00:00,11.156,10.618,9.482,9.177,4.938,49.824,56.162904,10.203919,58.50
2025-10-13T13:51:32.776365+00:00,11.160,10.224,9.498,8.526,4.992,53.865,56.162945,10.203872,58.85
2025-10-13T13:51:32.978672+00:00,11.164,9.820,9.498,7.703,4.995,57.911,56.162937,10.203881,58.27
2025-10-13T13:51:33.181365+00:00,11.167,9.422,9.484,6.724,4.946,61.965,56.162946,10.203940,58.07
2025-10-13T13:51:33.383533+00:00,11.171,9.050,9.454,5.612,4.848,66.008,56.162884,10.203941,58.96
2025-10-13T13:51:33.585452+00:00,11.175,8.716,9.410,4.391,4.699,70.047,56.162935,10.203869,61.58
2025-10-13T13:51:33.787324+00:00,11.179,8.435,9.351,3.081,4.503,74.084,56.162889,10.203898,61.37
2025-10-13T13:51:33.940927+00:00,11.181,8.263,9.297,2.043,4.323,77.156,56.162911,10.203927,58.22
2025-10-13T13:51:34.143302+00:00,11.185,8.099,9.214,0.640,4.048,81.204,56.162858,10.203850,59.51
2025-10-13T13:51:34.345929+00:00,11.189,8.013,9.119,-0.777,3.730,85.256,56.162936,10.203940,61.48
2025-10-13T13:51:34.549061+00:00,11.192,8.008,9.012,-2.182,3.373,89.319,56.162878,10.203907,62.06
2025-10-13T13:51:34.750907+00:00,11.196,8.084,8.895,-3.535,2.984,93.356,56.162913,10.203924,58.20
2025-10-13T13:51:34.952978+00:00,11.199,8.239,8.769,-4.818,2.564,97.397,56.162933,10.203875,58.55
2025-10-13T13:51:35.155075+00:00,11.203,8.465,8.635,-6.006,2.118,101.439,56.162914,10.203852,60.02
2025-10-13T13:51:35.357769+00:00,11.206,8.755,8.495,-7.076,1.649,105.493,56.162896,10.203852,59.74
2025-10-13T13:51:35.561136+00:00,11.210,9.096,8.348,-8.007,1.162,109.560,56.162906,10.203947,61.12
2025-10-13T13:51:35.763110+00:00,11.213,9.473,8.200,-8.771,0.665,113.600,56.162873,10.203925,61.72
2025-10-13T13:51:35.965722+00:00,11.217,9.872,8.048,-9.362,0.161,117.652,56.162861,10.203904,59.72
2025-10-13T13:51:36.169245+00:00,11.220,10.278,7.896,-9.766,-0.348,121.723,56.162870,10.203944,57.90
2025-10-13T13:51:36.370941+00:00,11.223,10.669,7.746,-9.972,-0.848,125.756,56.162897,10.203936,61.06
2025-10-13T13:51:36.573707+00:00,11.226,11.035,7.597,-9.978,-1.343,129.812,56.162929,10.203870,62.34
2025-10-13T13:51:36.777453+00:00,11.229,11.360,7.452,-9.782,-1.825,133.886,56.162860,10.203896,59.24
2025-10-13T13:51:36.980162+00:00,11.232,11.627,7.314,-9.391,-2.287,137.941,56.162938,10.203862,58.28
2025-10-13T13:51:37.182136+00:00,11.235,11.827,7.183,-8.812,-2.724,141.981,56.162913,10.203871,58.58
2025-10-13T13:51:37.386114+00:00,11.238,11.954,7.059,-8.050,-3.136,146.060,56.162893,10.203874,58.29
2025-10-13T13:51:37.589391+00:00,11.241,12.000,6.945,-7.127,-3.515,150.126,56.162927,10.203893,61.05
2025-10-13T13:51:37.792247+00:00,11.244,11.963,6.843,-6.063,-3.857,154.183,56.162877,10.203914,57.95
2025-10-13T13:51:37.994893+00:00,11.247,11.847,6.752,-4.878,-4.159,158.236,56.162936,10.203854,62.33
2025-10-13T13:51:38.196701+00:00,11.250,11.655,6.675,-3.600,-4.418,162.272,56.162949,10.203901,57.63
2025-10-13T13:51:38.398508+00:00,11.252,11.397,6.611,-2.251,-4.631,166.308,56.162903,10.203906,60.48
2025-10-13T13:51:38.600581+00:00,11.255,11.081,6.561,-0.854,-4.798,170.349,56.162949,10.203904,61.10
2025-10-13T13:51:38.802278+00:00,11.257,10.722,6.526,0.556,-4.915,174.383,56.162933,10.203915,58.26
2025-10-13T13:51:39.005887+00:00,11.260,10.330,6.505,1.969,-4.983,178.455,56.162857,10.203863,58.21
2025-10-13T13:51:39.208565+00:00,11.262,9.926,6.500,3.335,-4.999,182.509,56.162909,10.203908,60.96
2025-10-13T13:51:39.410287+00:00,11.265,9.527,6.511,4.629,-4.964,186.543,56.162912,10.203945,58.74
2025-10-13T13:51:39.612536+00:00,11.267,9.146,6.536,5.833,-4.879,190.589,56.162856,10.203925,60.20
2025-10-13T13:51:39.814277+00:00,11.269,8.801,6.577,6.918,-4.744,194.623,56.162950,10.203944,59.34
2025-10-13T13:51:40.017071+00:00,11.271,8.503,6.632,7.870,-4.560,198.679,56.162886,10.203937,61.32
2025-10-13T13:51:40.220025+00:00,11.273,8.267,6.701,8.665,-4.329,202.738,56.162934,10.203910,62.08
2025-10-13T13:51:40.422732+00:00,11.275,8.101,6.784,9.284,-4.053,206.792,56.162859,10.203936,58.92
2025-10-13T13:51:40.624831+00:00,11.277,8.014,6.879,9.715,-3.737,210.834,56.162855,10.203902,57.89
2025-10-13T13:51:40.826612+00:00,11.279,8.007,6.985,9.952,-3.384,214.870,56.162920,10.203858,61.25
2025-10-13T13:51:41.028932+00:00,11.281,8.082,7.102,9.991,-2.994,218.916,56.162910,10.203901,58.32
2025-10-13T13:51:41.231075+00:00,11.282,8.234,7.227,9.829,-2.575,222.959,56.162921,10.203878,60.97
2025-10-13T13:51:41.384145+00:00,11.284,8.398,7.328,9.576,-2.240,226.021,56.162921,10.203878,60.97
2025-10-13T13:51:41.587387+00:00,11.285,8.673,7.468,9.071,-1.775,230.086,56.162942,10.203936,62.30
2025-10-13T13:51:41.789300+00:00,11.287,9.000,7.612,8.388,-1.295,234.124,56.162949,10.203920,57.55
2025-10-13T13:51:41.991920+00:00,11.288,9.368,7.760,7.534,-0.800,238.176,56.162900,10.203867,59.80
2025-10-13T13:51:42.194048+00:00,11.289,9.762,7.911,6.531,-0.298,242.219,56.162903,10.203893,60.27
2025-10-13T13:51:42.396869+00:00,11.291,10.167,8.063,5.394,0.209,246.275,56.162872,10.203881,58.42
2025-10-13T13:51:42.600849+00:00,11.292,10.567,8.215,4.141,0.717,250.355,56.162852,10.203905,57.55
