ts_iso,batt_v,airspeed_ms,groundspeed_ms,roll_deg,pitch_deg,yaw_deg,lat,lon,alt_m
2025-10-17T14:27:55.229295+00:00,,,,,,,,,
2025-10-17T14:27:55.845344+00:00,,,,,,,,,
2025-10-17T14:27:56.447834+00:00,,,,,,,,,
2025-10-17T14:27:57.063540+00:00,,,,,,,,,
2025-10-17T14:27:58.130293+00:00,,,,,,,,,
2025-10-17T14:27:58.739306+00:00,,,,,,,,,
2025-10-17T14:27:59.342395+00:00,,,,,,,,,
2025-10-17T14:27:59.961251+00:00,11.112,11.160,,4.198,1.523,,,,
2025-10-17T14:28:00.564550+00:00,11.124,11.880,,7.550,2.869,,,,
2025-10-17T14:28:01.185820+00:00,11.137,11.926,,9.610,3.983,,,,
2025-10-17T14:28:01.801286+00:00,11.149,11.262,,9.887,4.712,,,,
2025-10-17T14:28:02.409739+00:00,11.160,10.148,,8.384,4.997,,,,
2025-10-17T14:28:03.029850+00:00,11.172,8.961,,5.314,4.815,,,,
2025-10-17T14:28:03.636699+00:00,11.183,8.172,,1.351,4.192,,,,
2025-10-17T14:28:04.239089+00:00,11.194,8.034,,-2.823,3.195,,,,
2025-10-17T14:28:04.844064+00:00,11.205,8.591,,-6.516,1.904,,,,
2025-10-17T14:28:05.453862+00:00,11.215,9.658,,-9.072,0.428,,,,
2025-10-17T14:28:06.058511+00:00,11.224,10.839,,-9.999,-1.074,,,,
2025-10-17T14:28:06.667021+00:00,11.234,11.726,,-9.151,-2.488,,,,
2025-10-17T14:28:07.271656+00:00,11.242,11.994,,-6.688,-3.666,,,,
2025-10-17T14:28:07.879641+00:00,11.251,11.551,,-3.022,-4.516,,,,
2025-10-17T14:28:08.485207+00:00,11.258,10.556,,1.166,-4.950,,,,
2025-10-17T14:28:09.092038+00:00,11.266,9.361,,5.155,-4.934,,,,
2025-10-17T14:28:09.700789+00:00,11.272,8.392,,8.236,-4.465,,,,
2025-10-17T14:28:10.313334+00:00,11.278,8.001,,9.849,-3.579,,,,
2025-10-17T14:28:10.921152+00:00,11.283,8.331,,9.686,-2.370,,,,
2025-10-17T14:28:11.524711+00:00,11.288,9.251,,7.815,-0.954,,,,
2025-10-17T14:28:12.127126+00:00,11.292,10.433,,4.577,0.545,,,,
2025-10-17T14:28:12.738563+00:00,11.295,11.476,,0.474,2.016,,,,
2025-10-17T14:28:13.349133+00:00,11.297,11.983,,-3.709,3.298,,,,
2025-10-17T14:28:13.957757+00:00,11.299,11.776,,-7.216,4.272,,,,
2025-10-17T14:28:14.561277+00:00,11.300,10.939,,-9.420,4.851,,,,
2025-10-17T14:28:15.170512+00:00,11.300,9.760,,-9.965,4.991,,,,
2025-10-17T14:28:15.776159+00:00,11.299,8.672,,-8.736,4.674,,,,
2025-10-17T14:28:16.382956+00:00,11.298,8.056,,-5.955,3.930,,,,
2025-10-17T14:28:16.991091+00:00,11.296,8.135,,-2.106,2.825,,,,
2025-10-17T14:28:17.599257+00:00,11.294,8.883,,2.119,1.460,,,,
2025-10-17T14:28:18.210251+00:00,11.290,10.037,,5.982,-0.046,,,,
2025-10-17T14:28:18.815843+00:00,11.286,11.169,,8.748,-1.535,,,,
2025-10-17T14:28:19.419173+00:00,11.281,11.883,,9.965,-2.879,,,,
2025-10-17T14:28:20.026700+00:00,11.276,11.931,,9.421,-3.970,,,,
2025-10-17T14:28:20.636066+00:00,11.270,11.284,,7.190,-4.699,,,,
2025-10-17T14:28:21.244617+00:00,11.263,10.177,,3.675,-4.995,,,,
2025-10-17T14:28:21.852742+00:00,11.255,9.007,,-0.493,-4.832,,,,
2025-10-17T14:28:22.462880+00:00,11.248,8.192,,-4.586,-4.224,,,,
2025-10-17T14:28:23.068761+00:00,11.239,8.027,,-7.837,-3.233,,,,
2025-10-17T14:28:23.672101+00:00,11.230,8.561,,-9.694,-1.954,,,,
2025-10-17T14:28:24.278958+00:00,11.221,9.610,,-9.844,-0.489,,,,
2025-10-17T14:28:24.891801+00:00,11.211,10.810,,-8.220,1.034,,,,
2025-10-17T14:28:25.502103+00:00,11.200,11.712,,-5.121,2.456,,,,
2025-10-17T14:28:26.107243+00:00,11.190,11.996,,-1.138,3.642,,,,
2025-10-17T14:28:26.712749+00:00,11.179,11.571,,3.048,4.498,,,,
2025-10-17T14:28:27.320301+00:00,11.167,10.584,,6.706,4.945,,,,
2025-10-17T14:28:27.929337+00:00,11.156,9.385,,9.174,4.939,,,,
2025-10-17T14:28:28.537641+00:00,11.144,8.408,,9.999,4.479,,,,
2025-10-17T14:28:29.141000+00:00,11.132,8.002,,9.053,3.617,,,,
2025-10-17T14:28:29.753407+00:00,11.120,8.312,,6.468,2.408,,,,
2025-10-17T14:28:30.361464+00:00,11.108,9.227,,2.742,0.985,,,,
2025-10-17T14:28:30.964902+00:00,11.096,10.410,,-1.442,-0.516,,,,
2025-10-17T14:28:31.567515+00:00,11.084,11.448,,-5.367,-1.969,,,,
2025-10-17T14:28:32.178746+00:00,11.072,11.977,,-8.384,-3.260,,,,
2025-10-17T14:28:32.789945+00:00,11.060,11.791,,-9.890,-4.250,,,,
2025-10-17T14:28:33.398793+00:00,11.048,10.961,,-9.617,-4.844,,,,
2025-10-17T14:28:34.004693+00:00,11.036,9.791,,-7.637,-4.993,,,,
2025-10-17T14:28:34.611806+00:00,11.025,8.693,,-4.296,-4.686,,,,
2025-10-17T14:28:35.217690+00:00,11.014,8.064,,-0.199,-3.953,,,,
2025-10-17T14:28:35.824705+00:00,11.003,8.124,,3.940,-2.858,,,,
2025-10-17T14:28:36.432789+00:00,10.993,8.857,,7.383,-1.498,,,,
2025-10-17T14:28:37.045670+00:00,10.982,10.009,,9.520,0.011,,,,
2025-10-17T14:28:37.651244+00:00,10.973,11.146,,9.937,1.501,,,,
2025-10-17T14:28:38.258740+00:00,10.964,11.876,,8.587,2.859,,,,
2025-10-17T14:28:38.861752+00:00,10.955,11.938,,5.734,3.948,,,,
2025-10-17T14:28:39.472199+00:00,10.947,11.305,,1.824,4.688,,,,
2025-10-17T14:28:40.083002+00:00,10.939,10.200,,-2.418,4.994,,,,
2025-10-17T14:28:40.686475+00:00,10.932,9.035,,-6.183,4.842,,,,
2025-10-17T14:28:41.294734+00:00,10.926,8.207,,-8.877,4.247,,,,
2025-10-17T14:28:41.905435+00:00,10.920,8.023,,-9.987,3.258,,,,
2025-10-17T14:28:42.510617+00:00,10.915,8.546,,-9.313,1.979,,,,
2025-10-17T14:28:43.113896+00:00,10.911,9.582,,-7.003,0.526,,,,
2025-10-17T14:28:43.720806+00:00,10.907,10.772,,-3.438,-0.984,,,,
2025-10-17T14:28:44.333054+00:00,10.905,11.692,,0.775,-2.416,,,,
2025-10-17T14:28:44.944342+00:00,10.902,11.998,,4.843,-3.621,,,,
2025-10-17T14:28:45.549956+00:00,10.901,11.587,,8.013,-4.484,,,,
2025-10-17T14:28:46.152597+00:00,10.900,10.617,,9.760,-4.939,,,,
2025-10-17T14:28:46.760304+00:00,10.900,9.420,,9.789,-4.946,,,,
2025-10-17T14:28:47.369285+00:00,10.901,8.429,,8.067,-4.499,,,,
2025-10-17T14:28:47.977943+00:00,10.902,8.003,,4.904,-3.638,,,,
2025-10-17T14:28:48.586188+00:00,10.904,8.294,,0.867,-2.444,,,,
2025-10-17T14:28:49.193502+00:00,10.907,9.195,,-3.319,-1.028,,,,
2025-10-17T14:28:49.801255+00:00,10.911,10.385,,-6.916,0.483,,,,
2025-10-17T14:28:50.404640+00:00,10.915,11.430,,-9.269,1.940,,,,
2025-10-17T14:28:51.010927+00:00,10.920,11.972,,-9.992,3.227,,,,
2025-10-17T14:28:51.623878+00:00,10.926,11.805,,-8.921,4.229,,,,
2025-10-17T14:28:52.229677+00:00,10.932,10.993,,-6.272,4.832,,,,
2025-10-17T14:28:52.838048+00:00,10.939,9.823,,-2.494,4.995,,,,
2025-10-17T14:28:53.443456+00:00,10.947,8.721,,1.709,4.702,,,,
2025-10-17T14:28:54.050890+00:00,10.955,8.072,,5.621,3.978,,,,
2025-10-17T14:28:54.656796+00:00,10.963,8.112,,8.527,2.893,,,,
2025-10-17T14:28:55.266130+00:00,10.973,8.830,,9.924,1.537,,,,
2025-10-17T14:28:55.873962+00:00,10.982,9.966,,9.547,0.042,,,,
2025-10-17T14:28:56.486829+00:00,10.992,11.122,,7.443,-1.468,,,,
2025-10-17T14:28:57.093900+00:00,11.003,11.866,,4.028,-2.829,,,,
2025-10-17T14:28:57.697185+00:00,11.013,11.945,,-0.077,-3.926,,,,
2025-10-17T14:28:58.300227+00:00,11.024,11.337,,-4.167,-4.669,,,,
2025-10-17T14:28:58.910369+00:00,11.036,10.244,,-7.559,-4.991,,,,
2025-10-17T14:28:59.521411+00:00,11.048,9.061,,-9.593,-4.851,,,,
2025-10-17T14:29:00.130076+00:00,11.059,8.220,,-9.902,-4.266,,,,
2025-10-17T14:29:00.732867+00:00,11.071,8.017,,-8.462,-3.299,,,,
2025-10-17T14:29:01.342355+00:00,11.083,8.522,,-5.499,-2.020,,,,
2025-10-17T14:29:01.947663+00:00,11.095,9.551,,-1.579,-0.565,,,,
2025-10-17T14:29:02.554581+00:00,11.108,10.743,,2.632,0.945,,,,
2025-10-17T14:29:03.162973+00:00,11.120,11.671,,6.382,2.373,,,,
2025-10-17T14:29:03.770406+00:00,11.132,11.999,,8.990,3.580,,,,
2025-10-17T14:29:04.381412+00:00,11.144,11.608,,9.997,4.464,,,,
2025-10-17T14:29:04.987190+00:00,11.156,10.645,,9.217,4.933,,,,
2025-10-17T14:29:05.589786+00:00,11.167,9.459,,6.821,4.953,,,,
2025-10-17T14:29:06.197384+00:00,11.178,8.456,,3.196,4.522,,,,
2025-10-17T14:29:06.806112+00:00,11.189,8.006,,-1.006,3.675,,,,
2025-10-17T14:29:07.414567+00:00,11.200,8.272,,-5.027,2.490,,,,
2025-10-17T14:29:08.023092+00:00,11.210,9.159,,-8.150,1.077,,,,
2025-10-17T14:29:08.630653+00:00,11.220,10.345,,-9.815,-0.433,,,,
2025-10-17T14:29:09.238687+00:00,11.230,11.409,,-9.730,-1.904,,,,
2025-10-17T14:29:09.842049+00:00,11.239,11.965,,-7.930,-3.192,,,,
2025-10-17T14:29:10.448517+00:00,11.247,11.826,,-4.716,-4.195,,,,
2025-10-17T14:29:11.061443+00:00,11.255,11.024,,-0.620,-4.821,,,,
2025-10-17T14:29:11.667157+00:00,11.263,9.864,,3.541,-4.997,,,,
2025-10-17T14:29:12.276146+00:00,11.269,8.747,,7.091,-4.716,,,,
2025-10-17T14:29:12.881709+00:00,11.276,8.082,,9.364,-4.006,,,,
2025-10-17T14:29:13.488796+00:00,11.281,8.101,,9.978,-2.929,,,,
2025-10-17T14:29:14.102939+00:00,11.286,8.810,,8.794,-1.567,,,,
2025-10-17T14:29:14.710619+00:00,11.290,9.940,,6.046,-0.075,,,,
2025-10-17T14:29:15.317063+00:00,11.293,11.090,,2.228,1.422,,,,
2025-10-17T14:29:15.928779+00:00,11.296,11.855,,-2.021,2.799,,,,
2025-10-17T14:29:16.542744+00:00,11.298,11.947,,-5.918,3.920,,,,
2025-10-17T14:29:17.145405+00:00,11.299,11.344,,-8.700,4.665,,,,
2025-10-17T14:29:17.747902+00:00,11.300,10.268,,-9.956,4.989,,,,
2025-10-17T14:29:18.365554+00:00,11.300,9.070,,-9.433,4.855,,,,
2025-10-17T14:29:18.973826+00:00,11.299,8.225,,-7.219,4.273,,,,
2025-10-17T14:29:19.585338+00:00,11.297,8.018,,-3.696,3.294,,,,
2025-10-17T14:29:20.190947+00:00,11.295,8.520,,0.454,2.022,,,,
2025-10-17T14:29:20.865995+00:00,11.291,9.686,,4.951,0.394,,,,
2025-10-17T14:29:21.473197+00:00,11.287,10.869,,8.093,-1.114,,,,
2025-10-17T14:29:22.085190+00:00,11.283,11.746,,9.802,-2.531,,,,
2025-10-17T14:29:22.693779+00:00,11.277,11.990,,9.744,-3.707,,,,
2025-10-17T14:29:23.300935+00:00,11.271,11.521,,7.951,-4.540,,,,
2025-10-17T14:29:23.911940+00:00,11.265,10.501,,4.719,-4.960,,,,
2025-10-17T14:29:24.517787+00:00,11.258,9.309,,0.674,-4.923,,,,
2025-10-17T14:29:25.120533+00:00,11.250,8.367,,-3.471,-4.440,,,,
2025-10-17T14:29:25.728334+00:00,11.242,8.000,,-7.033,-3.549,,,,
2025-10-17T14:29:26.337025+00:00,11.233,8.350,,-9.342,-2.331,,,,
2025-10-17T14:29:26.945740+00:00,11.223,9.293,,-9.981,-0.898,,,,
2025-10-17T14:29:27.554691+00:00,11.214,10.491,,-8.834,0.618,,,,
2025-10-17T14:29:28.167224+00:00,11.203,11.516,,-6.087,2.085,,,,
2025-10-17T14:29:28.772567+00:00,11.193,11.989,,-2.286,3.345,,,,
2025-10-17T14:29:29.375346+00:00,11.182,11.757,,1.901,4.297,,,,
2025-10-17T14:29:29.990424+00:00,11.170,10.884,,5.825,4.869,,,,
2025-10-17T14:29:30.609877+00:00,11.159,9.679,,8.701,4.984,,,,
2025-10-17T14:29:31.219249+00:00,11.147,8.607,,9.961,4.633,,,,
2025-10-17T14:29:31.821847+00:00,11.135,8.039,,9.450,3.867,,,,
2025-10-17T14:29:32.425713+00:00,11.123,8.163,,7.278,2.749,,,,
2025-10-17T14:29:33.031462+00:00,11.111,8.940,,3.811,1.378,,,,
2025-10-17T14:29:33.640572+00:00,11.099,10.101,,-0.354,-0.126,,,,
2025-10-17T14:29:34.249212+00:00,11.087,11.225,,-4.452,-1.618,,,,
2025-10-17T14:29:34.852216+00:00,11.075,11.905,,-7.730,-2.950,,,,
2025-10-17T14:29:35.464993+00:00,11.063,11.908,,-9.668,-4.030,,,,
2025-10-17T14:29:36.072601+00:00,11.051,11.225,,-9.861,-4.731,,,,
2025-10-17T14:29:36.675908+00:00,11.039,10.111,,-8.313,-4.998,,,,
2025-10-17T14:29:37.283012+00:00,11.028,8.952,,-5.282,-4.811,,,,
2025-10-17T14:29:37.891682+00:00,11.017,8.166,,-1.301,-4.182,,,,
2025-10-17T14:29:38.499939+00:00,11.006,8.039,,2.911,-3.170,,,,
2025-10-17T14:29:39.116685+00:00,10.995,8.627,,6.647,-1.847,,,,
2025-10-17T14:29:39.730267+00:00,10.985,9.715,,9.154,-0.357,,,,
2025-10-17T14:29:40.337850+00:00,10.975,10.896,,9.999,1.151,,,,
2025-10-17T14:29:40.942169+00:00,10.966,11.753,,9.072,2.547,,,,
2025-10-17T14:29:41.546893+00:00,10.957,11.989,,6.544,3.713,,,,
2025-10-17T14:29:42.154692+00:00,10.949,11.516,,2.840,4.545,,,,
2025-10-17T14:29:42.767079+00:00,10.941,10.490,,-1.403,4.962,,,,
2025-10-17T14:29:43.373079+00:00,10.934,9.299,,-5.354,4.920,,,,
2025-10-17T14:29:43.978762+00:00,10.928,8.357,,-8.354,4.430,,,,
2025-10-17T14:29:44.581354+00:00,10.922,8.000,,-9.872,3.543,,,,
2025-10-17T14:29:45.192620+00:00,10.917,8.357,,-9.644,2.317,,,,
2025-10-17T14:29:45.805584+00:00,10.912,9.313,,-7.668,0.873,,,,
2025-10-17T14:29:46.409036+00:00,10.908,10.500,,-4.363,-0.630,,,,
2025-10-17T14:29:47.017560+00:00,10.905,11.517,,-0.255,-2.087,,,,
2025-10-17T14:29:47.626573+00:00,10.903,11.990,,3.901,-3.353,,,,
2025-10-17T14:29:48.232024+00:00,10.901,11.751,,7.343,-4.306,,,,
2025-10-17T14:29:48.835565+00:00,10.900,10.892,,9.481,-4.867,,,,
2025-10-17T14:29:49.441677+00:00,10.900,9.714,,9.949,-4.987,,,,
2025-10-17T14:29:50.054403+00:00,10.901,8.627,,8.631,-4.647,,,,
2025-10-17T14:29:50.665248+00:00,10.902,8.041,,5.759,-3.876,,,,
2025-10-17T14:29:51.271058+00:00,10.904,8.160,,1.886,-2.758,,,,
2025-10-17T14:29:51.874588+00:00,10.907,8.929,,-2.307,-1.394,,,,
2025-10-17T14:29:52.481499+00:00,10.910,10.084,,-6.112,0.105,,,,
2025-10-17T14:29:53.090781+00:00,10.914,11.212,,-8.839,1.599,,,,
2025-10-17T14:29:53.699473+00:00,10.919,11.904,,-9.982,2.945,,,,
2025-10-17T14:29:54.307865+00:00,10.925,11.912,,-9.340,4.020,,,,
2025-10-17T14:29:54.916111+00:00,10.931,11.234,,-7.031,4.726,,,,
2025-10-17T14:29:55.523798+00:00,10.938,10.115,,-3.470,4.998,,,,
2025-10-17T14:29:56.127230+00:00,10.945,8.961,,0.680,4.815,,,,
2025-10-17T14:29:56.733987+00:00,10.953,8.172,,4.731,4.192,,,,
2025-10-17T14:29:57.346290+00:00,10.961,8.038,,7.964,3.176,,,,
2025-10-17T14:29:57.952285+00:00,10.970,8.607,,9.747,1.879,,,,
2025-10-17T14:29:58.560933+00:00,10.980,9.678,,9.799,0.404,,,,
2025-10-17T14:29:59.165947+00:00,10.990,10.858,,8.113,-1.099,,,,
2025-10-17T14:29:59.773651+00:00,11.000,11.736,,4.978,-2.508,,,,
2025-10-17T14:30:00.378951+00:00,11.011,11.993,,0.972,-3.683,,,,
2025-10-17T14:30:00.989037+00:00,11.022,11.536,,-3.238,-4.529,,,,
2025-10-17T14:30:01.597431+00:00,11.033,10.528,,-6.857,-4.956,,,,
2025-10-17T14:30:02.209993+00:00,11.045,9.322,,-9.263,-4.926,,,,
2025-10-17T14:30:02.817611+00:00,11.057,8.369,,-9.992,-4.443,,,,
2025-10-17T14:30:03.421098+00:00,11.068,8.000,,-8.954,-3.560,,,,
2025-10-17T14:30:04.024035+00:00,11.080,8.337,,-6.345,-2.357,,,,
2025-10-17T14:30:04.634697+00:00,11.093,9.274,,-2.570,-0.923,,,,
2025-10-17T14:30:05.245381+00:00,11.105,10.474,,1.668,0.597,,,,
2025-10-17T14:30:05.853839+00:00,11.117,11.500,,5.593,2.057,,,,
2025-10-17T14:30:06.457125+00:00,11.129,11.986,,8.499,3.318,,,,
2025-10-17T14:30:07.066347+00:00,11.141,11.765,,9.917,4.287,,,,
2025-10-17T14:30:07.672152+00:00,11.153,10.915,,9.567,4.859,,,,
2025-10-17T14:30:08.275562+00:00,11.164,9.745,,7.532,4.990,,,,
2025-10-17T14:30:08.881507+00:00,11.176,8.660,,4.157,4.667,,,,
2025-10-17T14:30:09.494310+00:00,11.187,8.050,,-0.002,3.909,,,,
2025-10-17T14:30:10.106096+00:00,11.198,8.148,,-4.155,2.788,,,,
2025-10-17T14:30:10.713809+00:00,11.208,8.912,,-7.538,1.419,,,,
2025-10-17T14:30:11.316841+00:00,11.218,10.055,,-9.569,-0.069,,,,
2025-10-17T14:30:11.924289+00:00,11.228,11.187,,-9.915,-1.561,,,,
2025-10-17T14:30:12.533279+00:00,11.237,11.894,,-8.490,-2.914,,,,
2025-10-17T14:30:13.142160+00:00,11.245,11.921,,-5.546,-3.998,,,,
2025-10-17T14:30:13.750198+00:00,11.253,11.258,,-1.615,-4.713,,,,
2025-10-17T14:30:14.357918+00:00,11.261,10.146,,2.601,-4.997,,,,
2025-10-17T14:30:14.965466+00:00,11.268,8.981,,6.353,-4.822,,,,
2025-10-17T14:30:15.568702+00:00,11.274,8.184,,8.960,-4.212,,,,
2025-10-17T14:30:16.175426+00:00,11.280,8.030,,9.994,-3.215,,,,
2025-10-17T14:30:16.787588+00:00,11.285,8.587,,9.237,-1.912,,,,
2025-10-17T14:30:17.393623+00:00,11.289,9.644,,6.841,-0.446,,,,
2025-10-17T14:30:18.004504+00:00,11.293,10.838,,3.201,1.072,,,,
2025-10-17T14:30:18.609806+00:00,11.296,11.722,,-0.977,2.479,,,,
2025-10-17T14:30:19.217676+00:00,11.298,11.994,,-4.998,3.665,,,,
2025-10-17T14:30:19.823043+00:00,11.299,11.555,,-8.118,4.512,,,,
2025-10-17T14:30:20.429899+00:00,11.300,10.560,,-9.803,4.950,,,,
2025-10-17T14:30:21.038416+00:00,11.300,9.362,,-9.743,4.934,,,,
2025-10-17T14:30:21.650567+00:00,11.299,8.389,,-7.927,4.462,,,,
2025-10-17T14:30:22.258081+00:00,11.298,8.001,,-4.705,3.582,,,,
2025-10-17T14:30:22.861460+00:00,11.295,8.323,,-0.675,2.384,,,,
2025-10-17T14:30:23.464269+00:00,11.292,9.237,,3.471,0.972,,,,
2025-10-17T14:30:24.075600+00:00,11.289,10.437,,7.050,-0.549,,,,
2025-10-17T14:30:24.686218+00:00,11.284,11.477,,9.355,-2.018,,,,
2025-10-17T14:30:25.294876+00:00,11.279,11.983,,9.979,-3.296,,,,
2025-10-17T14:30:25.898125+00:00,11.274,11.782,,8.836,-4.264,,,,
2025-10-17T14:30:26.507135+00:00,11.267,10.941,,6.109,-4.851,,,,
2025-10-17T14:30:27.112749+00:00,11.260,9.769,,2.311,-4.992,,,,
2025-10-17T14:30:27.719595+00:00,11.253,8.678,,-1.904,-4.677,,,,
2025-10-17T14:30:28.327601+00:00,11.245,8.057,,-5.787,-3.934,,,,
2025-10-17T14:30:28.935649+00:00,11.236,8.134,,-8.638,-2.830,,,,
2025-10-17T14:30:29.547198+00:00,11.227,8.885,,-9.950,-1.457,,,,
2025-10-17T14:30:30.155131+00:00,11.217,10.033,,-9.474,0.041,,,,
2025-10-17T14:30:30.758291+00:00,11.207,11.161,,-7.331,1.524,,,,
2025-10-17T14:30:31.365399+00:00,11.197,11.883,,-3.875,2.878,,,,
2025-10-17T14:30:31.976342+00:00,11.186,11.929,,0.297,3.974,,,,
2025-10-17T14:30:32.584806+00:00,11.175,11.282,,4.400,4.701,,,,
2025-10-17T14:30:33.192970+00:00,11.163,10.174,,7.716,4.995,,,,
2025-10-17T14:30:33.803015+00:00,11.152,9.002,,9.658,4.830,,,,
2025-10-17T14:30:34.408706+00:00,11.140,8.193,,9.870,4.225,,,,
2025-10-17T14:30:35.012058+00:00,11.128,8.026,,8.343,3.240,,,,
2025-10-17T14:30:35.618633+00:00,11.116,8.561,,5.331,1.955,,,,
2025-10-17T14:30:36.230829+00:00,11.104,9.620,,1.334,0.477,,,,
2025-10-17T14:30:36.841367+00:00,11.092,10.815,,-2.894,-1.041,,,,
2025-10-17T14:30:37.445027+00:00,11.080,11.707,,-6.565,-2.448,,,,
2025-10-17T14:30:38.049828+00:00,11.068,11.997,,-9.084,-3.635,,,,
2025-10-17T14:30:38.657520+00:00,11.056,11.574,,-10.000,-4.496,,,,
2025-10-17T14:30:39.266112+00:00,11.044,10.586,,-9.130,-4.945,,,,
2025-10-17T14:30:39.874605+00:00,11.032,9.388,,-6.629,-4.940,,,,
2025-10-17T14:30:40.478330+00:00,11.021,8.415,,-2.975,-4.486,,,,
2025-10-17T14:30:41.090445+00:00,11.010,8.002,,1.260,-3.612,,,,
2025-10-17T14:30:41.698820+00:00,10.999,8.310,,5.246,-2.411,,,,
2025-10-17T14:30:42.302685+00:00,10.989,9.217,,8.277,-0.999,,,,
2025-10-17T14:30:42.905321+00:00,10.979,10.398,,9.849,0.500,,,,
2025-10-17T14:30:43.516475+00:00,10.970,11.450,,9.680,1.973,,,,
2025-10-17T14:30:44.127050+00:00,10.961,11.978,,7.768,3.263,,,,
2025-10-17T14:30:44.735932+00:00,10.952,11.792,,4.470,4.248,,,,
2025-10-17T14:30:45.341363+00:00,10.944,10.968,,0.396,4.841,,,,
2025-10-17T14:30:45.948870+00:00,10.937,9.796,,-3.762,4.993,,,,
2025-10-17T14:30:46.554472+00:00,10.930,8.700,,-7.240,4.690,,,,
2025-10-17T14:30:47.161433+00:00,10.924,8.065,,-9.440,3.958,,,,
2025-10-17T14:30:47.769574+00:00,10.919,8.123,,-9.960,2.862,,,,
2025-10-17T14:30:48.382495+00:00,10.914,8.861,,-8.686,1.491,,,,
2025-10-17T14:30:48.988173+00:00,10.910,10.000,,-5.878,0.000,,,,
2025-10-17T14:30:49.593678+00:00,10.906,11.138,,-2.031,-1.490,,,,
2025-10-17T14:30:50.196728+00:00,10.904,11.870,,2.159,-2.841,,,,
2025-10-17T14:30:50.807264+00:00,10.902,11.939,,6.012,-3.946,,,,
2025-10-17T14:30:51.418804+00:00,10.901,11.305,,8.787,-4.687,,,,
2025-10-17T14:30:52.022486+00:00,10.900,10.214,,9.972,-4.993,,,,
2025-10-17T14:30:52.630813+00:00,10.900,9.040,,9.391,-4.844,,,,
2025-10-17T14:30:53.240876+00:00,10.901,8.208,,7.125,-4.248,,,,
2025-10-17T14:30:53.846341+00:00,10.903,8.021,,3.609,-3.269,,,,
2025-10-17T14:30:54.449530+00:00,10.905,8.535,,-0.529,-1.998,,,,
2025-10-17T14:30:55.056185+00:00,10.909,9.573,,-4.597,-0.537,,,,
2025-10-17T14:30:55.668491+00:00,10.912,10.773,,-7.872,0.986,,,,
2025-10-17T14:30:56.294531+00:00,10.917,11.707,,-9.745,2.448,,,,
2025-10-17T14:30:56.900707+00:00,10.922,11.997,,-9.805,3.637,,,,
2025-10-17T14:30:57.503160+00:00,10.928,11.579,,-8.140,4.491,,,,
2025-10-17T14:30:58.110910+00:00,10.935,10.595,,-5.018,4.943,,,,
2025-10-17T14:30:58.719897+00:00,10.942,9.396,,-0.992,4.941,,,,
2025-10-17T14:30:59.328396+00:00,10.950,8.414,,3.208,4.485,,,,
2025-10-17T14:30:59.937068+00:00,10.958,8.002,,6.836,3.617,,,,
2025-10-17T14:31:00.544112+00:00,10.967,8.306,,9.237,2.420,,,,
2025-10-17T14:31:01.152179+00:00,10.976,9.217,,9.995,0.999,,,,
2025-10-17T14:31:01.755701+00:00,10.986,10.399,,8.983,-0.502,,,,
2025-10-17T14:31:02.358678+00:00,10.996,11.440,,6.395,-1.956,,,,
2025-10-17T14:31:02.970234+00:00,11.006,11.976,,2.626,-3.251,,,,
2025-10-17T14:31:03.581056+00:00,11.017,11.796,,-1.611,-4.243,,,,
2025-10-17T14:31:04.189788+00:00,11.029,10.970,,-5.547,-4.841,,,,
2025-10-17T14:31:04.795246+00:00,11.040,9.802,,-8.478,-4.994,,,,
2025-10-17T14:31:05.402194+00:00,11.052,8.702,,-9.910,-4.692,,,,
2025-10-17T14:31:06.007910+00:00,11.064,8.067,,-9.583,-3.963,,,,
2025-10-17T14:31:06.614816+00:00,11.076,8.120,,-7.553,-2.871,,,,
2025-10-17T14:31:07.222958+00:00,11.088,8.846,,-4.172,-1.513,,,,
2025-10-17T14:31:07.836220+00:00,11.100,9.997,,-0.011,-0.004,,,,
2025-10-17T14:31:08.441587+00:00,11.112,11.135,,4.102,1.487,,,,
2025-10-17T14:31:09.047019+00:00,11.124,11.871,,7.489,2.842,,,,
2025-10-17T14:31:09.650101+00:00,11.136,11.942,,9.547,3.936,,,,
2025-10-17T14:31:10.260312+00:00,11.148,11.317,,9.922,4.680,,,,
2025-10-17T14:31:10.871255+00:00,11.160,10.216,,8.512,4.993,,,,
2025-10-17T14:31:11.474714+00:00,11.171,9.049,,5.612,4.847,,,,
2025-10-17T14:31:12.083081+00:00,11.182,8.214,,1.691,4.258,,,,
2025-10-17T14:31:12.693027+00:00,11.193,8.020,,-2.542,3.274,,,,
2025-10-17T14:31:13.298814+00:00,11.204,8.535,,-6.296,1.998,,,,
2025-10-17T14:31:13.902212+00:00,11.214,9.566,,-8.928,0.546,,,,
2025-10-17T14:31:14.508741+00:00,11.224,10.756,,-9.991,-0.963,,,,
2025-10-17T14:31:15.120990+00:00,11.233,11.683,,-9.265,-2.397,,,,
2025-10-17T14:31:15.731810+00:00,11.242,11.998,,-6.871,-3.605,,,,
2025-10-17T14:31:16.337601+00:00,11.250,11.597,,-3.272,-4.475,,,,
2025-10-17T14:31:16.940392+00:00,11.258,10.633,,0.885,-4.935,,,,
2025-10-17T14:31:17.547884+00:00,11.265,9.437,,4.915,-4.949,,,,
2025-10-17T14:31:18.156889+00:00,11.272,8.440,,8.076,-4.508,,,,
2025-10-17T14:31:18.765650+00:00,11.278,8.005,,9.792,-3.653,,,,
2025-10-17T14:31:19.374078+00:00,11.283,8.285,,9.756,-2.463,,,,
2025-10-17T14:31:19.981434+00:00,11.287,9.179,,7.982,-1.049,,,,
2025-10-17T14:31:20.589020+00:00,11.291,10.368,,4.785,0.461,,,,
2025-10-17T14:31:21.192529+00:00,11.294,11.418,,0.764,1.920,,,,
2025-10-17T14:31:21.798551+00:00,11.297,11.969,,-3.408,3.210,,,,
2025-10-17T14:31:22.411215+00:00,11.299,11.813,,-7.008,4.217,,,,
2025-10-17T14:31:23.017002+00:00,11.300,11.009,,-9.323,4.826,,,,
2025-10-17T14:31:23.625237+00:00,11.300,9.841,,-9.985,4.996,,,,
2025-10-17T14:31:24.230899+00:00,11.300,8.735,,-8.872,4.710,,,,
2025-10-17T14:31:24.838091+00:00,11.298,8.077,,-6.180,3.992,,,,
2025-10-17T14:31:25.443618+00:00,11.296,8.106,,-2.400,2.913,,,,
2025-10-17T14:31:26.050651+00:00,11.294,8.811,,1.816,1.565,,,,
2025-10-17T14:31:26.658571+00:00,11.290,9.942,,5.713,0.072,,,,
2025-10-17T14:31:27.271374+00:00,11.286,11.103,,8.609,-1.439,,,,
2025-10-17T14:31:27.878413+00:00,11.282,11.857,,9.941,-2.805,,,,
2025-10-17T14:31:28.481600+00:00,11.276,11.950,,9.513,-3.908,,,,
2025-10-17T14:31:29.084755+00:00,11.270,11.355,,7.414,-4.658,,,,
2025-10-17T14:31:29.695395+00:00,11.263,10.266,,3.965,-4.989,,,,
2025-10-17T14:31:30.306264+00:00,11.256,9.081,,-0.199,-4.858,,,,
2025-10-17T14:31:30.916095+00:00,11.248,8.229,,-4.321,-4.279,,,,
2025-10-17T14:31:31.518983+00:00,11.240,8.014,,-7.636,-3.319,,,,
2025-10-17T14:31:32.128842+00:00,11.231,8.508,,-9.624,-2.043,,,,
2025-10-17T14:31:32.734347+00:00,11.221,9.532,,-9.889,-0.589,,,,
2025-10-17T14:31:33.341092+00:00,11.211,10.724,,-8.400,0.921,,,,
2025-10-17T14:31:33.949640+00:00,11.201,11.660,,-5.407,2.351,,,,
2025-10-17T14:31:34.556932+00:00,11.191,12.000,,-1.457,3.563,,,,
2025-10-17T14:31:35.168175+00:00,11.179,11.620,,2.780,4.453,,,,
2025-10-17T14:31:35.773734+00:00,11.168,10.664,,6.485,4.929,,,,
2025-10-17T14:31:36.376604+00:00,11.157,9.477,,9.034,4.956,,,,
2025-10-17T14:31:36.984348+00:00,11.145,8.469,,9.998,4.532,,,,
2025-10-17T14:31:37.593072+00:00,11.133,8.008,,9.178,3.691,,,,
2025-10-17T14:31:38.201745+00:00,11.121,8.263,,6.716,2.510,,,,
2025-10-17T14:31:38.810259+00:00,11.109,9.142,,3.055,1.100,,,,
2025-10-17T14:31:39.419501+00:00,11.097,10.330,,-1.158,-0.414,,,,
2025-10-17T14:31:40.025264+00:00,11.085,11.394,,-5.142,-1.881,,,,
2025-10-17T14:31:40.628958+00:00,11.073,11.962,,-8.207,-3.173,,,,
2025-10-17T14:31:41.235331+00:00,11.061,11.834,,-9.832,-4.182,,,,
2025-10-17T14:31:41.848188+00:00,11.049,11.041,,-9.701,-4.814,,,,
2025-10-17T14:31:42.460886+00:00,11.037,9.869,,-7.812,-4.997,,,,
2025-10-17T14:31:43.064147+00:00,11.026,8.760,,-4.567,-4.723,,,,
2025-10-17T14:31:43.669611+00:00,11.015,8.087,,-0.505,-4.019,,,,
2025-10-17T14:31:44.276981+00:00,11.004,8.096,,3.660,-2.946,,,,
2025-10-17T14:31:44.885762+00:00,10.993,8.788,,7.179,-1.599,,,,
2025-10-17T14:31:45.494487+00:00,10.983,9.915,,9.415,-0.106,,,,
2025-10-17T14:31:46.097656+00:00,10.974,11.064,,9.969,1.383,,,,
2025-10-17T14:31:46.710412+00:00,10.964,11.844,,8.741,2.768,,,,
2025-10-17T14:31:47.317918+00:00,10.956,11.956,,5.958,3.887,,,,
2025-10-17T14:31:47.921001+00:00,10.948,11.374,,2.144,4.646,,,,
2025-10-17T14:31:48.524088+00:00,10.940,10.308,,-2.046,4.985,,,,
2025-10-17T14:31:49.134874+00:00,10.933,9.119,,-5.920,4.870,,,,
2025-10-17T14:31:49.745821+00:00,10.927,8.248,,-8.730,4.305,,,,
2025-10-17T14:31:50.354700+00:00,10.921,8.011,,-9.965,3.344,,,,
2025-10-17T14:31:50.959654+00:00,10.916,8.484,,-9.427,2.085,,,,
2025-10-17T14:31:51.567907+00:00,10.911,9.501,,-7.207,0.629,,,,
2025-10-17T14:31:52.173163+00:00,10.908,10.691,,-3.720,-0.878,,,,
2025-10-17T14:31:52.779924+00:00,10.905,11.638,,0.435,-2.308,,,,
2025-10-17T14:31:53.388506+00:00,10.902,12.000,,4.525,-3.531,,,,
2025-10-17T14:31:54.000746+00:00,10.901,11.640,,7.822,-4.434,,,,
2025-10-17T14:31:54.606497+00:00,10.900,10.696,,9.692,-4.921,,,,
2025-10-17T14:31:55.214243+00:00,10.900,9.500,,9.844,-4.960,,,,
2025-10-17T14:31:55.816991+00:00,10.901,8.491,,8.261,-4.550,,,,
2025-10-17T14:31:56.428030+00:00,10.902,8.011,,5.179,-3.715,,,,
2025-10-17T14:31:57.040898+00:00,10.904,8.253,,1.151,-2.533,,,,
2025-10-17T14:31:57.644249+00:00,10.907,9.114,,-3.022,-1.138,,,,
2025-10-17T14:31:58.252679+00:00,10.911,10.298,,-6.690,0.373,,,,
2025-10-17T14:31:58.861830+00:00,10.915,11.376,,-9.165,1.851,,,,
2025-10-17T14:31:59.467385+00:00,10.920,11.957,,-9.999,3.152,,,,
2025-10-17T14:32:00.070932+00:00,10.926,11.845,,-9.069,4.163,,,,
2025-10-17T14:32:00.677174+00:00,10.932,11.075,,-6.530,4.800,,,,
2025-10-17T14:32:01.290032+00:00,10.939,9.910,,-2.788,4.999,,,,
2025-10-17T14:32:01.900207+00:00,10.946,8.781,,1.440,4.734,,,,
2025-10-17T14:32:02.504114+00:00,10.954,8.096,,5.373,4.041,,,,
2025-10-17T14:32:03.109577+00:00,10.963,8.086,,8.366,2.980,,,,
2025-10-17T14:32:03.717046+00:00,10.972,8.759,,9.881,1.643,,,,
2025-10-17T14:32:04.325808+00:00,10.981,9.879,,9.633,0.152,,,,
2025-10-17T14:32:04.934774+00:00,10.991,11.042,,7.662,-1.354,,,,
2025-10-17T14:32:05.537741+00:00,11.002,11.827,,4.357,-2.722,,,,
2025-10-17T14:32:06.150485+00:00,11.013,11.963,,0.219,-3.860,,,,
2025-10-17T14:32:06.758137+00:00,11.024,11.392,,-3.926,-4.634,,,,
2025-10-17T14:32:07.361251+00:00,11.035,10.332,,-7.350,-4.983,,,,
2025-10-17T14:32:07.964652+00:00,11.047,9.154,,-9.484,-4.881,,,,
2025-10-17T14:32:08.575306+00:00,11.058,8.268,,-9.945,-4.330,,,,
2025-10-17T14:32:09.186172+00:00,11.070,8.008,,-8.616,-3.378,,,,
2025-10-17T14:32:09.794842+00:00,11.083,8.465,,-5.748,-2.118,,,,
2025-10-17T14:32:10.399874+00:00,11.095,9.467,,-1.877,-0.672,,,,
2025-10-17T14:32:11.007279+00:00,11.107,10.662,,2.341,0.840,,,,
2025-10-17T14:32:11.612789+00:00,11.119,11.619,,6.133,2.271,,,,
2025-10-17T14:32:12.219388+00:00,11.131,12.000,,8.842,3.498,,,,
2025-10-17T14:32:12.827850+00:00,11.143,11.665,,9.982,4.408,,,,
2025-10-17T14:32:13.440253+00:00,11.155,10.725,,9.328,4.914,,,,
2025-10-17T14:32:14.046259+00:00,11.166,9.534,,7.018,4.966,,,,
2025-10-17T14:32:14.652057+00:00,11.178,8.510,,3.466,4.565,,,,
2025-10-17T14:32:15.254830+00:00,11.189,8.016,,-0.680,3.753,,,,
2025-10-17T14:32:15.866156+00:00,11.199,8.230,,-4.759,2.585,,,,
2025-10-17T14:32:16.476357+00:00,11.210,9.083,,-7.975,1.180,,,,
2025-10-17T14:32:17.080350+00:00,11.220,10.254,,-9.748,-0.318,,,,
2025-10-17T14:32:17.689110+00:00,11.229,11.343,,-9.798,-1.799,,,,
2025-10-17T14:32:18.298270+00:00,11.238,11.949,,-8.094,-3.115,,,,
2025-10-17T14:32:18.904181+00:00,11.247,11.857,,-4.960,-4.140,,,,
2025-10-17T14:32:19.507545+00:00,11.255,11.108,,-0.966,-4.786,,,,
2025-10-17T14:32:20.113877+00:00,11.262,9.961,,3.219,-5.000,,,,
2025-10-17T14:32:20.726895+00:00,11.269,8.818,,6.866,-4.752,,,,
2025-10-17T14:32:21.337674+00:00,11.275,8.106,,9.263,-4.065,,,,
2025-10-17T14:32:21.943095+00:00,11.281,8.077,,9.993,-3.012,,,,
2025-10-17T14:32:22.546148+00:00,11.285,8.727,,8.963,-1.691,,,,
2025-10-17T14:32:23.153440+00:00,11.290,9.835,,6.336,-0.207,,,,
2025-10-17T14:32:23.762651+00:00,11.293,11.005,,2.568,1.301,,,,
2025-10-17T14:32:24.371368+00:00,11.296,11.813,,-1.656,2.688,,,,
2025-10-17T14:32:24.979377+00:00,11.298,11.970,,-5.580,3.827,,,,
2025-10-17T14:32:25.587572+00:00,11.299,11.421,,-8.509,4.615,,,,
2025-10-17T14:32:26.195071+00:00,11.300,10.363,,-9.918,4.979,,,,
2025-10-17T14:32:26.800693+00:00,11.300,9.179,,-9.565,4.889,,,,
2025-10-17T14:32:27.407151+00:00,11.299,8.286,,-7.514,4.352,,,,
2025-10-17T14:32:28.019519+00:00,11.297,8.005,,-4.091,3.408,,,,
2025-10-17T14:32:28.625396+00:00,11.295,8.441,,0.026,2.161,,,,
2025-10-17T14:32:29.234019+00:00,11.292,9.437,,4.156,0.711,,,,
2025-10-17T14:32:29.839121+00:00,11.288,10.629,,7.528,-0.796,,,,
2025-10-17T14:32:30.446917+00:00,11.284,11.600,,9.573,-2.237,,,,
2025-10-17T14:32:31.052601+00:00,11.279,11.999,,9.914,-3.469,,,,
2025-10-17T14:32:31.662897+00:00,11.273,11.681,,8.483,-4.390,,,,
2025-10-17T14:32:32.271526+00:00,11.266,10.759,,5.536,-4.906,,,,
2025-10-17T14:32:32.884463+00:00,11.259,9.556,,1.570,-4.969,,,,
2025-10-17T14:32:33.491974+00:00,11.251,8.523,,-2.645,-4.574,,,,
2025-10-17T14:32:34.095508+00:00,11.243,8.019,,-6.366,-3.768,,,,
2025-10-17T14:32:34.698162+00:00,11.235,8.214,,-8.966,-2.623,,,,
2025-10-17T14:32:35.309303+00:00,11.225,9.053,,-9.995,-1.220,,,,
2025-10-17T14:32:35.920184+00:00,11.216,10.235,,-9.224,0.294,,,,
2025-10-17T14:32:36.528857+00:00,11.206,11.328,,-6.803,1.776,,,,
2025-10-17T14:32:37.132446+00:00,11.195,11.942,,-3.199,3.085,,,,
2025-10-17T14:32:37.741751+00:00,11.184,11.866,,1.007,4.123,,,,
2025-10-17T14:32:38.347299+00:00,11.173,11.124,,5.010,4.779,,,,
2025-10-17T14:32:38.954310+00:00,11.162,9.979,,8.132,5.000,,,,
2025-10-17T14:32:39.562216+00:00,11.150,8.841,,9.809,4.763,,,,
2025-10-17T14:32:40.170091+00:00,11.138,8.118,,9.737,4.090,,,,
2025-10-17T14:32:40.781031+00:00,11.126,8.070,,7.915,3.035,,,,
2025-10-17T14:32:41.386638+00:00,11.114,8.713,,4.700,1.712,,,,
2025-10-17T14:32:41.989821+00:00,11.102,9.809,,0.670,0.239,,,,
2025-10-17T14:32:42.596828+00:00,11.090,10.978,,-3.503,-1.264,,,,
2025-10-17T14:32:43.206232+00:00,11.078,11.801,,-7.064,-2.657,,,,
2025-10-17T14:32:43.814923+00:00,11.066,11.975,,-9.358,-3.804,,,,
2025-10-17T14:32:44.423141+00:00,11.054,11.440,,-9.979,-4.601,,,,
2025-10-17T14:32:45.033356+00:00,11.042,10.385,,-8.811,-4.977,,,,
2025-10-17T14:32:45.638617+00:00,11.030,9.200,,-6.088,-4.895,,,,
2025-10-17T14:32:46.242020+00:00,11.019,8.301,,-2.300,-4.370,,,,
2025-10-17T14:32:46.848783+00:00,11.008,8.003,,1.914,-3.445,,,,
2025-10-17T14:32:47.461099+00:00,10.998,8.424,,5.820,-2.192,,,,
2025-10-17T14:32:48.072263+00:00,10.987,9.416,,8.670,-0.739,,,,
2025-10-17T14:32:48.675755+00:00,10.978,10.604,,9.951,0.764,,,,
2025-10-17T14:32:49.280700+00:00,10.968,11.581,,9.479,2.202,,,,
2025-10-17T14:32:49.888422+00:00,10.959,11.997,,7.320,3.444,,,,
2025-10-17T14:32:50.497130+00:00,10.951,11.697,,3.849,4.372,,,,
2025-10-17T14:32:51.105449+00:00,10.943,10.788,,-0.307,4.898,,,,
2025-10-17T14:32:51.708920+00:00,10.936,9.606,,-4.378,4.975,,,,
2025-10-17T14:32:52.321121+00:00,10.929,8.550,,-7.718,4.595,,,,
2025-10-17T14:32:52.929098+00:00,10.923,8.023,,-9.655,3.794,,,,
2025-10-17T14:32:53.532462+00:00,10.918,8.200,,-9.874,2.655,,,,
2025-10-17T14:32:54.135245+00:00,10.913,9.012,,-8.360,1.278,,,,
2025-10-17T14:32:54.746180+00:00,10.909,10.188,,-5.332,-0.235,,,,
2025-10-17T14:32:55.357185+00:00,10.906,11.296,,-1.343,-1.727,,,,
2025-10-17T14:32:55.965824+00:00,10.903,11.934,,2.873,-3.053,,,,
2025-10-17T14:32:56.571257+00:00,10.901,11.880,,6.557,-4.095,,,,
2025-10-17T14:32:57.178585+00:00,10.900,11.154,,9.088,-4.765,,,,
2025-10-17T14:32:57.784198+00:00,10.900,10.019,,10.000,-5.000,,,,
2025-10-17T14:32:58.391183+00:00,10.900,8.875,,9.138,-4.778,,,,
2025-10-17T14:32:58.999356+00:00,10.901,8.132,,6.644,-4.119,,,,
2025-10-17T14:32:59.612255+00:00,10.903,8.061,,2.933,-3.071,,,,
2025-10-17T14:33:00.217880+00:00,10.906,8.685,,-1.259,-1.755,,,,
2025-10-17T14:33:00.825501+00:00,10.909,9.781,,-5.240,-0.274,,,,
2025-10-17T14:33:01.428709+00:00,10.913,10.947,,-8.270,1.221,,,,
2025-10-17T14:33:02.039071+00:00,10.918,11.786,,-9.856,2.622,,,,
2025-10-17T14:33:02.650052+00:00,10.923,11.979,,-9.669,3.781,,,,
2025-10-17T14:33:03.253820+00:00,10.929,11.466,,-7.772,4.583,,,,
2025-10-17T14:33:03.862221+00:00,10.936,10.426,,-4.478,4.971,,,,
2025-10-17T14:33:04.472477+00:00,10.943,9.229,,-0.372,4.902,,,,
2025-10-17T14:33:05.077620+00:00,10.951,8.316,,3.769,4.387,,,,
2025-10-17T14:33:05.680919+00:00,10.959,8.001,,7.234,3.476,,,,
2025-10-17T14:33:06.287532+00:00,10.968,8.396,,9.436,2.244,,,,
2025-10-17T14:33:06.899651+00:00,10.977,9.373,,9.959,0.793,,,,
2025-10-17T14:33:07.510805+00:00,10.987,10.577,,8.684,-0.729,,,,
2025-10-17T14:33:08.116602+00:00,10.997,11.564,,5.874,-2.171,,,,
2025-10-17T14:33:08.719216+00:00,11.008,11.995,,2.046,-3.410,,,,
2025-10-17T14:33:09.327228+00:00,11.019,11.717,,-2.178,-4.348,,,,
2025-10-17T14:33:09.936138+00:00,11.030,10.822,,-6.018,-4.888,,,,
2025-10-17T14:33:10.547020+00:00,11.042,9.628,,-8.788,-4.978,,,,
2025-10-17T14:33:11.155225+00:00,11.054,8.572,,-9.974,-4.610,,,,
2025-10-17T14:33:11.762605+00:00,11.065,8.028,,-9.382,-3.820,,,,
2025-10-17T14:33:12.370517+00:00,11.077,8.190,,-7.116,-2.679,,,,
2025-10-17T14:33:12.973830+00:00,11.089,8.993,,-3.611,-1.304,,,,
2025-10-17T14:33:13.580074+00:00,11.102,10.157,,0.549,0.196,,,,
2025-10-17T14:33:14.193008+00:00,11.114,11.275,,4.653,1.694,,,,
2025-10-17T14:33:14.800231+00:00,11.126,11.926,,7.889,3.023,,,,
2025-10-17T14:33:15.409025+00:00,11.138,11.888,,9.724,4.078,,,,
2025-10-17T14:33:16.014358+00:00,11.150,11.176,,9.823,4.755,,,,
2025-10-17T14:33:16.621382+00:00,11.161,10.044,,8.179,5.000,,,,
2025-10-17T14:33:17.226922+00:00,11.173,8.898,,5.088,4.788,,,,
2025-10-17T14:33:17.833919+00:00,11.184,8.143,,1.087,4.140,,,,
2025-10-17T14:33:18.442073+00:00,11.195,8.052,,-3.115,3.110,,,,
2025-10-17T14:33:19.055087+00:00,11.205,8.667,,-6.786,1.784,,,,
2025-10-17T14:33:19.662399+00:00,11.216,9.756,,-9.211,0.306,,,,
2025-10-17T14:33:20.265534+00:00,11.225,10.925,,-9.997,-1.190,,,,
2025-10-17T14:33:20.868594+00:00,11.234,11.768,,-9.028,-2.579,,,,
2025-10-17T14:33:21.478975+00:00,11.243,11.985,,-6.434,-3.747,,,,
2025-10-17T14:33:22.089713+00:00,11.251,11.485,,-2.681,-4.569,,,,
2025-10-17T14:33:22.698503+00:00,11.259,10.452,,1.541,-4.968,,,,
2025-10-17T14:33:23.301569+00:00,11.266,9.267,,5.454,-4.912,,,,
2025-10-17T14:33:23.911498+00:00,11.273,8.333,,8.435,-4.406,,,,
2025-10-17T14:33:24.517064+00:00,11.278,8.000,,9.898,-3.500,,,,
2025-10-17T14:33:25.123796+00:00,11.284,8.380,,9.606,-2.274,,,,
2025-10-17T14:33:25.732480+00:00,11.288,9.342,,7.599,-0.835,,,,
2025-10-17T14:33:26.339647+00:00,11.292,10.537,,4.242,0.677,,,,
2025-10-17T14:33:26.950877+00:00,11.295,11.545,,0.102,2.136,,,,
2025-10-17T14:33:27.556927+00:00,11.297,11.993,,-4.023,3.388,,,,
2025-10-17T14:33:28.159449+00:00,11.299,11.735,,-7.418,4.327,,,,
2025-10-17T14:33:28.767112+00:00,11.300,10.856,,-9.524,4.878,,,,
2025-10-17T14:33:29.375995+00:00,11.300,9.669,,-9.932,4.983,,,,
2025-10-17T14:33:29.984633+00:00,11.299,8.600,,-8.564,4.629,,,,
2025-10-17T14:33:30.593332+00:00,11.298,8.035,,-5.664,3.850,,,,
2025-10-17T14:33:31.202793+00:00,11.296,8.176,,-1.746,2.716,,,,
2025-10-17T14:33:31.808436+00:00,11.293,8.967,,2.459,1.340,,,,
2025-10-17T14:33:32.411921+00:00,11.290,10.122,,6.217,-0.152,,,,
2025-10-17T14:33:33.018562+00:00,11.286,11.238,,8.892,-1.638,,,,
2025-10-17T14:33:33.631992+00:00,11.281,11.917,,9.989,-2.988,,,,
2025-10-17T14:33:34.242316+00:00,11.275,11.898,,9.282,-4.054,,,,
2025-10-17T14:33:34.845742+00:00,11.269,11.206,,6.940,-4.741,,,,
2025-10-17T14:33:35.451086+00:00,11.262,10.083,,3.366,-4.999,,,,
2025-10-17T14:33:36.058243+00:00,11.255,8.928,,-0.816,-4.801,,,,
2025-10-17T14:33:36.667235+00:00,11.247,8.155,,-4.865,-4.162,,,,
2025-10-17T14:33:37.276000+00:00,11.238,8.045,,-8.041,-3.141,,,,
2025-10-17T14:33:37.878985+00:00,11.229,8.629,,-9.771,-1.844,,,,
2025-10-17T14:33:38.492154+00:00,11.220,9.717,,-9.770,-0.355,,,,
2025-10-17T14:33:39.099530+00:00,11.210,10.897,,-8.022,1.153,,,,
2025-10-17T14:33:39.702863+00:00,11.200,11.753,,-4.870,2.546,,,,
2025-10-17T14:33:40.305624+00:00,11.189,11.990,,-0.866,3.709,,,,
2025-10-17T14:33:40.916705+00:00,11.178,11.515,,3.345,4.546,,,,
2025-10-17T14:33:41.527520+00:00,11.167,10.492,,6.952,4.962,,,,
2025-10-17T14:33:42.138611+00:00,11.155,9.290,,9.307,4.918,,,,
2025-10-17T14:33:42.743592+00:00,11.143,8.353,,9.988,4.426,,,,
2025-10-17T14:33:43.351296+00:00,11.131,8.000,,8.895,3.527,,,,
2025-10-17T14:33:43.956782+00:00,11.119,8.361,,6.229,2.310,,,,
2025-10-17T14:33:44.563215+00:00,11.107,9.306,,2.454,0.881,,,,
2025-10-17T14:33:45.171710+00:00,11.095,10.503,,-1.770,-0.634,,,,
2025-10-17T14:33:45.784242+00:00,11.083,11.524,,-5.702,-2.100,,,,
2025-10-17T14:33:46.390114+00:00,11.071,11.990,,-8.577,-3.358,,,,
2025-10-17T14:33:46.995647+00:00,11.059,11.748,,-9.933,-4.310,,,,
2025-10-17T14:33:47.598228+00:00,11.047,10.889,,-9.536,-4.868,,,,
2025-10-17T14:33:48.209135+00:00,11.035,9.701,,-7.429,-4.986,,,,
2025-10-17T14:33:48.820211+00:00,11.024,8.620,,-3.983,-4.642,,,,
2025-10-17T14:33:49.423562+00:00,11.013,8.042,,0.127,-3.881,,,,
2025-10-17T14:33:50.032221+00:00,11.002,8.160,,4.248,-2.758,,,,
2025-10-17T14:33:50.641391+00:00,10.992,8.939,,7.612,-1.380,,,,
2025-10-17T14:33:51.246831+00:00,10.982,10.092,,9.605,0.115,,,,
2025-10-17T14:33:51.850327+00:00,10.972,11.210,,9.901,1.596,,,,
2025-10-17T14:33:52.456625+00:00,10.963,11.902,,8.446,2.938,,,,
2025-10-17T14:33:53.069383+00:00,10.954,11.912,,5.454,4.021,,,,
2025-10-17T14:33:53.680237+00:00,10.946,11.229,,1.487,4.729,,,,
2025-10-17T14:33:54.285855+00:00,10.939,10.113,,-2.712,4.998,,,,
2025-10-17T14:33:54.889188+00:00,10.932,8.960,,-6.419,4.814,,,,
2025-10-17T14:33:55.496182+00:00,10.926,8.171,,-9.009,4.191,,,,
2025-10-17T14:33:56.105377+00:00,10.920,8.037,,-9.997,3.180,,,,
2025-10-17T14:33:56.714119+00:00,10.915,8.608,,-9.196,1.877,,,,
2025-10-17T14:33:57.322568+00:00,10.911,9.679,,-6.752,0.403,,,,
2025-10-17T14:33:57.930734+00:00,10.907,10.864,,-3.103,-1.108,,,,
2025-10-17T14:33:58.538227+00:00,10.904,11.739,,1.095,-2.516,,,,
2025-10-17T14:33:59.141442+00:00,10.902,11.992,,5.073,-3.686,,,,
2025-10-17T14:33:59.747991+00:00,10.901,11.538,,8.172,-4.526,,,,
2025-10-17T14:34:00.360326+00:00,10.900,10.524,,9.828,-4.956,,,,
2025-10-17T14:34:00.966430+00:00,10.900,9.331,,9.716,-4.928,,,,
2025-10-17T14:34:01.575062+00:00,10.901,8.374,,7.871,-4.447,,,,
2025-10-17T14:34:02.180466+00:00,10.902,8.000,,4.638,-3.563,,,,
2025-10-17T14:34:02.788462+00:00,10.905,8.341,,0.567,-2.350,,,,
2025-10-17T14:34:03.393780+00:00,10.908,9.271,,-3.589,-0.928,,,,
2025-10-17T14:34:04.001006+00:00,10.911,10.464,,-7.118,0.584,,,,
2025-10-17T14:34:04.609397+00:00,10.916,11.492,,-9.384,2.044,,,,
2025-10-17T14:34:05.221847+00:00,10.921,11.987,,-9.971,3.325,,,,
2025-10-17T14:34:05.829185+00:00,10.926,11.763,,-8.771,4.289,,,,
2025-10-17T14:34:06.432694+00:00,10.933,10.916,,-6.030,4.859,,,,
2025-10-17T14:34:07.035385+00:00,10.940,9.747,,-2.235,4.990,,,,
2025-10-17T14:34:07.646334+00:00,10.947,8.655,,2.009,4.664,,,,
2025-10-17T14:34:08.257112+00:00,10.955,8.049,,5.890,3.906,,,,
2025-10-17T14:34:08.865584+00:00,10.964,8.147,,8.702,2.791,,,,
2025-10-17T14:34:09.468865+00:00,10.973,8.902,,9.957,1.433,,,,
2025-10-17T14:34:10.078085+00:00,10.983,10.056,,9.448,-0.070,,,,
2025-10-17T14:34:10.683389+00:00,10.993,11.183,,7.266,-1.557,,,,
2025-10-17T14:34:11.292260+00:00,11.003,11.893,,3.776,-2.909,,,,
2025-10-17T14:34:11.900262+00:00,11.014,11.923,,-0.384,-3.993,,,,
2025-10-17T14:34:12.508353+00:00,11.025,11.263,,-4.476,-4.711,,,,
2025-10-17T14:34:13.119138+00:00,11.037,10.145,,-7.781,-4.997,,,,
2025-10-17T14:34:13.726966+00:00,11.048,8.980,,-9.680,-4.822,,,,
2025-10-17T14:34:14.330246+00:00,11.060,8.184,,-9.858,-4.212,,,,
2025-10-17T14:34:14.937553+00:00,11.072,8.031,,-8.289,-3.213,,,,
2025-10-17T14:34:15.546740+00:00,11.084,8.584,,-5.232,-1.916,,,,
2025-10-17T14:34:16.155674+00:00,11.096,9.646,,-1.241,-0.444,,,,
2025-10-17T14:34:16.763780+00:00,11.109,10.834,,2.967,1.068,,,,
2025-10-17T14:34:17.373594+00:00,11.121,11.725,,6.655,2.485,,,,
2025-10-17T14:34:17.979248+00:00,11.133,11.994,,9.136,3.666,,,,
2025-10-17T14:34:18.582468+00:00,11.145,11.557,,10.000,4.510,,,,
2025-10-17T14:34:19.189350+00:00,11.156,10.564,,9.096,4.949,,,,
2025-10-17T14:34:19.801416+00:00,11.168,9.359,,6.548,4.934,,,,
2025-10-17T14:34:20.414068+00:00,11.179,8.386,,2.813,4.459,,,,
2025-10-17T14:34:21.017515+00:00,11.190,8.001,,-1.369,3.585,,,,
2025-10-17T14:34:21.622331+00:00,11.201,8.323,,-5.317,2.385,,,,
2025-10-17T14:34:22.229899+00:00,11.211,9.246,,-8.338,0.961,,,,
2025-10-17T14:34:22.838529+00:00,11.221,10.440,,-9.874,-0.554,,,,
2025-10-17T14:34:23.446953+00:00,11.231,11.476,,-9.645,-2.017,,,,
2025-10-17T14:34:24.050365+00:00,11.239,11.981,,-7.716,-3.285,,,,
2025-10-17T14:34:24.662840+00:00,11.248,11.778,,-4.373,-4.269,,,,
2025-10-17T14:34:25.270713+00:00,11.256,10.937,,-0.271,-4.852,,,,
2025-10-17T14:34:25.874000+00:00,11.263,9.769,,3.850,-4.992,,,,
2025-10-17T14:34:26.476723+00:00,11.270,8.683,,7.292,-4.681,,,,
2025-10-17T14:34:27.088051+00:00,11.276,8.058,,9.474,-3.935,,,,
2025-10-17T14:34:27.698764+00:00,11.281,8.135,,9.948,-2.825,,,,
2025-10-17T14:34:28.307581+00:00,11.286,8.884,,8.638,-1.459,,,,
2025-10-17T14:34:28.912871+00:00,11.290,10.026,,5.803,0.033,,,,
2025-10-17T14:34:29.520085+00:00,11.294,11.163,,1.929,1.526,,,,
2025-10-17T14:34:30.126154+00:00,11.296,11.883,,-2.281,2.877,,,,
2025-10-17T14:34:30.732894+00:00,11.298,11.932,,-6.091,3.968,,,,
2025-10-17T14:34:31.341026+00:00,11.300,11.289,,-8.822,4.697,,,,
2025-10-17T14:34:31.953916+00:00,11.300,10.175,,-9.981,4.995,,,,
2025-10-17T14:34:32.559838+00:00,11.300,9.009,,-9.349,4.833,,,,
2025-10-17T14:34:33.165366+00:00,11.299,8.196,,-7.061,4.231,,,,
2025-10-17T14:34:33.768699+00:00,11.297,8.024,,-3.538,3.248,,,,
2025-10-17T14:34:34.379143+00:00,11.295,8.560,,0.656,1.956,,,,
2025-10-17T14:34:34.991582+00:00,11.291,9.620,,4.745,0.478,,,,
2025-10-17T14:34:35.596043+00:00,11.287,10.803,,7.941,-1.025,,,,
2025-10-17T14:34:36.204250+00:00,11.283,11.706,,9.742,-2.444,,,,
2025-10-17T14:34:36.814082+00:00,11.278,11.996,,9.802,-3.641,,,,
2025-10-17T14:34:37.419339+00:00,11.272,11.573,,8.121,-4.497,,,,
2025-10-17T14:34:38.026281+00:00,11.265,10.588,,4.994,-4.945,,,,
2025-10-17T14:34:38.633025+00:00,11.258,9.393,,0.981,-4.941,,,,
2025-10-17T14:34:39.245048+00:00,11.250,8.408,,-3.242,-4.480,,,,
2025-10-17T14:34:39.856165+00:00,11.242,8.002,,-6.875,-3.604,,,,
2025-10-17T14:34:40.462053+00:00,11.233,8.313,,-9.254,-2.406,,,,
2025-10-17T14:34:41.064672+00:00,11.224,9.218,,-9.995,-0.997,,,,
2025-10-17T14:34:41.672360+00:00,11.214,10.410,,-8.967,0.515,,,,
2025-10-17T14:34:42.281096+00:00,11.204,11.455,,-6.336,1.981,,,,
2025-10-17T14:34:42.889484+00:00,11.193,11.978,,-2.574,3.265,,,,
2025-10-17T14:34:43.498108+00:00,11.182,11.791,,1.650,4.250,,,,
2025-10-17T14:34:44.105228+00:00,11.171,10.963,,5.570,4.843,,,,
2025-10-17T14:34:44.713181+00:00,11.160,9.789,,8.502,4.993,,,,
2025-10-17T14:34:45.316562+00:00,11.148,8.698,,9.913,4.689,,,,
2025-10-17T14:34:45.922745+00:00,11.136,8.065,,9.576,3.958,,,,
2025-10-17T14:34:46.536061+00:00,11.124,8.126,,7.508,2.851,,,,
2025-10-17T14:34:47.141392+00:00,11.112,8.858,,4.128,1.497,,,,
2025-10-17T14:34:47.750022+00:00,11.100,10.001,,-0.005,-0.002,,,,
2025-10-17T14:34:48.355312+00:00,11.088,11.139,,-4.116,-1.492,,,,
2025-10-17T14:34:48.962661+00:00,11.076,11.874,,-7.508,-2.851,,,,
2025-10-17T14:34:49.568442+00:00,11.064,11.939,,-9.561,-3.946,,,,
2025-10-17T14:34:50.177231+00:00,11.052,11.309,,-9.917,-4.685,,,,
2025-10-17T14:34:50.785526+00:00,11.040,10.210,,-8.501,-4.993,,,,
2025-10-17T14:34:51.398580+00:00,11.029,9.028,,-5.540,-4.840,,,,
2025-10-17T14:34:52.008330+00:00,11.017,8.202,,-1.596,-4.240,,,,
2025-10-17T14:34:52.613492+00:00,11.007,8.023,,2.603,-3.257,,,,
2025-10-17T14:34:53.216563+00:00,10.996,8.543,,6.330,-1.984,,,,
2025-10-17T14:34:53.826755+00:00,10.986,9.591,,8.969,-0.513,,,,
2025-10-17T14:34:54.437490+00:00,10.976,10.788,,9.995,1.006,,,,
2025-10-17T14:34:55.046129+00:00,10.967,11.698,,9.229,2.427,,,,
2025-10-17T14:34:55.649152+00:00,10.958,11.998,,6.841,3.616,,,,
2025-10-17T14:34:56.258745+00:00,10.950,11.586,,3.208,4.485,,,,
2025-10-17T14:34:56.864167+00:00,10.942,10.610,,-0.971,4.940,,,,
2025-10-17T14:34:57.470850+00:00,10.935,9.415,,-4.985,4.945,,,,
2025-10-17T14:34:58.079238+00:00,10.928,8.427,,-8.121,4.497,,,,
2025-10-17T14:34:58.686745+00:00,10.922,8.003,,-9.805,3.637,,,,
2025-10-17T14:34:59.297617+00:00,10.917,8.298,,-9.737,2.437,,,,
2025-10-17T14:34:59.903190+00:00,10.912,9.198,,-7.938,1.024,,,,
2025-10-17T14:35:00.505829+00:00,10.909,10.378,,-4.752,-0.475,,,,
2025-10-17T14:35:01.113396+00:00,10.905,11.432,,-0.699,-1.942,,,,
2025-10-17T14:35:01.722454+00:00,10.903,11.973,,3.489,-3.234,,,,
2025-10-17T14:35:02.330965+00:00,10.901,11.806,,7.050,-4.228,,,,
2025-10-17T14:35:02.940325+00:00,10.900,10.988,,9.352,-4.834,,,,
2025-10-17T14:35:03.550005+00:00,10.900,9.815,,9.979,-4.995,,,,
2025-10-17T14:35:04.155621+00:00,10.900,8.714,,8.829,-4.698,,,,
2025-10-17T14:35:04.759463+00:00,10.902,8.072,,6.125,-3.977,,,,
2025-10-17T14:35:05.365706+00:00,10.904,8.113,,2.327,-2.891,,,,
2025-10-17T14:35:05.978658+00:00,10.906,8.838,,-1.929,-1.526,,,,
2025-10-17T14:35:06.588822+00:00,10.910,9.980,,-5.821,-0.025,,,,
2025-10-17T14:35:07.192161+00:00,10.914,11.118,,-8.642,1.462,,,,
2025-10-17T14:35:07.797635+00:00,10.919,11.863,,-9.947,2.821,,,,
2025-10-17T14:35:08.404935+00:00,10.924,11.945,,-9.487,3.926,,,,
2025-10-17T14:35:09.013874+00:00,10.930,11.329,,-7.330,4.674,,,,
2025-10-17T14:35:09.624091+00:00,10.937,10.232,,-3.854,4.992,,,,
2025-10-17T14:35:10.226932+00:00,10.944,9.065,,0.263,4.853,,,,
2025-10-17T14:35:10.839822+00:00,10.952,8.218,,4.398,4.264,,,,
2025-10-17T14:35:11.447182+00:00,10.961,8.018,,7.711,3.287,,,,
2025-10-17T14:35:12.050543+00:00,10.969,8.522,,9.643,2.019,,,,
2025-10-17T14:35:12.653552+00:00,10.979,9.547,,9.881,0.570,,,,
2025-10-17T14:35:13.264075+00:00,10.989,10.746,,8.356,-0.949,,,,
2025-10-17T14:35:13.874977+00:00,10.999,11.675,,5.325,-2.382,,,,
2025-10-17T14:35:14.485937+00:00,11.010,11.999,,1.335,-3.593,,,,
2025-10-17T14:35:15.091127+00:00,11.021,11.606,,-2.857,-4.466,,,,
2025-10-17T14:35:15.698728+00:00,11.032,10.638,,-6.556,-4.934,,,,
2025-10-17T14:35:16.304240+00:00,11.044,9.446,,-9.082,-4.951,,,,
2025-10-17T14:35:16.911047+00:00,11.055,8.449,,-10.000,-4.516,,,,
2025-10-17T14:35:17.519585+00:00,11.067,8.006,,-9.136,-3.665,,,,
2025-10-17T14:35:18.131699+00:00,11.079,8.282,,-6.620,-2.470,,,,
2025-10-17T14:35:18.737643+00:00,11.091,9.171,,-2.949,-1.061,,,,
2025-10-17T14:35:19.343342+00:00,11.104,10.354,,1.243,0.445,,,,
2025-10-17T14:35:19.946392+00:00,11.116,11.408,,5.200,1.904,,,,
2025-10-17T14:35:20.557487+00:00,11.128,11.968,,8.275,3.206,,,,
2025-10-17T14:35:21.168031+00:00,11.140,11.816,,9.858,4.211,,,,
2025-10-17T14:35:21.771256+00:00,11.152,11.021,,9.681,4.822,,,,
2025-10-17T14:35:22.379976+00:00,11.163,9.854,,7.779,4.997,,,,
2025-10-17T14:35:22.989578+00:00,11.175,8.738,,4.480,4.711,,,,
2025-10-17T14:35:23.595052+00:00,11.186,8.079,,0.407,3.998,,,,
2025-10-17T14:35:24.200694+00:00,11.197,8.103,,-3.739,2.921,,,,
2025-10-17T14:35:24.807074+00:00,11.207,8.803,,-7.227,1.576,,,,
2025-10-17T14:35:25.419904+00:00,11.217,9.943,,-9.447,0.071,,,,
2025-10-17T14:35:26.030702+00:00,11.227,11.100,,-9.956,-1.435,,,,
2025-10-17T14:35:26.636195+00:00,11.236,11.855,,-8.692,-2.798,,,,
2025-10-17T14:35:27.239274+00:00,11.244,11.952,,-5.902,-3.902,,,,
2025-10-17T14:35:27.846362+00:00,11.253,11.354,,-2.049,-4.658,,,,
2025-10-17T14:35:28.455342+00:00,11.260,10.269,,2.181,-4.989,,,,
2025-10-17T14:35:29.066724+00:00,11.267,9.082,,6.035,-4.859,,,,
2025-10-17T14:35:29.674710+00:00,11.274,8.232,,8.788,-4.283,,,,
2025-10-17T14:35:30.282801+00:00,11.279,8.015,,9.974,-3.313,,,,
2025-10-17T14:35:30.890565+00:00,11.284,8.509,,9.381,-2.041,,,,
2025-10-17T14:35:31.493800+00:00,11.289,9.529,,7.137,-0.593,,,,
2025-10-17T14:35:32.100304+00:00,11.292,10.721,,3.618,0.916,,,,
2025-10-17T14:35:32.712962+00:00,11.295,11.662,,-0.586,2.356,,,,
2025-10-17T14:35:33.318726+00:00,11.298,12.000,,-4.641,3.564,,,,
2025-10-17T14:35:33.929601+00:00,11.299,11.619,,-7.897,4.454,,,,
2025-10-17T14:35:34.534655+00:00,11.300,10.664,,-9.720,4.929,,,,
2025-10-17T14:35:35.142400+00:00,11.300,9.468,,-9.823,4.955,,,,
2025-10-17T14:35:35.748039+00:00,11.299,8.465,,-8.183,4.529,,,,
2025-10-17T14:35:36.354982+00:00,11.298,8.008,,-5.086,3.689,,,,
2025-10-17T14:35:36.963399+00:00,11.296,8.264,,-1.075,2.509,,,,
2025-10-17T14:35:37.576063+00:00,11.293,9.150,,3.157,1.088,,,,
2025-10-17T14:35:38.183479+00:00,11.289,10.336,,6.790,-0.421,,,,
2025-10-17T14:35:38.789043+00:00,11.285,11.398,,9.209,-1.888,,,,
2025-10-17T14:35:39.391587+00:00,11.280,11.962,,9.998,-3.176,,,,
2025-10-17T14:35:40.002468+00:00,11.274,11.829,,9.009,-4.191,,,,
2025-10-17T14:35:40.613020+00:00,11.268,11.034,,6.400,-4.817,,,,
2025-10-17T14:35:41.221759+00:00,11.261,9.869,,2.652,-4.997,,,,
2025-10-17T14:35:41.825092+00:00,11.254,8.760,,-1.533,-4.723,,,,
2025-10-17T14:35:42.434114+00:00,11.246,8.085,,-5.482,-4.014,,,,
2025-10-17T14:35:43.040216+00:00,11.237,8.097,,-8.439,-2.941,,,,
2025-10-17T14:35:43.647042+00:00,11.228,8.788,,-9.900,-1.599,,,,
2025-10-17T14:35:44.255171+00:00,11.218,9.914,,-9.599,-0.107,,,,
2025-10-17T14:35:44.862838+00:00,11.208,11.071,,-7.587,1.393,,,,
2025-10-17T14:35:45.473718+00:00,11.198,11.846,,-4.202,2.773,,,,
2025-10-17T14:35:46.079213+00:00,11.187,11.956,,-0.098,3.887,,,,
2025-10-17T14:35:46.682603+00:00,11.176,11.373,,4.010,4.646,,,,
2025-10-17T14:35:47.289819+00:00,11.165,10.298,,7.431,4.986,,,,
2025-10-17T14:35:47.898642+00:00,11.153,9.114,,9.533,4.869,,,,
2025-10-17T14:35:48.507623+00:00,11.141,8.247,,9.929,4.304,,,,
2025-10-17T14:35:49.115670+00:00,11.129,8.011,,8.552,3.345,,,,
2025-10-17T14:35:49.725747+00:00,11.117,8.490,,5.637,2.074,,,,
2025-10-17T14:35:50.331166+00:00,11.105,9.505,,1.741,0.623,,,,
2025-10-17T14:35:50.934422+00:00,11.093,10.692,,-2.448,-0.879,,,,
2025-10-17T14:35:51.541308+00:00,11.081,11.639,,-6.226,-2.309,,,,
2025-10-17T14:35:52.153607+00:00,11.069,12.000,,-8.915,-3.538,,,,
2025-10-17T14:35:52.764703+00:00,11.057,11.636,,-9.991,-4.437,,,,
2025-10-17T14:35:53.368288+00:00,11.045,10.694,,-9.286,-4.922,,,,
2025-10-17T14:35:53.973203+00:00,11.033,9.504,,-6.941,-4.961,,,,
2025-10-17T14:35:54.581033+00:00,11.022,8.487,,-3.351,-4.547,,,,
2025-10-17T14:35:55.189696+00:00,11.011,8.011,,0.843,-3.714,,,,
2025-10-17T14:35:55.797948+00:00,11.000,8.249,,4.883,-2.541,,,,
2025-10-17T14:35:56.401330+00:00,10.990,9.107,,8.031,-1.147,,,,
2025-10-17T14:35:57.013540+00:00,10.980,10.297,,9.781,0.373,,,,
2025-10-17T14:35:57.621699+00:00,10.971,11.374,,9.768,1.848,,,,
2025-10-17T14:35:58.225136+00:00,10.962,11.956,,8.031,3.145,,,,
2025-10-17T14:35:58.827797+00:00,10.953,11.848,,4.887,4.157,,,,
2025-10-17T14:35:59.438896+00:00,10.945,11.074,,0.827,4.800,,,,
2025-10-17T14:36:00.049461+00:00,10.938,9.913,,-3.378,4.999,,,,
2025-10-17T14:36:00.658454+00:00,10.931,8.786,,-6.968,4.736,,,,
2025-10-17T14:36:01.263851+00:00,10.925,8.097,,-9.301,4.043,,,,
2025-10-17T14:36:01.870822+00:00,10.919,8.086,,-9.988,2.979,,,,
2025-10-17T14:36:02.476678+00:00,10.914,8.757,,-8.903,1.646,,,,
2025-10-17T14:36:03.083651+00:00,10.910,9.872,,-6.234,0.160,,,,
2025-10-17T14:36:03.692596+00:00,10.907,11.037,,-2.443,-1.346,,,,
2025-10-17T14:36:04.305522+00:00,10.904,11.832,,1.813,-2.736,,,,
2025-10-17T14:36:04.911038+00:00,10.902,11.963,,5.697,-3.859,,,,
2025-10-17T14:36:05.516628+00:00,10.901,11.396,,8.573,-4.632,,,,
2025-10-17T14:36:06.119488+00:00,10.900,10.338,,9.930,-4.982,,,,
2025-10-17T14:36:06.729968+00:00,10.900,9.147,,9.528,-4.879,,,,
2025-10-17T14:36:07.342234+00:00,10.901,8.262,,7.404,-4.323,,,,
2025-10-17T14:36:07.945905+00:00,10.903,8.007,,3.996,-3.380,,,,
2025-10-17T14:36:08.554178+00:00,10.905,8.463,,-0.147,-2.122,,,,
2025-10-17T14:36:09.163870+00:00,10.908,9.473,,-4.273,-0.665,,,,
2025-10-17T14:36:09.769275+00:00,10.912,10.664,,-7.613,0.842,,,,
2025-10-17T14:36:10.372731+00:00,10.916,11.617,,-9.602,2.269,,,,
2025-10-17T14:36:10.979407+00:00,10.922,12.000,,-9.900,3.496,,,,
2025-10-17T14:36:11.592006+00:00,10.927,11.661,,-8.417,4.411,,,,
2025-10-17T14:36:12.202821+00:00,10.934,10.722,,-5.420,4.915,,,,
2025-10-17T14:36:12.808558+00:00,10.941,9.532,,-1.482,4.965,,,,
2025-10-17T14:36:13.411061+00:00,10.949,8.512,,2.696,4.567,,,,
2025-10-17T14:36:14.018881+00:00,10.957,8.015,,6.430,3.748,,,,
2025-10-17T14:36:14.627957+00:00,10.966,8.231,,9.022,2.583,,,,
2025-10-17T14:36:15.236975+00:00,10.975,9.082,,9.998,1.181,,,,
2025-10-17T14:36:15.845547+00:00,10.985,10.262,,9.186,-0.329,,,,
2025-10-17T14:36:16.452775+00:00,10.995,11.347,,6.739,-1.805,,,,
2025-10-17T14:36:17.060662+00:00,11.005,11.950,,3.088,-3.118,,,,
2025-10-17T14:36:17.664249+00:00,11.016,11.858,,-1.084,-4.139,,,,
2025-10-17T14:36:18.270344+00:00,11.027,11.105,,-5.080,-4.788,,,,
2025-10-17T14:36:18.884392+00:00,11.039,9.942,,-8.207,-4.999,,,,
2025-10-17T14:36:19.490334+00:00,11.050,8.814,,-9.831,-4.750,,,,
2025-10-17T14:36:20.098979+00:00,11.062,8.106,,-9.708,-4.064,,,,
2025-10-17T14:36:20.704688+00:00,11.074,8.077,,-7.862,-3.011,,,,
2025-10-17T14:36:21.311444+00:00,11.086,8.734,,-4.617,-1.681,,,,
2025-10-17T14:36:21.917078+00:00,11.098,9.840,,-0.560,-0.200,,,,
2025-10-17T14:36:22.524018+00:00,11.111,11.006,,3.605,1.302,,,,
2025-10-17T14:36:23.131984+00:00,11.123,11.813,,7.135,2.687,,,,
2025-10-17T14:36:23.745005+00:00,11.135,11.969,,9.403,3.834,,,,
2025-10-17T14:36:24.352153+00:00,11.147,11.416,,9.970,4.618,,,,
2025-10-17T14:36:24.955564+00:00,11.158,10.364,,8.775,4.979,,,,
2025-10-17T14:36:25.558525+00:00,11.170,9.185,,6.041,4.890,,,,
2025-10-17T14:36:26.169045+00:00,11.181,8.285,,2.194,4.351,,,,
2025-10-17T14:36:26.779929+00:00,11.192,8.005,,-2.049,3.409,,,,
2025-10-17T14:36:27.388630+00:00,11.203,8.444,,-5.911,2.156,,,,
2025-10-17T14:36:27.991642+00:00,11.213,9.431,,-8.697,0.719,,,,
2025-10-17T14:36:28.601519+00:00,11.223,10.631,,-9.960,-0.800,,,,
2025-10-17T14:36:29.206758+00:00,11.232,11.599,,-9.446,-2.234,,,,
2025-10-17T14:36:29.813393+00:00,11.241,11.999,,-7.255,-3.468,,,,
2025-10-17T14:36:30.421932+00:00,11.249,11.683,,-3.763,-4.388,,,,
2025-10-17T14:36:31.029184+00:00,11.257,10.765,,0.393,-4.904,,,,
2025-10-17T14:36:31.640236+00:00,11.264,9.567,,4.502,-4.970,,,,
2025-10-17T14:36:32.245914+00:00,11.271,8.532,,7.777,-4.582,,,,
2025-10-17T14:36:32.849038+00:00,11.277,8.021,,9.670,-3.780,,,,
2025-10-17T14:36:33.456630+00:00,11.282,8.211,,9.860,-2.628,,,,
2025-10-17T14:36:34.065563+00:00,11.287,9.045,,8.287,-1.232,,,,
2025-10-17T14:36:34.676688+00:00,11.291,10.226,,5.219,0.283,,,,
2025-10-17T14:36:35.285305+00:00,11.294,11.322,,1.227,1.766,,,,
2025-10-17T14:36:35.894845+00:00,11.297,11.943,,-2.990,3.088,,,,
2025-10-17T14:36:36.500203+00:00,11.299,11.868,,-6.649,4.120,,,,
2025-10-17T14:36:37.103542+00:00,11.300,11.132,,-9.127,4.776,,,,
2025-10-17T14:36:37.709682+00:00,11.300,9.991,,-10.000,5.000,,,,
2025-10-17T14:36:38.322560+00:00,11.300,8.842,,-9.080,4.764,,,,
2025-10-17T14:36:38.934939+00:00,11.298,8.115,,-6.518,4.084,,,,
2025-10-17T14:36:39.538191+00:00,11.297,8.068,,-2.837,3.043,,,,
2025-10-17T14:36:40.143599+00:00,11.294,8.707,,1.358,1.722,,,,
2025-10-17T14:36:40.750717+00:00,11.291,9.808,,5.322,0.240,,,,
2025-10-17T14:36:41.359678+00:00,11.287,10.982,,8.346,-1.269,,,,
2025-10-17T14:36:41.968588+00:00,11.282,11.802,,9.877,-2.660,,,,
2025-10-17T14:36:42.571438+00:00,11.277,11.976,,9.651,-3.797,,,,
2025-10-17T14:36:43.184416+00:00,11.271,11.440,,7.687,-4.602,,,,
2025-10-17T14:36:43.792173+00:00,11.264,10.390,,4.362,-4.976,,,,
2025-10-17T14:36:44.395245+00:00,11.257,9.208,,0.293,-4.897,,,,
2025-10-17T14:36:44.998469+00:00,11.249,8.306,,-3.830,-4.376,,,,
2025-10-17T14:36:45.609097+00:00,11.241,8.003,,-7.314,-3.446,,,,
2025-10-17T14:36:46.220039+00:00,11.232,8.421,,-9.484,-2.197,,,,
2025-10-17T14:36:46.828873+00:00,11.222,9.407,,-9.947,-0.750,,,,
2025-10-17T14:36:47.434030+00:00,11.213,10.599,,-8.643,0.758,,,,
2025-10-17T14:36:48.041931+00:00,11.202,11.582,,-5.796,2.202,,,,
2025-10-17T14:36:48.647330+00:00,11.192,11.997,,-1.932,3.440,,,,
2025-10-17T14:36:49.254306+00:00,11.181,11.701,,2.284,4.367,,,,
2025-10-17T14:36:49.862964+00:00,11.170,10.794,,6.104,4.896,,,,
2025-10-17T14:36:50.475313+00:00,11.158,9.595,,8.844,4.974,,,,
2025-10-17T14:36:51.081378+00:00,11.146,8.551,,9.981,4.596,,,,
2025-10-17T14:36:51.687005+00:00,11.134,8.024,,9.350,3.799,,,,
2025-10-17T14:36:52.290114+00:00,11.122,8.197,,7.076,2.662,,,,
2025-10-17T14:36:52.901122+00:00,11.110,9.020,,3.507,1.266,,,,
2025-10-17T14:36:53.513774+00:00,11.098,10.201,,-0.705,-0.252,,,,
2025-10-17T14:36:54.117087+00:00,11.086,11.295,,-4.731,-1.724,,,,
2025-10-17T14:36:54.725528+00:00,11.074,11.934,,-7.948,-3.051,,,,
2025-10-17T14:36:55.334664+00:00,11.062,11.878,,-9.746,-4.098,,,,
2025-10-17T14:36:55.940181+00:00,11.050,11.153,,-9.804,-4.766,,,,
2025-10-17T14:36:56.543603+00:00,11.038,10.022,,-8.135,-5.000,,,,
2025-10-17T14:36:57.149990+00:00,11.027,8.878,,-5.018,-4.780,,,,
2025-10-17T14:36:57.762984+00:00,11.016,8.130,,-0.965,-4.115,,,,
2025-10-17T14:36:58.375161+00:00,11.005,8.062,,3.258,-3.068,,,,
2025-10-17T14:36:58.984188+00:00,10.994,8.693,,6.876,-1.743,,,,
2025-10-17T14:36:59.587183+00:00,10.984,9.782,,9.247,-0.272,,,,
2025-10-17T14:37:00.194714+00:00,10.975,10.956,,9.994,1.233,,,,
2025-10-17T14:37:00.800777+00:00,10.965,11.787,,8.965,2.623,,,,
2025-10-17T14:37:01.411988+00:00,10.957,11.979,,6.318,3.782,,,,
2025-10-17T14:37:02.020083+00:00,10.948,11.459,,2.554,4.588,,,,
2025-10-17T14:37:02.628345+00:00,10.941,10.416,,-1.668,4.973,,,,
2025-10-17T14:37:03.233450+00:00,10.934,9.229,,-5.573,4.902,,,,
2025-10-17T14:37:03.839281+00:00,10.927,8.315,,-8.496,4.386,,,,
2025-10-17T14:37:04.445773+00:00,10.921,8.001,,-9.914,3.469,,,,
2025-10-17T14:37:05.057982+00:00,10.916,8.407,,-9.561,2.223,,,,
2025-10-17T14:37:05.660809+00:00,10.912,9.374,,-7.522,0.793,,,,
2025-10-17T14:37:06.272134+00:00,10.908,10.577,,-4.109,-0.729,,,,
2025-10-17T14:37:06.877197+00:00,10.905,11.564,,0.001,-2.170,,,,
2025-10-17T14:37:07.484998+00:00,10.903,11.996,,4.129,-3.418,,,,
2025-10-17T14:37:08.087510+00:00,10.901,11.718,,7.495,-4.347,,,,
2025-10-17T14:37:08.697191+00:00,10.900,10.822,,9.563,-4.888,,,,
2025-10-17T14:37:09.305788+00:00,10.900,9.633,,9.916,-4.979,,,,
2025-10-17T14:37:09.918072+00:00,10.901,8.569,,8.483,-4.608,,,,
2025-10-17T14:37:10.523446+00:00,10.902,8.028,,5.556,-3.820,,,,
2025-10-17T14:37:11.129370+00:00,10.904,8.188,,1.642,-2.684,,,,
2025-10-17T14:37:11.732436+00:00,10.907,8.989,,-2.544,-1.310,,,,
2025-10-17T14:37:12.343554+00:00,10.910,10.162,,-6.327,0.202,,,,
