ts_iso,batt_v,airspeed_ms,groundspeed_ms,roll_deg,pitch_deg,yaw_deg,lat,lon,alt_m
2025-10-13T14:12:04.131920+00:00,,,,,,,,,
2025-10-13T14:12:05.042731+00:00,11.177,8.536,9.375,3.591,4.584,79.264,56.162878,10.203913,60.18
2025-10-13T14:12:05.212140+00:00,11.180,8.327,9.320,2.462,4.399,82.652,56.162948,10.203885,62.05
2025-10-13T14:12:05.414034+00:00,11.184,8.141,9.241,1.072,4.137,86.690,56.162934,10.203941,62.38
2025-10-13T14:12:05.616921+00:00,11.188,8.031,9.149,-0.346,3.831,90.748,56.162882,10.203881,59.60
2025-10-13T14:12:05.819111+00:00,11.191,8.001,9.046,-1.752,3.487,94.792,56.162933,10.203858,62.00
2025-10-13T14:12:06.021400+00:00,11.195,8.052,8.932,-3.124,3.107,98.838,56.162937,10.203852,60.39
2025-10-13T14:12:06.223457+00:00,11.198,8.183,8.809,-4.432,2.697,102.879,56.162858,10.203888,58.05
2025-10-13T14:12:06.425339+00:00,11.202,8.388,8.678,-5.650,2.259,106.917,56.162950,10.203893,61.88
2025-10-13T14:12:06.629191+00:00,11.205,8.661,8.538,-6.766,1.793,110.993,56.162895,10.203926,62.01
2025-10-13T14:12:06.832738+00:00,11.209,8.989,8.393,-7.743,1.309,115.064,56.162943,10.203879,58.35
2025-10-13T14:12:07.035126+00:00,11.212,9.356,8.245,-8.559,0.815,119.112,56.162882,10.203879,57.85
2025-10-13T14:12:07.237121+00:00,11.216,9.750,8.094,-9.203,0.314,123.152,56.162858,10.203922,58.79
2025-10-13T14:12:07.438925+00:00,11.219,10.152,7.943,-9.662,-0.191,127.188,56.162853,10.203927,61.02
2025-10-13T14:12:07.642373+00:00,11.222,10.552,7.791,-9.930,-0.697,131.257,56.162923,10.203878,61.04
2025-10-13T14:12:07.843910+00:00,11.225,10.926,7.643,-9.997,-1.191,135.288,56.162944,10.203891,59.76
2025-10-13T14:12:08.048285+00:00,11.228,11.266,7.496,-9.863,-1.681,139.375,56.162881,10.203934,58.25
2025-10-13T14:12:08.250685+00:00,11.231,11.552,7.356,-9.531,-2.148,143.424,56.162935,10.203883,58.99
2025-10-13T14:12:08.453569+00:00,11.234,11.774,7.222,-9.007,-2.594,147.481,56.162891,10.203863,57.63
2025-10-13T14:12:08.656376+00:00,11.237,11.924,7.096,-8.301,-3.013,151.537,56.162863,10.203853,60.42
2025-10-13T14:12:08.858586+00:00,11.240,11.994,6.980,-7.432,-3.401,155.581,56.162856,10.203897,61.48
2025-10-13T14:12:09.063219+00:00,11.243,11.983,6.873,-6.401,-3.757,159.674,56.162905,10.203911,58.80
2025-10-13T14:12:09.216271+00:00,11.245,11.921,6.800,-5.543,-3.998,162.735,56.162898,10.203853,58.01
2025-10-13T14:12:09.420178+00:00,11.248,11.768,6.715,-4.302,-4.283,166.813,56.162941,10.203912,62.26
2025-10-13T14:12:09.623123+00:00,11.251,11.543,6.643,-2.981,-4.523,170.872,56.162858,10.203939,60.75
2025-10-13T14:12:09.825394+00:00,11.253,11.256,6.586,-1.604,-4.715,174.918,56.162861,10.203880,59.63
2025-10-13T14:12:10.028704+00:00,11.256,10.916,6.542,-0.188,-4.859,178.984,56.162916,10.203929,59.26
2025-10-13T14:12:10.231350+00:00,11.259,10.539,6.514,1.228,-4.954,183.037,56.162868,10.203904,60.49
2025-10-13T14:12:10.433473+00:00,11.261,10.142,6.501,2.615,-4.997,187.079,56.162938,10.203902,58.10
2025-10-13T14:12:10.637055+00:00,11.263,9.735,6.503,3.959,-4.989,191.151,56.162905,10.203876,60.77
2025-10-13T14:12:10.839864+00:00,11.266,9.341,6.521,5.219,-4.930,195.207,56.162902,10.203940,58.64
2025-10-13T14:12:11.043658+00:00,11.268,8.973,6.554,6.379,-4.819,199.283,56.162920,10.203920,60.81
2025-10-13T14:12:11.246171+00:00,11.270,8.649,6.602,7.403,-4.660,203.333,56.162868,10.203926,61.80
2025-10-13T14:12:11.449105+00:00,11.272,8.379,6.664,8.280,-4.452,207.392,56.162877,10.203911,58.31
2025-10-13T14:12:11.652145+00:00,11.274,8.176,6.740,8.991,-4.199,211.453,56.162862,10.203864,59.42
2025-10-13T14:12:11.854635+00:00,11.276,8.048,6.829,9.519,-3.903,215.502,56.162925,10.203901,59.22
2025-10-13T14:12:12.056149+00:00,11.278,8.000,6.929,9.855,-3.569,219.533,56.162869,10.203884,61.11
2025-10-13T14:12:12.259025+00:00,11.280,8.034,7.041,9.996,-3.196,223.590,56.162870,10.203941,60.36
2025-10-13T14:12:12.462427+00:00,11.282,8.148,7.163,9.935,-2.789,227.658,56.162855,10.203932,61.53
2025-10-13T14:12:12.665787+00:00,11.283,8.339,7.294,9.673,-2.353,231.726,56.162926,10.203856,58.98
2025-10-13T14:12:12.868824+00:00,11.285,8.598,7.432,9.216,-1.894,235.786,56.162914,10.203882,60.72
2025-10-13T14:12:13.071615+00:00,11.286,8.914,7.575,8.575,-1.416,239.842,56.162945,10.203878,59.14
2025-10-13T14:12:13.273473+00:00,11.288,9.272,7.722,7.764,-0.926,243.879,56.162869,10.203924,60.72
2025-10-13T14:12:13.475291+00:00,11.289,9.660,7.872,6.800,-0.426,247.916,56.162858,10.203898,61.67
2025-10-13T14:12:13.678744+00:00,11.290,10.066,8.025,5.690,0.082,251.984,56.162922,10.203935,59.61
2025-10-13T14:12:28.388925+00:00,11.180,11.644,9.329,2.639,4.429,186.188,56.162870,10.203929,58.96
2025-10-13T14:12:28.592127+00:00,11.176,11.380,9.393,3.979,4.642,190.252,56.162921,10.203888,60.90
2025-10-13T14:12:28.744673+00:00,11.173,11.144,9.431,4.935,4.770,193.303,56.162878,10.203938,62.36
2025-10-13T14:12:28.946577+00:00,11.169,10.792,9.469,6.111,4.897,197.342,56.162921,10.203925,58.18
2025-10-13T14:12:29.149394+00:00,11.166,10.406,9.492,7.169,4.974,201.398,56.162948,10.203886,60.48
2025-10-13T14:12:29.351935+00:00,11.162,10.004,9.500,8.082,5.000,205.449,56.162887,10.203860,62.04
2025-10-13T14:12:29.554596+00:00,11.158,9.601,9.492,8.834,4.975,209.502,56.162872,10.203888,58.20
2025-10-13T14:12:29.756615+00:00,11.154,9.216,9.470,9.406,4.899,213.542,56.162860,10.203933,60.53
2025-10-13T14:12:29.958834+00:00,11.150,8.862,9.432,9.791,4.773,217.586,56.162890,10.203920,59.68
2025-10-13T14:12:30.160644+00:00,11.146,8.556,9.380,9.980,4.599,221.623,56.162897,10.203881,62.05
2025-10-13T14:12:30.362583+00:00,11.142,8.308,9.313,9.970,4.377,225.662,56.162925,10.203895,58.79
2025-10-13T14:12:30.565144+00:00,11.138,8.128,9.233,9.760,4.111,229.713,56.162925,10.203889,59.94
2025-10-13T14:12:30.767383+00:00,11.134,8.025,9.141,9.355,3.802,233.757,56.162857,10.203851,58.95
2025-10-13T14:12:30.969420+00:00,11.130,8.002,9.037,8.763,3.456,237.798,56.162857,10.203880,57.70
2025-10-13T14:12:31.171780+00:00,11.126,8.061,8.922,7.996,3.073,241.845,56.162886,10.203878,60.64
2025-10-13T14:12:31.372892+00:00,11.122,8.198,8.798,7.074,2.661,245.868,56.162888,10.203922,62.29
2025-10-13T14:12:31.576543+00:00,11.118,8.410,8.665,5.998,2.217,249.941,56.162921,10.203913,61.60
2025-10-13T14:12:31.778915+00:00,11.114,8.686,8.526,4.808,1.753,253.988,56.162884,10.203926,62.27
2025-10-13T14:12:31.980035+00:00,11.110,9.014,8.382,3.530,1.274,258.011,56.162929,10.203918,58.84
2025-10-13T14:12:32.185452+00:00,11.106,9.390,8.232,2.153,0.772,262.119,56.162883,10.203904,58.86
2025-10-13T14:12:32.387485+00:00,11.102,9.785,8.081,0.755,0.270,266.159,56.162886,10.203930,57.73
2025-10-13T14:12:32.591017+00:00,11.098,10.191,7.928,-0.669,-0.239,270.230,56.162890,10.203858,59.03
2025-10-13T14:12:32.793021+00:00,11.094,10.586,7.778,-2.068,-0.741,274.270,56.162908,10.203938,60.23
2025-10-13T14:12:32.994759+00:00,11.090,10.958,7.629,-3.424,-1.235,278.305,56.162878,10.203892,58.00
2025-10-13T14:12:33.197539+00:00,11.086,11.292,7.484,-4.719,-1.719,282.361,56.162889,10.203945,61.33
2025-10-13T14:12:33.399665+00:00,11.082,11.572,7.345,-5.915,-2.184,286.403,56.162938,10.203876,61.38
2025-10-13T14:12:33.604358+00:00,11.078,11.790,7.210,-7.006,-2.632,290.497,56.162858,10.203899,61.22
2025-10-13T14:12:33.807038+00:00,11.074,11.933,7.085,-7.945,-3.049,294.551,56.162934,10.203936,60.98
2025-10-13T14:12:34.008767+00:00,11.070,11.997,6.970,-8.720,-3.432,298.585,56.162907,10.203868,60.04
2025-10-13T14:12:34.212378+00:00,11.066,11.979,6.865,-9.327,-3.784,302.657,56.162883,10.203911,58.23
2025-10-13T14:12:34.415047+00:00,11.062,11.880,6.771,-9.743,-4.095,306.711,56.162923,10.203900,59.23
2025-10-13T14:12:34.618550+00:00,11.058,11.703,6.690,-9.964,-4.366,310.780,56.162874,10.203857,58.12
2025-10-13T14:12:34.770190+00:00,11.055,11.525,6.639,-9.998,-4.538,313.814,56.162906,10.203862,58.11
2025-10-13T14:12:34.974101+00:00,11.051,11.231,6.582,-9.865,-4.728,317.892,56.162879,10.203853,58.16
2025-10-13T14:12:35.177710+00:00,11.047,10.887,6.539,-9.533,-4.869,321.964,56.162880,10.203883,58.94
2025-10-13T14:12:35.381492+00:00,11.043,10.506,6.512,-9.007,-4.959,326.039,56.162909,10.203922,61.75
2025-10-13T14:12:35.584807+00:00,11.039,10.104,6.501,-8.300,-4.998,330.106,56.162871,10.203851,62.21
2025-10-13T14:12:35.786762+00:00,11.035,9.702,6.504,-7.431,-4.986,334.145,56.162858,10.203906,57.66
2025-10-13T14:12:35.989877+00:00,11.032,9.309,6.523,-6.408,-4.922,338.207,56.162901,10.203930,61.61
2025-10-13T14:12:36.192825+00:00,11.028,8.945,6.558,-5.256,-4.808,342.266,56.162884,10.203897,57.51
2025-10-13T14:12:36.395229+00:00,11.024,8.625,6.606,-4.002,-4.645,346.314,56.162920,10.203926,61.98
2025-10-13T14:12:36.598837+00:00,11.020,8.360,6.670,-2.660,-4.433,350.387,56.162906,10.203867,60.77
2025-10-13T14:12:36.800953+00:00,11.017,8.163,6.747,-1.274,-4.177,354.429,56.162871,10.203925,59.61
2025-10-13T14:12:37.002936+00:00,11.013,8.042,6.836,0.137,-3.879,358.469,56.162862,10.203914,60.63
2025-10-13T14:12:37.205620+00:00,11.009,8.000,6.938,1.549,-3.539,2.522,56.162936,10.203950,58.76
2025-10-13T14:12:37.407562+00:00,11.006,8.040,7.050,2.925,-3.165,6.561,56.162882,10.203895,61.48
2025-10-13T14:12:37.612066+00:00,11.002,8.161,7.174,4.260,-2.754,10.651,56.162863,10.203877,61.44
2025-10-13T14:12:37.814826+00:00,10.999,8.357,7.305,5.497,-2.317,14.706,56.162950,10.203857,58.41
2025-10-13T14:12:38.017826+00:00,10.995,8.621,7.443,6.624,-1.856,18.766,56.162863,10.203874,62.36
2025-10-13T14:12:38.220670+00:00,10.992,8.941,7.587,7.618,-1.377,22.823,56.162874,10.203858,57.62
2025-10-13T14:12:38.422485+00:00,10.988,9.303,7.734,8.454,-0.886,26.860,56.162934,10.203885,62.11
2025-10-13T14:12:38.626338+00:00,10.985,9.697,7.886,9.128,-0.380,30.937,56.162876,10.203870,59.06
2025-10-13T14:12:38.829247+00:00,10.982,10.101,8.038,9.614,0.127,34.995,56.162860,10.203933,61.37
2025-10-13T14:12:39.033148+00:00,10.978,10.504,8.190,9.908,0.635,39.073,56.162903,10.203886,58.07
2025-10-13T14:12:39.236679+00:00,10.975,10.884,8.341,10.000,1.135,43.143,56.162920,10.203872,57.55
2025-10-13T14:12:39.438739+00:00,10.972,11.226,8.486,9.891,1.620,47.185,56.162892,10.203936,58.39
2025-10-13T14:12:39.641670+00:00,10.969,11.520,8.627,9.582,2.091,51.243,56.162918,10.203920,61.14
2025-10-13T14:12:39.793285+00:00,10.967,11.699,8.729,9.226,2.429,54.276,56.162946,10.203874,59.90
2025-10-13T14:12:39.995815+00:00,10.964,11.876,8.858,8.588,2.859,58.326,56.162901,10.203882,59.20
2025-10-13T14:12:40.198420+00:00,10.961,11.977,8.978,7.778,3.259,62.378,56.162881,10.203853,57.79
2025-10-13T14:12:40.401138+00:00,10.958,11.997,9.088,6.811,3.626,66.432,56.162887,10.203927,59.25
2025-10-13T14:12:40.605398+00:00,10.955,11.935,9.187,5.698,3.958,70.518,56.162948,10.203910,59.01
2025-10-13T14:12:40.809028+00:00,10.952,11.792,9.274,4.472,4.248,74.590,56.162882,10.203884,58.52
2025-10-13T14:12:41.010967+00:00,10.950,11.578,9.348,3.168,4.492,78.629,56.162912,10.203949,58.22
2025-10-13T14:12:41.214201+00:00,10.947,11.298,9.408,1.791,4.692,82.694,56.162885,10.203896,60.28
2025-10-13T14:12:41.417061+00:00,10.944,10.964,9.453,0.380,4.843,86.751,56.162931,10.203946,60.48
2025-10-13T14:12:41.619779+00:00,10.942,10.592,9.483,-1.037,4.944,90.805,56.162895,10.203939,58.59
2025-10-13T14:12:41.822341+00:00,10.939,10.195,9.498,-2.432,4.994,94.857,56.162856,10.203860,58.21
2025-10-13T14:12:42.024999+00:00,10.937,9.791,9.498,-3.779,4.993,98.910,56.162888,10.203868,58.65
2025-10-13T14:12:42.227637+00:00,10.935,9.395,9.482,-5.050,4.941,102.963,56.162941,10.203889,59.07
2025-10-13T14:12:42.429938+00:00,10.932,9.024,9.452,-6.217,4.838,107.009,56.162891,10.203861,62.02
2025-10-13T14:12:42.633764+00:00,10.930,8.691,9.406,-7.268,4.685,111.085,56.162895,10.203927,57.57
2025-10-13T14:12:42.836478+00:00,10.928,8.413,9.345,-8.166,4.484,115.139,56.162923,10.203877,61.20
2025-10-13T14:12:43.038703+00:00,10.926,8.201,9.271,-8.899,4.238,119.184,56.162913,10.203899,57.97
2025-10-13T14:12:43.240105+00:00,10.924,8.063,9.185,-9.452,3.950,123.212,56.162879,10.203856,62.29
2025-10-13T14:12:43.445706+00:00,10.922,8.002,9.084,-9.822,3.615,127.324,56.162916,10.203875,61.91
2025-10-13T14:12:43.649175+00:00,10.920,8.025,8.974,-9.989,3.245,131.393,56.162891,10.203941,57.54
2025-10-13T14:12:43.850909+00:00,10.919,8.128,8.854,-9.955,2.846,135.428,56.162865,10.203928,59.50
2025-10-13T14:12:44.052836+00:00,10.917,8.307,8.725,-9.722,2.417,139.467,56.162854,10.203883,58.43
2025-10-13T14:12:44.254576+00:00,10.915,8.555,8.589,-9.296,1.964,143.501,56.162886,10.203856,58.67
2025-10-13T14:12:44.456412+00:00,10.914,8.862,8.447,-8.685,1.490,147.538,56.162930,10.203875,62.14
2025-10-13T14:12:44.659103+00:00,10.912,9.216,8.300,-7.896,1.000,151.592,56.162911,10.203919,60.70
2025-10-13T14:12:44.861095+00:00,10.911,9.601,8.150,-6.953,0.501,155.632,56.162936,10.203880,57.91
2025-10-13T14:12:45.063051+00:00,10.910,10.003,7.999,-5.871,-0.003,159.671,56.162880,10.203861,61.58
2025-10-13T14:12:45.264750+00:00,10.909,10.403,7.848,-4.673,-0.507,163.705,56.162935,10.203947,60.56
2025-10-13T14:12:45.466588+00:00,10.907,10.788,7.698,-3.382,-1.005,167.742,56.162905,10.203879,58.11
2025-10-13T14:12:45.669309+00:00,10.906,11.142,7.551,-2.017,-1.496,171.796,56.162884,10.203889,60.16
2025-10-13T14:12:45.823607+00:00,10.906,11.380,7.442,-0.949,-1.859,174.882,56.162892,10.203930,59.41
2025-10-13T14:12:46.025827+00:00,10.905,11.643,7.305,0.465,-2.318,178.926,56.162889,10.203880,61.06
2025-10-13T14:12:46.229597+00:00,10.904,11.840,7.173,1.880,-2.756,183.002,56.162876,10.203855,61.59
2025-10-13T14:12:46.430895+00:00,10.903,11.959,7.052,3.241,-3.162,187.028,56.162938,10.203913,61.31
2025-10-13T14:12:46.633994+00:00,10.902,12.000,6.939,4.549,-3.538,191.090,56.162908,10.203896,61.12
2025-10-13T14:12:46.835836+00:00,10.902,11.959,6.837,5.757,-3.876,195.127,56.162853,10.203858,59.29
2025-10-13T14:12:47.039886+00:00,10.901,11.836,6.747,6.863,-4.177,199.207,56.162882,10.203915,60.66
2025-10-13T14:12:47.243095+00:00,10.901,11.639,6.670,7.824,-4.435,203.271,56.162940,10.203907,60.88
2025-10-13T14:12:47.448901+00:00,10.901,11.370,6.605,8.637,-4.648,207.388,56.162873,10.203853,61.02
2025-10-13T14:12:47.652236+00:00,10.900,11.047,6.557,9.265,-4.811,211.454,56.162878,10.203942,61.45
2025-10-13T14:12:47.854201+00:00,10.900,10.684,6.523,9.703,-4.924,215.494,56.162942,10.203870,61.62
2025-10-13T14:12:48.056445+00:00,10.900,10.293,6.504,9.947,-4.987,219.539,56.162908,10.203944,62.11
2025-10-13T14:12:48.261351+00:00,10.900,9.884,6.501,9.992,-4.998,223.637,56.162949,10.203885,57.72
2025-10-13T14:12:48.467423+00:00,10.900,9.478,6.513,9.830,-4.956,227.758,56.162907,10.203855,58.32
2025-10-13T14:12:48.672622+00:00,10.900,9.096,6.541,9.465,-4.863,231.862,56.162913,10.203854,58.15
2025-10-13T14:12:48.875154+00:00,10.900,8.755,6.584,8.915,-4.721,235.913,56.162869,10.203918,62.48
2025-10-13T14:12:49.077369+00:00,10.901,8.466,6.641,8.186,-4.530,239.957,56.162929,10.203882,60.12
2025-10-13T14:12:49.279548+00:00,10.901,8.240,6.712,7.294,-4.293,244.001,56.162930,10.203851,57.65
2025-10-13T14:12:49.483388+00:00,10.902,8.084,6.797,6.247,-4.010,248.078,56.162924,10.203884,60.97
2025-10-13T14:12:49.686804+00:00,10.902,8.008,6.894,5.076,-3.687,252.146,56.162878,10.203892,59.71
2025-10-13T14:12:49.888871+00:00,10.903,8.013,7.002,3.811,-3.327,256.187,56.162946,10.203920,61.31
2025-10-13T14:12:50.092756+00:00,10.904,8.101,7.121,2.457,-2.930,260.265,56.162936,10.203867,60.18
2025-10-13T14:12:50.295855+00:00,10.904,8.266,7.249,1.059,-2.504,264.327,56.162862,10.203916,60.35
2025-10-13T14:12:50.498114+00:00,10.905,8.502,7.384,-0.355,-2.054,268.372,56.162923,10.203870,58.02
2025-10-13T14:12:50.652560+00:00,10.906,8.723,7.491,-1.431,-1.697,271.461,56.162875,10.203884,62.00
2025-10-13T14:12:50.854973+00:00,10.907,9.059,7.636,-2.815,-1.213,275.509,56.162918,10.203858,62.29
2025-10-13T14:12:51.056826+00:00,10.908,9.432,7.785,-4.138,-0.718,279.546,56.162932,10.203908,59.37
2025-10-13T14:12:51.258879+00:00,10.909,9.828,7.935,-5.380,-0.215,283.587,56.162869,10.203945,57.76
2025-10-13T14:12:51.461604+00:00,10.911,10.233,8.087,-6.518,0.291,287.642,56.162912,10.203880,60.98
2025-10-13T14:12:51.666959+00:00,10.912,10.633,8.240,-7.537,0.801,291.749,56.162865,10.203894,61.02
2025-10-13T14:12:51.869577+00:00,10.913,11.002,8.389,-8.390,1.296,295.801,56.162857,10.203885,60.68
2025-10-13T14:12:52.073575+00:00,10.915,11.332,8.534,-9.079,1.781,299.881,56.162948,10.203940,57.79
2025-10-13T14:12:52.275746+00:00,10.916,11.604,8.673,-9.580,2.244,303.925,56.162947,10.203904,58.60
2025-10-13T14:12:52.478695+00:00,10.918,11.812,8.805,-9.889,2.685,307.984,56.162921,10.203940,58.99
2025-10-13T14:12:52.681122+00:00,10.920,11.945,8.929,-10.000,3.097,312.032,56.162900,10.203895,58.32
2025-10-13T14:12:52.883901+00:00,10.922,11.999,9.044,-9.909,3.479,316.088,56.162904,10.203874,59.55
2025-10-13T14:12:53.086324+00:00,10.923,11.971,9.147,-9.620,3.824,320.136,56.162900,10.203853,59.30
2025-10-13T14:12:53.289013+00:00,10.925,11.862,9.239,-9.138,4.130,324.190,56.162906,10.203856,61.42
2025-10-13T14:12:53.490866+00:00,10.927,11.678,9.318,-8.474,4.393,328.227,56.162861,10.203922,57.87
2025-10-13T14:12:53.695338+00:00,10.929,11.422,9.384,-7.631,4.614,332.316,56.162907,10.203912,61.57
2025-10-13T14:12:53.897469+00:00,10.932,11.111,9.435,-6.643,4.785,336.359,56.162865,10.203915,58.24
2025-10-13T14:12:54.099267+00:00,10.934,10.755,9.472,-5.524,4.907,340.395,56.162920,10.203868,62.36
2025-10-13T14:12:54.302109+00:00,10.936,10.367,9.494,-4.289,4.979,344.452,56.162931,10.203874,60.46
2025-10-13T14:12:54.504214+00:00,10.938,9.965,9.500,-2.973,5.000,348.494,56.162875,10.203911,59.22
2025-10-13T14:12:54.706402+00:00,10.941,9.564,9.491,-1.596,4.970,352.538,56.162865,10.203908,61.52
2025-10-13T14:12:54.908704+00:00,10.943,9.181,9.467,-0.187,4.889,356.584,56.162897,10.203886,61.34
2025-10-13T14:12:55.110953+00:00,10.946,8.831,9.428,1.226,4.758,0.628,56.162944,10.203911,60.58
2025-10-13T14:12:55.315409+00:00,10.948,8.526,9.373,2.629,4.577,4.718,56.162873,10.203850,58.08
2025-10-13T14:12:55.517991+00:00,10.951,8.284,9.305,3.966,4.350,8.769,56.162869,10.203903,60.58
2025-10-13T14:12:55.720582+00:00,10.954,8.112,9.223,5.224,4.078,12.821,56.162862,10.203876,62.03
2025-10-13T14:12:55.923663+00:00,10.957,8.018,9.129,6.379,3.764,16.883,56.162895,10.203877,57.81
2025-10-13T14:12:56.128841+00:00,10.960,8.005,9.022,7.416,3.407,20.986,56.162881,10.203944,59.62
2025-10-13T14:12:56.331264+00:00,10.963,8.075,8.906,8.289,3.020,25.035,56.162897,10.203932,57.88
2025-10-13T14:12:56.484673+00:00,10.965,8.180,8.812,8.841,2.706,28.103,56.162920,10.203912,62.12
2025-10-13T14:12:56.687914+00:00,10.968,8.385,8.680,9.414,2.265,32.168,56.162914,10.203898,59.67
2025-10-13T14:12:56.889894+00:00,10.971,8.654,8.541,9.795,1.804,36.208,56.162945,10.203926,61.51
2025-10-13T14:12:57.091772+00:00,10.974,8.978,8.397,9.981,1.325,40.245,56.162872,10.203917,58.06
2025-10-13T14:12:57.295234+00:00,10.977,9.346,8.249,9.967,0.829,44.314,56.162893,10.203888,59.37
2025-10-13T14:12:57.501261+00:00,10.980,9.747,8.095,9.747,0.317,48.435,56.162909,10.203922,60.67
2025-10-13T14:12:57.706808+00:00,10.984,10.157,7.941,9.326,-0.196,52.545,56.162915,10.203905,61.71
2025-10-13T14:12:57.910071+00:00,10.987,10.556,7.789,8.720,-0.702,56.611,56.162896,10.203941,58.54
2025-10-13T14:12:58.111984+00:00,10.990,10.930,7.641,7.944,-1.198,60.649,56.162918,10.203929,60.99
2025-10-13T14:12:58.315585+00:00,10.994,11.269,7.495,7.000,-1.685,64.722,56.162926,10.203935,60.37
2025-10-13T14:12:58.517725+00:00,10.997,11.554,7.355,5.923,-2.151,68.764,56.162911,10.203930,57.60
2025-10-13T14:12:58.721051+00:00,11.001,11.776,7.221,4.721,-2.598,72.831,56.162885,10.203919,61.27
2025-10-13T14:12:58.925592+00:00,11.004,11.926,7.094,3.414,-3.021,76.921,56.162937,10.203933,60.58
2025-10-13T14:12:59.130100+00:00,11.008,11.995,6.976,2.039,-3.412,81.012,56.162858,10.203850,57.65
2025-10-13T14:12:59.332369+00:00,11.012,11.982,6.871,0.637,-3.763,85.057,56.162854,10.203919,58.23
2025-10-13T14:12:59.534665+00:00,11.015,11.888,6.777,-0.778,-4.076,89.103,56.162899,10.203909,62.05
2025-10-13T14:12:59.737940+00:00,11.019,11.716,6.695,-2.184,-4.349,93.168,56.162879,10.203853,61.85
2025-10-13T14:12:59.941474+00:00,11.023,11.474,6.627,-3.548,-4.577,97.239,56.162853,10.203923,60.38
2025-10-13T14:13:00.144300+00:00,11.026,11.171,6.573,-4.835,-4.757,101.295,56.162873,10.203906,58.30
2025-10-13T14:13:00.348563+00:00,11.030,10.818,6.533,-6.033,-4.890,105.381,56.162876,10.203891,60.78
2025-10-13T14:13:00.551640+00:00,11.034,10.433,6.509,-7.102,-4.970,109.442,56.162858,10.203930,58.31
2025-10-13T14:13:00.753927+00:00,11.038,10.032,6.500,-8.024,-5.000,113.488,56.162851,10.203914,60.29
2025-10-13T14:13:00.956113+00:00,11.042,9.629,6.507,-8.786,-4.978,117.532,56.162895,10.203948,58.28
2025-10-13T14:13:01.158617+00:00,11.046,9.242,6.528,-9.373,-4.906,121.582,56.162898,10.203875,61.20
2025-10-13T14:13:01.310085+00:00,11.049,8.971,6.554,-9.689,-4.819,124.612,56.162877,10.203888,61.28
2025-10-13T14:13:01.515461+00:00,11.053,8.643,6.603,-9.944,-4.656,128.719,56.162878,10.203920,62.49
2025-10-13T14:13:01.719365+00:00,11.057,8.374,6.666,-9.993,-4.447,132.797,56.162851,10.203921,61.56
2025-10-13T14:13:01.921880+00:00,11.060,8.173,6.742,-9.842,-4.193,136.847,56.162896,10.203880,62.00
2025-10-13T14:13:02.125031+00:00,11.064,8.046,6.831,-9.491,-3.895,140.910,56.162872,10.203887,61.33
2025-10-13T14:13:02.327033+00:00,11.068,8.000,6.932,-8.953,-3.559,144.951,56.162899,10.203931,57.55
2025-10-13T14:13:02.528925+00:00,11.072,8.035,7.044,-8.236,-3.187,148.988,56.162938,10.203868,61.97
2025-10-13T14:13:02.732023+00:00,11.076,8.151,7.166,-7.349,-2.780,153.050,56.162927,10.203927,60.43
2025-10-13T14:13:02.935865+00:00,11.081,8.344,7.297,-6.310,-2.343,157.127,56.162924,10.203855,59.32
2025-10-13T14:13:03.140738+00:00,11.085,8.607,7.436,-5.137,-1.879,161.224,56.162895,10.203854,61.39
2025-10-13T14:13:03.343651+00:00,11.089,8.925,7.580,-3.870,-1.400,165.283,56.162854,10.203939,59.29
2025-10-13T14:13:03.545780+00:00,11.093,9.285,7.727,-2.531,-0.909,169.325,56.162893,10.203877,60.44
2025-10-13T14:13:03.748883+00:00,11.097,9.676,7.878,-1.135,-0.406,173.387,56.162866,10.203927,59.07
2025-10-13T14:13:03.950891+00:00,11.101,10.079,8.030,0.277,0.099,177.428,56.162898,10.203872,59.83
2025-10-13T14:13:04.153209+00:00,11.105,10.479,8.181,1.685,0.603,181.474,56.162927,10.203867,59.09
2025-10-13T14:13:04.357227+00:00,11.109,10.862,8.332,3.071,1.105,185.554,56.162878,10.203895,60.16
2025-10-13T14:13:04.560014+00:00,11.113,11.208,8.478,4.386,1.593,189.610,56.162939,10.203900,60.38
2025-10-13T14:13:04.762447+00:00,11.117,11.504,8.619,5.611,2.064,193.659,56.162897,10.203881,60.68
2025-10-13T14:13:04.965075+00:00,11.121,11.739,8.754,6.725,2.514,197.711,56.162910,10.203903,57.52
2025-10-13T14:13:05.169112+00:00,11.125,11.903,8.882,7.710,2.941,201.792,56.162856,10.203915,57.71
2025-10-13T14:13:05.372209+00:00,11.129,11.988,9.001,8.535,3.336,205.854,56.162858,10.203863,59.30
2025-10-13T14:13:05.575607+00:00,11.133,11.991,9.109,9.188,3.697,209.922,56.162908,10.203873,58.86
2025-10-13T14:13:05.779157+00:00,11.137,11.912,9.206,9.655,4.020,213.993,56.162879,10.203899,60.12
2025-10-13T14:13:05.984508+00:00,11.141,11.753,9.291,9.929,4.303,218.100,56.162900,10.203867,61.63
2025-10-13T14:13:06.137411+00:00,11.144,11.586,9.346,9.999,4.485,221.158,56.162890,10.203920,60.33
2025-10-13T14:13:06.340465+00:00,11.148,11.307,9.406,9.916,4.686,225.219,56.162947,10.203891,60.31
2025-10-13T14:13:06.543737+00:00,11.152,10.975,9.452,9.633,4.839,229.284,56.162887,10.203886,59.95
2025-10-13T14:13:06.747005+00:00,11.156,10.602,9.482,9.155,4.942,233.350,56.162874,10.203904,58.73
2025-10-13T14:13:06.950054+00:00,11.160,10.205,9.498,8.492,4.993,237.411,56.162874,10.203859,59.70
2025-10-13T14:13:07.156241+00:00,11.164,9.794,9.498,7.644,4.993,241.534,56.162884,10.203879,61.09
2025-10-13T14:13:07.357974+00:00,11.168,9.399,9.483,6.661,4.942,245.569,56.162865,10.203853,58.09
2025-10-13T14:13:07.562557+00:00,11.171,9.024,9.452,5.528,4.839,249.661,56.162918,10.203850,59.62
2025-10-13T14:13:07.764335+00:00,11.175,8.694,9.406,4.300,4.687,253.696,56.162873,10.203901,59.87
2025-10-13T14:13:07.968095+00:00,11.179,8.415,9.346,2.973,4.486,257.772,56.162887,10.203913,58.86
2025-10-13T14:13:08.169771+00:00,11.183,8.203,9.272,1.600,4.241,261.805,56.162895,10.203885,57.87
2025-10-13T14:13:08.371445+00:00,11.186,8.063,9.186,0.195,3.952,265.839,56.162879,10.203857,61.99
2025-10-13T14:13:08.574212+00:00,11.190,8.002,9.087,-1.221,3.622,269.894,56.162917,10.203853,60.58
2025-10-13T14:13:08.777112+00:00,11.194,8.023,8.976,-2.614,3.254,273.952,56.162890,10.203932,58.56
2025-10-13T14:13:08.978841+00:00,11.197,8.125,8.857,-3.946,2.856,277.986,56.162894,10.203884,57.83
2025-10-13T14:13:09.180602+00:00,11.201,8.302,8.728,-5.200,2.428,282.022,56.162900,10.203895,59.05
2025-10-13T14:13:09.382270+00:00,11.204,8.548,8.593,-6.350,1.975,286.055,56.162859,10.203869,58.59
2025-10-13T14:13:09.584117+00:00,11.207,8.854,8.451,-7.375,1.503,290.092,56.162881,10.203892,61.32
2025-10-13T14:13:09.787115+00:00,11.211,9.207,8.303,-8.257,1.012,294.152,56.162902,10.203917,61.95
2025-10-13T14:13:09.989170+00:00,11.214,9.592,8.154,-8.970,0.513,298.193,56.162879,10.203942,61.41
2025-10-13T14:13:10.194932+00:00,11.218,10.001,8.000,-9.511,-0.001,302.308,56.162917,10.203877,61.77
2025-10-13T14:13:10.396726+00:00,11.221,10.402,7.849,-9.851,-0.505,306.344,56.162884,10.203944,61.14
2025-10-13T14:13:10.599743+00:00,11.224,10.788,7.698,-9.995,-1.006,310.404,56.162868,10.203893,59.55
2025-10-13T14:13:10.802530+00:00,11.227,11.142,7.551,-9.938,-1.497,314.460,56.162897,10.203923,61.86
2025-10-13T14:13:11.004744+00:00,11.230,11.449,7.409,-9.682,-1.971,318.505,56.162896,10.203865,58.13
2025-10-13T14:13:11.207502+00:00,11.233,11.697,7.272,-9.230,-2.425,322.560,56.162940,10.203928,60.42
2025-10-13T14:13:11.410522+00:00,11.236,11.875,7.143,-8.592,-2.856,326.620,56.162862,10.203867,57.54
2025-10-13T14:13:11.613938+00:00,11.239,11.977,7.023,-7.779,-3.258,330.688,56.162929,10.203906,57.61
2025-10-13T14:13:11.816920+00:00,11.242,11.997,6.912,-6.811,-3.626,334.748,56.162914,10.203900,59.85
2025-10-13T14:13:12.019758+00:00,11.245,11.936,6.813,-5.707,-3.955,338.805,56.162895,10.203890,58.31
2025-10-13T14:13:12.223159+00:00,11.248,11.794,6.726,-4.484,-4.246,342.873,56.162909,10.203854,62.29
2025-10-13T14:13:12.375329+00:00,11.250,11.639,6.670,-3.508,-4.434,345.916,56.162909,10.203893,58.68
2025-10-13T14:13:12.578025+00:00,11.252,11.375,6.606,-2.148,-4.645,349.970,56.162927,10.203863,59.13
2025-10-13T14:13:12.780289+00:00,11.255,11.055,6.558,-0.749,-4.808,354.015,56.162857,10.203880,58.82
2025-10-13T14:13:12.982839+00:00,11.258,10.692,6.523,0.668,-4.922,358.067,56.162909,10.203923,59.05
2025-10-13T14:13:13.184982+00:00,11.260,10.301,6.504,2.068,-4.986,2.109,56.162882,10.203866,58.47
2025-10-13T14:13:13.388643+00:00,11.262,9.895,6.501,3.437,-4.998,6.182,56.162878,10.203950,61.33
2025-10-13T14:13:13.592695+00:00,11.265,9.493,6.512,4.739,-4.959,10.264,56.162860,10.203910,60.21
2025-10-13T14:13:13.795973+00:00,11.267,9.112,6.539,5.940,-4.868,14.329,56.162874,10.203922,61.35
2025-10-13T14:13:13.999070+00:00,11.269,8.769,6.582,7.020,-4.728,18.391,56.162923,10.203928,57.83
2025-10-13T14:13:14.204181+00:00,11.271,8.474,6.639,7.967,-4.536,22.493,56.162929,10.203881,58.23
2025-10-13T14:13:14.406195+00:00,11.273,8.246,6.710,8.739,-4.301,26.534,56.162870,10.203943,60.01
2025-10-13T14:13:14.609939+00:00,11.275,8.088,6.794,9.341,-4.020,30.609,56.162865,10.203868,59.99
2025-10-13T14:13:14.811729+00:00,11.277,8.009,6.890,9.751,-3.700,34.644,56.162886,10.203902,58.82
2025-10-13T14:13:15.014187+00:00,11.279,8.011,6.998,9.966,-3.341,38.694,56.162916,10.203897,61.82
2025-10-13T14:13:15.217153+00:00,11.281,8.095,7.116,9.982,-2.947,42.753,56.162950,10.203886,60.98
2025-10-13T14:13:15.420248+00:00,11.283,8.258,7.243,9.796,-2.522,46.815,56.162902,10.203879,60.70
2025-10-13T14:13:15.623647+00:00,11.284,8.492,7.379,9.412,-2.071,50.883,56.162862,10.203888,58.30
2025-10-13T14:13:15.826387+00:00,11.286,8.787,7.520,8.840,-1.600,54.938,56.162917,10.203861,60.03
2025-10-13T14:13:16.028803+00:00,11.287,9.132,7.666,8.091,-1.113,58.986,56.162913,10.203929,58.62
2025-10-13T14:13:16.231985+00:00,11.289,9.513,7.816,7.176,-0.613,63.049,56.162907,10.203898,60.92
2025-10-13T14:13:16.434342+00:00,11.290,9.913,7.967,6.121,-0.108,67.097,56.162949,10.203909,60.30
2025-10-13T14:13:16.637267+00:00,11.291,10.318,8.120,4.940,0.398,71.155,56.162943,10.203933,61.14
2025-10-13T14:13:16.839759+00:00,11.292,10.708,8.270,3.662,0.900,75.205,56.162871,10.203854,60.79
2025-10-13T14:13:17.042185+00:00,11.293,11.070,8.418,2.311,1.392,79.254,56.162925,10.203944,61.28
2025-10-13T14:13:17.194843+00:00,11.294,11.314,8.526,1.260,1.755,82.307,56.162888,10.203906,58.59
2025-10-13T14:13:17.397126+00:00,11.295,11.590,8.666,-0.153,2.218,86.352,56.162942,10.203940,60.72
2025-10-13T14:13:17.599133+00:00,11.296,11.801,8.798,-1.560,2.659,90.392,56.162915,10.203887,60.48
2025-10-13T14:13:17.801326+00:00,11.297,11.939,8.922,-2.938,3.073,94.436,56.162940,10.203862,59.86
2025-10-13T14:13:18.003959+00:00,11.297,11.998,9.037,-4.260,3.456,98.489,56.162909,10.203915,59.80
2025-10-13T14:13:18.208975+00:00,11.298,11.974,9.142,-5.510,3.807,102.589,56.162925,10.203852,61.90
2025-10-13T14:13:18.412996+00:00,11.299,11.869,9.235,-6.641,4.118,106.669,56.162930,10.203854,61.17
2025-10-13T14:13:18.616045+00:00,11.299,11.687,9.315,-7.634,4.384,110.730,56.162924,10.203872,60.09
2025-10-13T14:13:18.819071+00:00,11.299,11.435,9.382,-8.472,4.605,114.791,56.162949,10.203902,59.80
2025-10-13T14:13:19.023403+00:00,11.300,11.123,9.434,-9.142,4.780,118.878,56.162854,10.203903,59.69
2025-10-13T14:13:19.226907+00:00,11.300,10.765,9.471,-9.625,4.904,122.948,56.162926,10.203884,59.72
2025-10-13T14:13:19.430712+00:00,11.300,10.375,9.493,-9.913,4.978,127.024,56.162941,10.203935,59.39
2025-10-13T14:13:19.633545+00:00,11.300,9.972,9.500,-10.000,5.000,131.080,56.162949,10.203860,58.69
2025-10-13T14:13:19.837790+00:00,11.300,9.567,9.491,-9.883,4.970,135.165,56.162933,10.203887,59.18
2025-10-13T14:13:20.040693+00:00,11.300,9.182,9.467,-9.568,4.889,139.223,56.162869,10.203882,62.15
2025-10-13T14:13:20.245874+00:00,11.300,8.827,9.427,-9.054,4.757,143.327,56.162867,10.203900,61.85
2025-10-13T14:13:20.449280+00:00,11.299,8.524,9.373,-8.359,4.576,147.395,56.162915,10.203860,58.62
2025-10-13T14:13:20.653802+00:00,11.299,8.281,9.304,-7.491,4.346,151.485,56.162896,10.203895,58.13
2025-10-13T14:13:20.857335+00:00,11.298,8.110,9.222,-6.474,4.072,155.556,56.162852,10.203936,60.46
2025-10-13T14:13:21.060716+00:00,11.298,8.017,9.127,-5.327,3.757,159.624,56.162932,10.203866,59.57
2025-10-13T14:13:21.213946+00:00,11.297,8.001,9.048,-4.391,3.493,162.688,56.162941,10.203906,62.32
2025-10-13T14:13:21.417829+00:00,11.297,8.052,8.933,-3.068,3.111,166.766,56.162907,10.203867,62.45
2025-10-13T14:13:21.619979+00:00,11.296,8.182,8.810,-1.695,2.700,170.810,56.162883,10.203862,57.65
2025-10-13T14:13:21.822744+00:00,11.295,8.387,8.678,-0.284,2.260,174.864,56.162909,10.203881,58.42
2025-10-13T14:13:22.024622+00:00,11.294,8.657,8.540,1.127,1.799,178.902,56.162868,10.203927,62.21
2025-10-13T14:13:22.227162+00:00,11.293,8.982,8.396,2.519,1.319,182.953,56.162918,10.203916,60.80
2025-10-13T14:13:22.432176+00:00,11.292,9.354,8.245,3.878,0.818,187.053,56.162863,10.203947,59.55
2025-10-13T14:13:22.634653+00:00,11.291,9.748,8.095,5.141,0.315,191.103,56.162906,10.203894,57.78
2025-10-13T14:13:22.839621+00:00,11.290,10.157,7.941,6.314,-0.197,195.202,56.162856,10.203931,58.84
2025-10-13T14:13:23.041799+00:00,11.288,10.554,7.790,7.345,-0.700,199.246,56.162868,10.203868,61.40
2025-10-13T14:13:23.245544+00:00,11.287,10.932,7.640,8.235,-1.200,203.321,56.162891,10.203919,60.93
2025-10-13T14:13:23.447461+00:00,11.286,11.268,7.495,8.952,-1.683,207.359,56.162879,10.203949,62.03
2025-10-13T14:13:23.649517+00:00,11.284,11.552,7.355,9.491,-2.149,211.400,56.162873,10.203935,59.06
2025-10-13T14:13:23.851533+00:00,11.282,11.774,7.222,9.840,-2.593,215.441,56.162864,10.203868,58.61
2025-10-13T14:13:24.054593+00:00,11.281,11.924,7.096,9.993,-3.013,219.502,56.162876,10.203916,62.16
2025-10-13T14:13:24.257842+00:00,11.279,11.995,6.979,9.945,-3.403,223.567,56.162886,10.203917,60.51
2025-10-13T14:13:24.459787+00:00,11.277,11.984,6.874,9.697,-3.755,227.606,56.162872,10.203902,61.46
2025-10-13T14:13:24.661879+00:00,11.275,11.892,6.779,9.256,-4.068,231.648,56.162850,10.203909,57.86
2025-10-13T14:13:24.863513+00:00,11.273,11.724,6.698,8.631,-4.340,235.680,56.162916,10.203913,60.94
2025-10-13T14:13:25.065467+00:00,11.271,11.485,6.629,7.834,-4.568,239.719,56.162899,10.203908,61.23
2025-10-13T14:13:25.268672+00:00,11.269,11.184,6.575,6.874,-4.751,243.783,56.162876,10.203869,59.77
2025-10-13T14:13:25.473753+00:00,11.267,10.831,6.534,5.764,-4.886,247.885,56.162852,10.203884,59.76
2025-10-13T14:13:25.675817+00:00,11.264,10.450,6.510,4.554,-4.968,251.926,56.162950,10.203947,58.83
2025-10-13T14:13:25.878517+00:00,11.262,10.048,6.500,3.249,-5.000,255.980,56.162883,10.203896,61.74
2025-10-13T14:13:26.080336+00:00,11.260,9.646,6.506,1.885,-4.980,260.017,56.162948,10.203888,62.16
2025-10-13T14:13:26.284010+00:00,11.257,9.255,6.527,0.471,-4.909,264.090,56.162886,10.203854,58.86
2025-10-13T14:13:26.436820+00:00,11.255,8.982,6.553,-0.598,-4.823,267.146,56.162873,10.203931,57.64
2025-10-13T14:13:26.640509+00:00,11.253,8.654,6.601,-2.011,-4.663,271.220,56.162859,10.203929,58.67
2025-10-13T14:13:26.842789+00:00,11.250,8.385,6.663,-3.373,-4.458,275.266,56.162874,10.203940,60.22
2025-10-13T14:13:27.044963+00:00,11.247,8.181,6.738,-4.667,-4.206,279.309,56.162902,10.203872,57.77
2025-10-13T14:13:27.248152+00:00,11.245,8.050,6.827,-5.874,-3.910,283.373,56.162866,10.203889,57.65
2025-10-13T14:13:27.450035+00:00,11.242,8.001,6.927,-6.955,-3.576,287.411,56.162896,10.203853,59.75
2025-10-13T14:13:27.657756+00:00,11.239,8.034,7.042,-7.923,-3.195,291.564,56.162879,10.203949,58.45
2025-10-13T14:13:27.862214+00:00,11.236,8.149,7.164,-8.712,-2.786,295.654,56.162939,10.203903,60.56
2025-10-13T14:13:28.064498+00:00,11.233,8.339,7.294,-9.318,-2.352,299.700,56.162923,10.203944,60.95
2025-10-13T14:13:28.267702+00:00,11.230,8.599,7.432,-9.738,-1.893,303.764,56.162875,10.203938,60.57
2025-10-13T14:13:28.469604+00:00,11.227,8.913,7.575,-9.961,-1.417,307.802,56.162903,10.203859,57.52
2025-10-13T14:13:28.672360+00:00,11.223,9.273,7.723,-9.985,-0.924,311.857,56.162878,10.203869,59.06
2025-10-13T14:13:28.875770+00:00,11.220,9.665,7.874,-9.808,-0.420,315.925,56.162924,10.203916,61.09
2025-10-13T14:13:29.078909+00:00,11.217,10.070,8.026,-9.432,0.087,319.988,56.162897,10.203861,57.65
2025-10-13T14:13:29.281738+00:00,11.214,10.471,8.178,-8.868,0.593,324.045,56.162869,10.203945,58.66
2025-10-13T14:13:29.484729+00:00,11.210,10.853,8.328,-8.124,1.093,328.104,56.162858,10.203899,59.25
2025-10-13T14:13:29.686936+00:00,11.207,11.199,8.474,-7.220,1.580,332.149,56.162911,10.203865,61.24
2025-10-13T14:13:29.888640+00:00,11.203,11.495,8.615,-6.174,2.049,336.183,56.162917,10.203910,61.38
2025-10-13T14:13:30.090933+00:00,11.200,11.732,8.750,-5.002,2.499,340.229,56.162922,10.203942,58.90
2025-10-13T14:13:30.293667+00:00,11.196,11.898,8.877,-3.727,2.925,344.283,56.162889,10.203893,59.73
2025-10-13T14:13:30.496751+00:00,11.193,11.986,8.996,-2.375,3.321,348.345,56.162890,10.203878,59.13
2025-10-13T14:13:30.700113+00:00,11.189,11.993,9.105,-0.973,3.683,352.412,56.162906,10.203901,61.30
2025-10-13T14:13:30.902405+00:00,11.186,11.918,9.202,0.442,4.006,356.458,56.162948,10.203915,57.97
2025-10-13T14:13:31.104855+00:00,11.182,11.765,9.286,1.848,4.287,0.507,56.162886,10.203924,62.17
2025-10-13T14:13:31.309042+00:00,11.178,11.537,9.358,3.229,4.527,4.590,56.162874,10.203913,58.04
2025-10-13T14:13:31.511113+00:00,11.174,11.249,9.415,4.531,4.718,8.632,56.162897,10.203912,58.06
2025-10-13T14:13:31.713322+00:00,11.171,10.910,9.458,5.744,4.861,12.676,56.162918,10.203894,60.10
2025-10-13T14:13:31.916954+00:00,11.167,10.531,9.486,6.848,4.955,16.749,56.162927,10.203868,59.08
2025-10-13T14:13:32.120019+00:00,11.163,10.131,9.499,7.811,4.997,20.810,56.162913,10.203854,58.01
2025-10-13T14:13:32.324086+00:00,11.159,9.724,9.496,8.621,4.988,24.891,56.162869,10.203936,57.82
2025-10-13T14:13:32.476431+00:00,11.156,9.427,9.484,9.111,4.947,27.938,56.162947,10.203938,59.06
2025-10-13T14:13:32.678839+00:00,11.152,9.053,9.455,9.602,4.849,31.986,56.162877,10.203859,60.58
2025-10-13T14:13:32.881318+00:00,11.148,8.718,9.410,9.900,4.701,36.036,56.162900,10.203879,60.68
2025-10-13T14:13:33.086011+00:00,11.144,8.433,9.351,10.000,4.502,40.130,56.162948,10.203942,60.93
2025-10-13T14:13:33.289155+00:00,11.140,8.214,9.277,9.896,4.258,44.193,56.162901,10.203857,58.02
2025-10-13T14:13:33.492426+00:00,11.136,8.069,9.191,9.593,3.970,48.258,56.162857,10.203905,61.84
2025-10-13T14:13:33.695672+00:00,11.132,8.004,9.092,9.095,3.641,52.323,56.162939,10.203872,59.19
2025-10-13T14:13:33.898808+00:00,11.128,8.020,8.983,8.414,3.275,56.386,56.162875,10.203930,61.93
2025-10-13T14:13:34.100793+00:00,11.124,8.117,8.863,7.569,2.878,60.425,56.162908,10.203922,59.66
2025-10-13T14:13:34.303407+00:00,11.120,8.292,8.735,6.569,2.449,64.478,56.162890,10.203928,61.92
2025-10-13T14:13:34.507668+00:00,11.116,8.538,8.598,5.428,1.992,68.563,56.162916,10.203861,59.58
2025-10-13T14:13:34.712302+00:00,11.112,8.846,8.454,4.173,1.513,72.656,56.162897,10.203939,62.13
2025-10-13T14:13:34.914900+00:00,11.108,9.198,8.307,2.847,1.024,76.707,56.162923,10.203853,59.69
2025-10-13T14:13:35.118342+00:00,11.104,9.585,8.156,1.457,0.521,80.777,56.162872,10.203862,61.96
2025-10-13T14:13:35.320699+00:00,11.100,9.987,8.005,0.046,0.016,84.824,56.162903,10.203881,60.04
2025-10-13T14:13:35.522659+00:00,11.096,10.388,7.854,-1.363,-0.488,88.863,56.162893,10.203925,61.40
2025-10-13T14:13:35.724933+00:00,11.092,10.774,7.704,-2.748,-0.988,92.908,56.162887,10.203944,58.50
2025-10-13T14:13:35.929454+00:00,11.088,11.133,7.555,-4.091,-1.483,96.999,56.162885,10.203909,60.84
2025-10-13T14:13:36.133115+00:00,11.084,11.443,7.412,-5.346,-1.960,101.072,56.162898,10.203910,58.32
2025-10-13T14:13:36.336617+00:00,11.080,11.693,7.275,-6.492,-2.418,105.142,56.162862,10.203939,62.06
2025-10-13T14:13:36.539523+00:00,11.076,11.873,7.145,-7.503,-2.848,109.200,56.162943,10.203948,60.44
2025-10-13T14:13:36.742091+00:00,11.072,11.976,7.025,-8.362,-3.249,113.251,56.162925,10.203905,59.58
2025-10-13T14:13:36.893714+00:00,11.069,12.000,6.942,-8.896,-3.528,116.284,56.162891,10.203891,58.57
2025-10-13T14:13:37.097228+00:00,11.065,11.960,6.839,-9.454,-3.869,120.354,56.162856,10.203915,59.84
2025-10-13T14:13:37.301501+00:00,11.061,11.839,6.748,-9.822,-4.172,124.440,56.162944,10.203920,61.66
2025-10-13T14:13:37.503833+00:00,11.057,11.644,6.671,-9.989,-4.429,128.486,56.162867,10.203885,58.16
2025-10-13T14:13:37.706764+00:00,11.053,11.381,6.608,-9.955,-4.641,132.545,56.162882,10.203941,58.20
2025-10-13T14:13:37.908758+00:00,11.049,11.063,6.558,-9.722,-4.805,136.585,56.162900,10.203863,57.56
2025-10-13T14:13:38.111077+00:00,11.045,10.700,6.524,-9.295,-4.920,140.631,56.162872,10.203932,61.67
2025-10-13T14:13:38.314490+00:00,11.041,10.308,6.504,-8.677,-4.985,144.699,56.162924,10.203895,61.29
2025-10-13T14:13:38.517570+00:00,11.037,9.903,6.500,-7.885,-4.999,148.761,56.162927,10.203950,61.05
2025-10-13T14:13:38.720987+00:00,11.033,9.501,6.512,-6.933,-4.960,152.829,56.162896,10.203895,60.31
2025-10-13T14:13:38.923612+00:00,11.030,9.122,6.539,-5.844,-4.871,156.882,56.162911,10.203930,58.99
2025-10-13T14:13:39.126240+00:00,11.026,8.778,6.580,-4.638,-4.732,160.935,56.162889,10.203933,61.04
2025-10-13T14:13:39.328747+00:00,11.022,8.484,6.637,-3.340,-4.545,164.985,56.162874,10.203944,59.53
2025-10-13T14:13:39.533008+00:00,11.018,8.251,6.707,-1.963,-4.309,169.070,56.162922,10.203904,61.93
2025-10-13T14:13:39.736447+00:00,11.015,8.091,6.791,-0.552,-4.029,173.139,56.162885,10.203881,58.52
2025-10-13T14:13:39.941849+00:00,11.011,8.010,6.889,0.885,-3.704,177.246,56.162929,10.203949,62.01
2025-10-13T14:13:40.145093+00:00,11.007,8.011,6.997,2.288,-3.344,181.311,56.162874,10.203885,62.30
2025-10-13T14:13:40.349805+00:00,11.004,8.095,7.116,3.655,-2.947,185.406,56.162918,10.203876,58.87
2025-10-13T14:13:40.551972+00:00,11.000,8.257,7.243,4.931,-2.524,189.449,56.162863,10.203932,58.59
2025-10-13T14:13:40.757148+00:00,10.997,8.493,7.379,6.126,-2.069,193.553,56.162877,10.203930,59.59
2025-10-13T14:13:40.959435+00:00,10.993,8.788,7.520,7.180,-1.599,197.599,56.162886,10.203908,60.83
2025-10-13T14:13:41.161515+00:00,10.990,9.132,7.666,8.089,-1.113,201.640,56.162914,10.203852,60.22
2025-10-13T14:13:41.364728+00:00,10.986,9.513,7.816,8.841,-0.613,205.704,56.162875,10.203914,59.55
2025-10-13T14:13:41.517029+00:00,10.984,9.813,7.930,9.288,-0.234,208.750,56.162914,10.203892,58.20
2025-10-13T14:13:41.720807+00:00,10.981,10.220,8.083,9.721,0.276,212.826,56.162886,10.203935,61.34
2025-10-13T14:13:41.924717+00:00,10.977,10.618,8.235,9.956,0.782,216.904,56.162920,10.203861,59.64
2025-10-13T14:13:42.126812+00:00,10.974,10.987,8.383,9.989,1.277,220.946,56.162884,10.203950,60.74
2025-10-13T14:13:42.329224+00:00,10.971,11.317,8.528,9.822,1.758,224.994,56.162943,10.203908,62.39
2025-10-13T14:13:42.531631+00:00,10.968,11.593,8.667,9.458,2.222,229.042,56.162872,10.203890,62.12
2025-10-13T14:13:42.735229+00:00,10.965,11.804,8.800,8.901,2.666,233.113,56.162855,10.203880,59.15
2025-10-13T14:13:42.939002+00:00,10.962,11.942,8.925,8.163,3.082,237.190,56.162893,10.203896,59.59
2025-10-13T14:13:43.142272+00:00,10.959,11.998,9.040,7.261,3.466,241.255,56.162938,10.203941,61.30
2025-10-13T14:13:43.345094+00:00,10.956,11.973,9.144,6.216,3.813,245.312,56.162893,10.203873,58.54
2025-10-13T14:13:43.547163+00:00,10.953,11.868,9.236,5.049,4.120,249.353,56.162939,10.203880,62.18
2025-10-13T14:13:43.750742+00:00,10.951,11.684,9.316,3.772,4.386,253.425,56.162856,10.203905,59.25
2025-10-13T14:13:43.952751+00:00,10.948,11.434,9.382,2.429,4.606,257.465,56.162856,10.203863,58.40
2025-10-13T14:13:44.156029+00:00,10.945,11.123,9.434,1.029,4.780,261.530,56.162937,10.203940,59.35
2025-10-13T14:13:44.360001+00:00,10.943,10.764,9.471,-0.397,4.904,265.610,56.162928,10.203894,60.78
2025-10-13T14:13:44.562066+00:00,10.940,10.378,9.493,-1.802,4.977,269.651,56.162883,10.203906,59.70
2025-10-13T14:13:44.765615+00:00,10.938,9.973,9.500,-3.180,5.000,273.722,56.162851,10.203918,61.45
2025-10-13T14:13:44.967884+00:00,10.936,9.572,9.491,-4.486,4.971,277.767,56.162861,10.203920,59.89
2025-10-13T14:13:45.170018+00:00,10.933,9.188,9.467,-5.702,4.891,281.810,56.162925,10.203944,58.65
2025-10-13T14:13:45.372412+00:00,10.931,8.837,9.428,-6.805,4.761,285.858,56.162889,10.203875,59.85
2025-10-13T14:13:45.575448+00:00,10.929,8.533,9.375,-7.774,4.582,289.919,56.162889,10.203887,61.46
2025-10-13T14:13:45.778900+00:00,10.927,8.289,9.307,-8.588,4.355,293.987,56.162891,10.203893,58.07
2025-10-13T14:13:45.985915+00:00,10.925,8.112,9.223,-9.238,4.078,298.128,56.162894,10.203869,59.50
2025-10-13T14:13:46.188588+00:00,10.923,8.018,9.129,-9.686,3.765,302.182,56.162911,10.203905,62.09
2025-10-13T14:13:46.341611+00:00,10.922,8.000,9.051,-9.897,3.502,305.242,56.162907,10.203948,58.65
2025-10-13T14:13:46.545053+00:00,10.920,8.049,8.937,-10.000,3.122,309.311,56.162926,10.203928,58.68
2025-10-13T14:13:46.747565+00:00,10.918,8.178,8.813,-9.902,2.711,313.361,56.162870,10.203945,60.17
2025-10-13T14:13:46.949685+00:00,10.916,8.380,8.682,-9.606,2.273,317.404,56.162914,10.203942,58.22
2025-10-13T14:13:47.152813+00:00,10.915,8.650,8.543,-9.115,1.810,321.466,56.162940,10.203927,61.23
2025-10-13T14:13:47.355280+00:00,10.913,8.975,8.399,-8.443,1.330,325.515,56.162923,10.203900,60.81
2025-10-13T14:13:47.557181+00:00,10.912,9.340,8.251,-7.604,0.837,329.553,56.162891,10.203851,60.89
2025-10-13T14:13:47.759442+00:00,10.911,9.732,8.101,-6.611,0.335,333.599,56.162917,10.203931,61.91
2025-10-13T14:13:47.962015+00:00,10.909,10.137,7.949,-5.484,-0.171,337.650,56.162942,10.203914,60.45
2025-10-13T14:13:48.164276+00:00,10.908,10.535,7.798,-4.249,-0.674,341.695,56.162869,10.203869,62.01
2025-10-13T14:13:48.368618+00:00,10.907,10.915,7.647,-2.916,-1.176,345.782,56.162873,10.203861,58.59
2025-10-13T14:13:48.572789+00:00,10.906,11.256,7.500,-1.523,-1.665,349.865,56.162870,10.203935,62.07
2025-10-13T14:13:48.777050+00:00,10.905,11.546,7.359,-0.100,-2.137,353.951,56.162885,10.203915,60.12
2025-10-13T14:13:48.981017+00:00,10.904,11.771,7.224,1.324,-2.586,358.030,56.162940,10.203888,58.64
2025-10-13T14:13:49.185126+00:00,10.903,11.922,7.097,2.722,-3.009,2.112,56.162946,10.203903,59.49
2025-10-13T14:13:49.387940+00:00,10.903,11.994,6.981,4.056,-3.398,6.168,56.162858,10.203900,60.94
2025-10-13T14:13:49.591473+00:00,10.902,11.984,6.874,5.313,-3.753,10.239,56.162934,10.203877,59.64
2025-10-13T14:13:49.796133+00:00,10.902,11.891,6.779,6.468,-4.071,14.332,56.162910,10.203941,61.23
2025-10-13T14:13:50.001467+00:00,10.901,11.719,6.696,7.494,-4.347,18.439,56.162910,10.203924,61.00
2025-10-13T14:13:50.205334+00:00,10.901,11.476,6.627,8.359,-4.576,22.516,56.162920,10.203915,59.90
2025-10-13T14:13:50.362166+00:00,10.900,11.247,6.584,8.910,-4.719,25.653,56.162868,10.203925,59.30
2025-10-13T14:13:50.564327+00:00,10.900,10.907,6.541,9.462,-4.862,29.696,56.162902,10.203891,59.90
2025-10-13T14:13:50.765506+00:00,10.900,10.533,6.514,9.822,-4.955,33.720,56.162855,10.203856,57.89
2025-10-13T14:13:50.967050+00:00,10.900,10.136,6.501,9.989,-4.997,37.751,56.162899,10.203928,61.20
2025-10-13T14:13:51.168965+00:00,10.900,9.733,6.503,9.956,-4.989,41.789,56.162873,10.203939,61.52
2025-10-13T14:13:51.372510+00:00,10.900,9.338,6.521,9.723,-4.929,45.860,56.162851,10.203904,60.28
2025-10-13T14:13:51.574375+00:00,10.900,8.973,6.554,9.296,-4.819,49.897,56.162875,10.203938,59.36
2025-10-13T14:13:51.775996+00:00,10.901,8.650,6.602,8.686,-4.661,53.930,56.162871,10.203941,59.32
2025-10-13T14:13:51.977466+00:00,10.901,8.382,6.663,7.903,-4.455,57.959,56.162870,10.203865,59.23
2025-10-13T14:13:52.179451+00:00,10.901,8.179,6.739,6.960,-4.204,61.999,56.162861,10.203859,61.50
2025-10-13T14:13:52.382229+00:00,10.902,8.050,6.828,5.875,-3.908,66.055,56.162887,10.203857,61.01
2025-10-13T14:13:52.585181+00:00,10.902,8.000,6.928,4.670,-3.572,70.113,56.162866,10.203876,60.86
2025-10-13T14:13:52.788362+00:00,10.903,8.033,7.040,3.369,-3.199,74.177,56.162870,10.203920,57.66
2025-10-13T14:13:52.991167+00:00,10.904,8.146,7.162,2.003,-2.794,78.233,56.162945,10.203942,58.19
2025-10-13T14:13:53.193459+00:00,10.905,8.335,7.292,0.600,-2.361,82.279,56.162870,10.203871,58.68
2025-10-13T14:13:53.395300+00:00,10.906,8.591,7.429,-0.812,-1.904,86.316,56.162851,10.203903,57.62
2025-10-13T14:13:53.598244+00:00,10.907,8.906,7.572,-2.215,-1.426,90.375,56.162908,10.203948,57.89
2025-10-13T14:13:53.803495+00:00,10.908,9.271,7.722,-3.588,-0.928,94.480,56.162889,10.203881,60.22
2025-10-13T14:13:54.006510+00:00,10.909,9.661,7.872,-4.874,-0.425,98.540,56.162874,10.203932,62.15
2025-10-13T14:13:54.209903+00:00,10.910,10.066,8.025,-6.064,0.083,102.608,56.162921,10.203880,58.06
2025-10-13T14:13:54.411442+00:00,10.911,10.465,8.176,-7.121,0.585,106.639,56.162946,10.203935,61.13
2025-10-13T14:13:54.613723+00:00,10.913,10.846,8.325,-8.041,1.084,110.684,56.162943,10.203874,59.60
2025-10-13T14:13:54.817649+00:00,10.914,11.196,8.472,-8.805,1.575,114.763,56.162865,10.203877,59.56
2025-10-13T14:13:55.019866+00:00,10.916,11.493,8.614,-9.386,2.046,118.807,56.162851,10.203868,62.12
2025-10-13T14:13:55.222794+00:00,10.917,11.731,8.749,-9.780,2.497,122.866,56.162880,10.203873,62.23
2025-10-13T14:13:55.424785+00:00,10.919,11.897,8.876,-9.976,2.921,126.906,56.162924,10.203858,57.94
2025-10-13T14:13:55.627473+00:00,10.921,11.986,8.995,-9.973,3.317,130.959,56.162947,10.203862,59.87
2025-10-13T14:13:55.830001+00:00,10.923,11.993,9.103,-9.770,3.678,135.010,56.162868,10.203870,60.03
2025-10-13T14:13:56.032052+00:00,10.924,11.920,9.200,-9.372,4.001,139.051,56.162885,10.203894,58.49
2025-10-13T14:13:56.234814+00:00,10.926,11.767,9.285,-8.785,4.284,143.106,56.162878,10.203940,61.60
2025-10-13T14:13:56.388512+00:00,10.928,11.603,9.341,-8.221,4.469,146.180,56.162943,10.203873,59.42
2025-10-13T14:13:56.591843+00:00,10.930,11.329,9.402,-7.330,4.674,150.246,56.162911,10.203929,59.14
2025-10-13T14:13:56.795340+00:00,10.932,10.999,9.449,-6.290,4.830,154.317,56.162864,10.203922,58.90
2025-10-13T14:13:56.997944+00:00,10.935,10.630,9.481,-5.129,4.936,158.369,56.162895,10.203869,58.34
2025-10-13T14:13:57.200598+00:00,10.937,10.235,9.497,-3.863,4.991,162.422,56.162908,10.203872,58.41
2025-10-13T14:13:57.403386+00:00,10.939,9.830,9.499,-2.520,4.995,166.477,56.162859,10.203873,60.40
2025-10-13T14:13:57.606257+00:00,10.942,9.432,9.484,-1.124,4.948,170.535,56.162910,10.203937,59.80
2025-10-13T14:13:57.809490+00:00,10.944,9.057,9.455,0.296,4.850,174.600,56.162925,10.203928,59.31
2025-10-13T14:13:58.011768+00:00,10.947,8.722,9.411,1.703,4.703,178.645,56.162871,10.203901,59.45
2025-10-13T14:13:58.214657+00:00,10.949,8.438,9.352,3.081,4.506,182.703,56.162879,10.203869,59.17
2025-10-13T14:13:58.416971+00:00,10.952,8.219,9.279,4.393,4.265,186.749,56.162864,10.203931,61.42
2025-10-13T14:13:58.619978+00:00,10.955,8.072,9.193,5.621,3.978,190.809,56.162916,10.203895,58.56
2025-10-13T14:13:58.822437+00:00,10.958,8.004,9.095,6.733,3.652,194.858,56.162896,10.203884,58.12
2025-10-13T14:13:59.024488+00:00,10.961,8.018,8.987,7.708,3.289,198.900,56.162883,10.203870,59.28
2025-10-13T14:13:59.226873+00:00,10.963,8.113,8.867,8.530,2.891,202.947,56.162917,10.203885,62.07
2025-10-13T14:13:59.429761+00:00,10.966,8.285,8.739,9.183,2.463,207.005,56.162881,10.203854,61.23
2025-10-13T14:13:59.633572+00:00,10.969,8.529,8.602,9.653,2.008,211.081,56.162947,10.203923,61.02
2025-10-13T14:13:59.836593+00:00,10.973,8.832,8.460,9.925,1.534,215.141,56.162935,10.203911,61.47
2025-10-13T14:14:00.038687+00:00,10.976,9.182,8.314,9.998,1.046,219.184,56.162881,10.203884,59.54
2025-10-13T14:14:00.240799+00:00,10.979,9.565,8.164,9.871,0.547,223.226,56.162949,10.203882,58.18
2025-10-13T14:14:00.444034+00:00,10.982,9.968,8.012,9.545,0.040,227.291,56.162948,10.203886,59.11
2025-10-13T14:14:00.646292+00:00,10.985,10.370,7.861,9.028,-0.465,231.336,56.162865,10.203939,61.15
2025-10-13T14:14:00.849946+00:00,10.989,10.760,7.709,8.326,-0.969,235.408,56.162865,10.203939,60.06
2025-10-13T14:14:01.053260+00:00,10.992,11.118,7.562,7.456,-1.461,239.475,56.162916,10.203894,59.88
2025-10-13T14:14:01.257167+00:00,10.996,11.431,7.418,6.432,-1.940,243.553,56.162907,10.203919,61.57
2025-10-13T14:14:01.459382+00:00,10.999,11.682,7.281,5.287,-2.396,247.597,56.162890,10.203936,61.97
2025-10-13T14:14:01.661236+00:00,11.003,11.865,7.152,4.039,-2.826,251.635,56.162942,10.203851,60.06
2025-10-13T14:14:01.814884+00:00,11.005,11.954,7.060,3.034,-3.134,254.707,56.162867,10.203910,60.84
2025-10-13T14:14:02.017749+00:00,11.009,12.000,6.946,1.655,-3.512,258.765,56.162919,10.203869,59.25
2025-10-13T14:14:02.220259+00:00,11.013,11.964,6.844,0.245,-3.854,262.815,56.162881,10.203929,58.58
2025-10-13T14:14:02.425243+00:00,11.016,11.846,6.752,-1.187,-4.160,266.915,56.162906,10.203913,61.58
2025-10-13T14:14:02.628204+00:00,11.020,11.654,6.674,-2.581,-4.419,270.974,56.162887,10.203934,58.68
2025-10-13T14:14:02.830504+00:00,11.024,11.394,6.610,-3.919,-4.633,275.020,56.162942,10.203860,61.87
2025-10-13T14:14:03.033376+00:00,11.027,11.076,6.560,-5.182,-4.800,279.077,56.162914,10.203872,59.62
2025-10-13T14:14:03.236007+00:00,11.031,10.715,6.525,-6.339,-4.917,283.130,56.162850,10.203869,57.52
2025-10-13T14:14:03.441971+00:00,11.035,10.318,6.505,-7.384,-4.984,287.249,56.162916,10.203889,60.73
2025-10-13T14:14:03.646896+00:00,11.039,9.909,6.500,-8.272,-4.999,291.348,56.162862,10.203853,62.30
2025-10-13T14:14:03.849599+00:00,11.043,9.509,6.512,-8.984,-4.962,295.402,56.162906,10.203892,59.02
2025-10-13T14:14:04.052236+00:00,11.047,9.129,6.538,-9.514,-4.874,299.455,56.162899,10.203863,58.87
2025-10-13T14:14:04.255497+00:00,11.051,8.783,6.579,-9.855,-4.735,303.520,56.162870,10.203895,59.99
2025-10-13T14:14:04.459491+00:00,11.055,8.487,6.636,-9.996,-4.547,307.599,56.162946,10.203892,58.55
2025-10-13T14:14:04.662137+00:00,11.059,8.255,6.706,-9.935,-4.313,311.652,56.162895,10.203934,58.84
2025-10-13T14:14:04.865502+00:00,11.063,8.093,6.790,-9.673,-4.034,315.720,56.162857,10.203920,61.14
2025-10-13T14:14:05.068093+00:00,11.067,8.011,6.885,-9.218,-3.715,319.772,56.162907,10.203948,60.56
2025-10-13T14:14:05.271433+00:00,11.071,8.010,6.993,-8.574,-3.356,323.838,56.162939,10.203924,59.59
2025-10-13T14:14:05.474057+00:00,11.075,8.090,7.111,-7.761,-2.964,327.891,56.162854,10.203916,59.22
2025-10-13T14:14:05.677679+00:00,11.079,8.250,7.238,-6.786,-2.540,331.963,56.162866,10.203881,60.57
2025-10-13T14:14:05.880188+00:00,11.083,8.480,7.373,-5.680,-2.091,336.014,56.162850,10.203878,59.50
2025-10-13T14:14:06.082082+00:00,11.087,8.772,7.513,-4.464,-1.623,340.051,56.162881,10.203856,61.40
2025-10-13T14:14:06.284294+00:00,11.091,9.114,7.659,-3.158,-1.137,344.095,56.162928,10.203947,61.36
2025-10-13T14:14:06.436463+00:00,11.094,9.396,7.771,-2.131,-0.764,347.139,56.162901,10.203863,58.12
2025-10-13T14:14:06.639670+00:00,11.098,9.793,7.922,-0.724,-0.259,351.203,56.162945,10.203880,57.58
2025-10-13T14:14:06.842865+00:00,11.102,10.199,8.075,0.697,0.249,355.267,56.162893,10.203878,62.43
2025-10-13T14:14:07.045770+00:00,11.106,10.596,8.226,2.102,0.753,359.325,56.162904,10.203897,61.99
2025-10-13T14:14:07.248544+00:00,11.110,10.968,8.375,3.464,1.250,3.381,56.162902,10.203929,59.18
2025-10-13T14:14:07.451145+00:00,11.114,11.301,8.520,4.755,1.733,7.433,56.162907,10.203854,62.23
2025-10-13T14:14:07.653098+00:00,11.118,11.579,8.659,5.947,2.197,11.472,56.162917,10.203908,59.42
2025-10-13T14:14:07.857308+00:00,11.122,11.795,8.793,7.032,2.643,15.556,56.162932,10.203942,60.07
2025-10-13T14:14:08.060684+00:00,11.126,11.936,8.918,7.969,3.061,19.623,56.162892,10.203866,57.88
2025-10-13T14:14:08.262880+00:00,11.130,11.997,9.033,8.742,3.444,23.667,56.162883,10.203865,61.10
2025-10-13T14:14:08.465638+00:00,11.134,11.977,9.138,9.341,3.793,27.723,56.162902,10.203904,59.59
2025-10-13T14:14:08.667759+00:00,11.138,11.876,9.231,9.751,4.102,31.765,56.162932,10.203928,61.81
2025-10-13T14:14:08.871021+00:00,11.142,11.698,9.311,9.967,4.371,35.830,56.162899,10.203896,62.35
2025-10-13T14:14:09.073789+00:00,11.146,11.450,9.378,9.982,4.594,39.885,56.162920,10.203918,58.02
2025-10-13T14:14:09.278555+00:00,11.150,11.140,9.432,9.793,4.772,43.981,56.162907,10.203893,57.74
2025-10-13T14:14:09.483017+00:00,11.154,10.782,9.470,9.404,4.899,48.070,56.162896,10.203872,58.47
2025-10-13T14:14:09.685362+00:00,11.158,10.396,9.493,8.829,4.975,52.117,56.162926,10.203917,59.87
2025-10-13T14:14:09.887760+00:00,11.162,9.994,9.500,8.078,5.000,56.165,56.162879,10.203907,58.63
2025-10-13T14:14:10.089700+00:00,11.166,9.593,9.492,7.167,4.974,60.204,56.162861,10.203906,59.94
2025-10-13T14:14:10.291805+00:00,11.169,9.208,9.469,6.112,4.897,64.246,56.162901,10.203914,58.30
2025-10-13T14:14:10.495710+00:00,11.173,8.853,9.431,4.924,4.769,68.324,56.162898,10.203937,59.95
2025-10-13T14:14:10.701019+00:00,11.177,8.543,9.377,3.627,4.589,72.430,56.162905,10.203895,60.19
2025-10-13T14:14:10.903524+00:00,11.181,8.297,9.310,2.274,4.365,76.480,56.162899,10.203866,59.35
2025-10-13T14:14:11.105600+00:00,11.185,8.121,9.229,0.878,4.097,80.522,56.162855,10.203925,57.83
2025-10-13T14:14:11.309727+00:00,11.188,8.021,9.135,-0.549,3.784,84.604,56.162906,10.203940,62.43
2025-10-13T14:14:11.511956+00:00,11.192,8.003,9.030,-1.953,3.435,88.649,56.162879,10.203940,59.40
2025-10-13T14:14:11.664181+00:00,11.194,8.043,8.944,-2.985,3.148,91.693,56.162873,10.203859,60.92
2025-10-13T14:14:11.867476+00:00,11.198,8.167,8.821,-4.308,2.738,95.759,56.162935,10.203916,61.04
2025-10-13T14:14:12.070293+00:00,11.202,8.366,8.690,-5.542,2.300,99.815,56.162859,10.203861,58.37
2025-10-13T14:14:12.274328+00:00,11.205,8.634,8.551,-6.670,1.836,103.896,56.162928,10.203923,58.27
2025-10-13T14:14:12.476244+00:00,11.208,8.954,8.407,-7.653,1.358,107.935,56.162858,10.203910,57.56
2025-10-13T14:14:12.678750+00:00,11.212,9.319,8.259,-8.486,0.865,111.985,56.162904,10.203941,61.91
2025-10-13T14:14:12.884617+00:00,11.215,9.717,8.106,-9.158,0.354,116.102,56.162891,10.203903,60.80
2025-10-13T14:14:13.089722+00:00,11.219,10.127,7.953,-9.638,-0.158,120.204,56.162885,10.203880,58.17
2025-10-13T14:14:13.294992+00:00,11.222,10.531,7.799,-9.921,-0.669,124.310,56.162880,10.203873,62.25
2025-10-13T14:14:13.497766+00:00,11.225,10.908,7.650,-9.999,-1.168,128.365,56.162885,10.203906,57.98
2025-10-13T14:14:13.700745+00:00,11.228,11.249,7.504,-9.876,-1.654,132.424,56.162924,10.203915,60.95
2025-10-13T14:14:13.902959+00:00,11.231,11.537,7.363,-9.555,-2.122,136.469,56.162911,10.203946,60.71
2025-10-13T14:14:14.105881+00:00,11.234,11.763,7.229,-9.041,-2.570,140.527,56.162857,10.203946,57.84
2025-10-13T14:14:14.308515+00:00,11.237,11.917,7.103,-8.346,-2.990,144.580,56.162902,10.203879,62.01
2025-10-13T14:14:14.510599+00:00,11.240,11.993,6.986,-7.486,-3.379,148.622,56.162892,10.203895,60.87
2025-10-13T14:14:14.713633+00:00,11.243,11.986,6.879,-6.472,-3.735,152.682,56.162885,10.203922,59.62
2025-10-13T14:14:14.916322+00:00,11.246,11.899,6.784,-5.329,-4.052,156.736,56.162901,10.203886,61.71
2025-10-13T14:14:15.118501+00:00,11.249,11.734,6.702,-4.082,-4.327,160.780,56.162899,10.203869,59.13
2025-10-13T14:14:15.322268+00:00,11.251,11.497,6.632,-2.743,-4.560,164.855,56.162858,10.203868,62.22
2025-10-13T14:14:15.524305+00:00,11.254,11.200,6.577,-1.360,-4.743,168.896,56.162881,10.203900,59.17
2025-10-13T14:14:15.726339+00:00,11.256,10.855,6.536,0.050,-4.879,172.937,56.162944,10.203878,58.37
2025-10-13T14:14:15.928434+00:00,11.259,10.475,6.511,1.459,-4.964,176.979,56.162920,10.203897,61.91
2025-10-13T14:14:16.131086+00:00,11.261,10.074,6.500,2.843,-4.999,181.032,56.162863,10.203858,58.91
2025-10-13T14:14:16.334486+00:00,11.264,9.669,6.505,4.175,-4.983,185.099,56.162853,10.203925,58.38
2025-10-13T14:14:16.538088+00:00,11.266,9.277,6.526,5.423,-4.915,189.171,56.162888,10.203950,61.92
2025-10-13T14:14:16.741160+00:00,11.268,8.915,6.561,6.559,-4.796,193.233,56.162908,10.203889,58.54
2025-10-13T14:14:16.943686+00:00,11.270,8.600,6.611,7.560,-4.629,197.283,56.162910,10.203892,58.47
2025-10-13T14:14:17.145678+00:00,11.273,8.342,6.676,8.407,-4.414,201.323,56.162929,10.203934,59.13
2025-10-13T14:14:17.298296+00:00,11.274,8.191,6.733,8.936,-4.223,204.376,56.162860,10.203890,61.26
2025-10-13T14:14:17.500799+00:00,11.276,8.056,6.821,9.481,-3.930,208.426,56.162943,10.203864,59.99
2025-10-13T14:14:17.704271+00:00,11.278,8.001,6.921,9.836,-3.596,212.495,56.162872,10.203880,61.55
2025-10-13T14:14:17.907232+00:00,11.280,8.028,7.032,9.992,-3.226,216.553,56.162914,10.203889,59.97
2025-10-13T14:14:18.109055+00:00,11.281,8.136,7.153,9.948,-2.824,220.591,56.162901,10.203923,59.55
2025-10-13T14:14:18.312566+00:00,11.283,8.320,7.283,9.702,-2.391,224.661,56.162886,10.203890,59.03
2025-10-13T14:14:18.514866+00:00,11.285,8.573,7.420,9.264,-1.935,228.707,56.162916,10.203902,58.12
2025-10-13T14:14:18.719434+00:00,11.286,8.887,7.564,8.631,-1.454,232.798,56.162906,10.203940,61.86
2025-10-13T14:14:18.923534+00:00,11.288,9.247,7.712,7.824,-0.959,236.880,56.162850,10.203942,61.61
2025-10-13T14:14:19.126126+00:00,11.289,9.635,7.863,6.866,-0.458,240.932,56.162864,10.203895,59.41
2025-10-13T14:14:19.329928+00:00,11.290,10.041,8.015,5.762,0.051,245.008,56.162857,10.203907,58.14
