ts_iso,batt_v,airspeed_ms,groundspeed_ms,roll_deg,pitch_deg,yaw_deg,lat,lon,alt_m
2025-10-18T08:16:51.652219+00:00,,,,,,,,,
2025-10-18T08:16:52.266292+00:00,,,,,,,,,
2025-10-18T08:16:52.868338+00:00,,,,,,,,,
2025-10-18T08:16:53.472480+00:00,,,,,,,,,
2025-10-18T08:16:54.460295+00:00,,,,,,,,,
2025-10-18T08:16:55.065555+00:00,,,,,,,,,
2025-10-18T08:16:55.668690+00:00,,,,,,,,,
2025-10-18T08:16:56.286282+00:00,11.112,11.158,,4.190,1.520,,,,
2025-10-18T08:16:56.906442+00:00,11.125,11.890,,7.621,2.901,,,,
2025-10-18T08:16:57.510209+00:00,11.137,11.927,,9.606,3.980,,,,
2025-10-18T08:16:58.130883+00:00,11.149,11.256,,9.883,4.714,,,,
2025-10-18T08:16:58.753612+00:00,11.161,10.113,,8.316,4.998,,,,
2025-10-18T08:16:59.358392+00:00,11.172,8.958,,5.301,4.813,,,,
2025-10-18T08:16:59.963968+00:00,11.183,8.171,,1.344,4.191,,,,
2025-10-18T08:17:00.566137+00:00,11.194,8.034,,-2.828,3.194,,,,
2025-10-18T08:17:01.171112+00:00,11.205,8.593,,-6.520,1.902,,,,
2025-10-18T08:17:01.781734+00:00,11.215,9.662,,-9.076,0.425,,,,
2025-10-18T08:17:02.390022+00:00,11.225,10.849,,-10.000,-1.087,,,,
2025-10-18T08:17:02.992782+00:00,11.234,11.726,,-9.153,-2.487,,,,
2025-10-18T08:17:03.597240+00:00,11.242,11.994,,-6.692,-3.665,,,,
2025-10-18T08:17:04.203041+00:00,11.251,11.555,,-3.042,-4.513,,,,
2025-10-18T08:17:04.810184+00:00,11.258,10.559,,1.157,-4.950,,,,
2025-10-18T08:17:05.416292+00:00,11.266,9.365,,5.143,-4.935,,,,
2025-10-18T08:17:06.018890+00:00,11.272,8.402,,8.204,-4.474,,,,
2025-10-18T08:17:06.628656+00:00,11.278,8.001,,9.835,-3.598,,,,
2025-10-18T08:17:07.234952+00:00,11.283,8.317,,9.707,-2.397,,,,
2025-10-18T08:17:07.838801+00:00,11.288,9.228,,7.868,-0.984,,,,
2025-10-18T08:17:08.442819+00:00,11.291,10.413,,4.643,0.519,,,,
2025-10-18T08:17:09.054513+00:00,11.295,11.462,,0.546,1.992,,,,
2025-10-18T08:17:09.666736+00:00,11.297,11.981,,-3.653,3.281,,,,
2025-10-18T08:17:10.275141+00:00,11.299,11.784,,-7.172,4.261,,,,
2025-10-18T08:17:10.881230+00:00,11.300,10.951,,-9.405,4.847,,,,
2025-10-18T08:17:11.489459+00:00,11.300,9.775,,-9.969,4.992,,,,
2025-10-18T08:17:12.095663+00:00,11.299,8.683,,-8.760,4.680,,,,
2025-10-18T08:17:12.702569+00:00,11.298,8.060,,-5.993,3.941,,,,
2025-10-18T08:17:13.311896+00:00,11.296,8.131,,-2.144,2.836,,,,
2025-10-18T08:17:13.924926+00:00,11.294,8.882,,2.115,1.461,,,,
2025-10-18T08:17:14.531742+00:00,11.290,10.027,,5.955,-0.034,,,,
2025-10-18T08:17:15.137443+00:00,11.286,11.161,,8.732,-1.524,,,,
2025-10-18T08:17:15.741341+00:00,11.281,11.880,,9.963,-2.871,,,,
2025-10-18T08:17:16.351516+00:00,11.276,11.931,,9.425,-3.968,,,,
2025-10-18T08:17:16.963446+00:00,11.270,11.283,,7.184,-4.700,,,,
2025-10-18T08:17:17.566427+00:00,11.263,10.186,,3.704,-4.995,,,,
2025-10-18T08:17:18.173189+00:00,11.256,9.018,,-0.453,-4.836,,,,
2025-10-18T08:17:18.780513+00:00,11.248,8.199,,-4.532,-4.235,,,,
2025-10-18T08:17:19.384897+00:00,11.239,8.024,,-7.792,-3.252,,,,
2025-10-18T08:17:19.987145+00:00,11.230,8.546,,-9.675,-1.980,,,,
2025-10-18T08:17:20.591991+00:00,11.221,9.584,,-9.860,-0.522,,,,
2025-10-18T08:17:21.204879+00:00,11.211,10.785,,-8.272,1.002,,,,
2025-10-18T08:17:21.807211+00:00,11.201,11.689,,-5.248,2.410,,,,
2025-10-18T08:17:22.415178+00:00,11.190,11.998,,-1.266,3.611,,,,
2025-10-18T08:17:23.021764+00:00,11.179,11.593,,2.933,4.479,,,,
2025-10-18T08:17:23.629336+00:00,11.168,10.617,,6.616,4.939,,,,
2025-10-18T08:17:24.233083+00:00,11.156,9.428,,9.110,4.947,,,,
2025-10-18T08:17:24.843509+00:00,11.144,8.433,,10.000,4.502,,,,
2025-10-18T08:17:25.456527+00:00,11.132,8.003,,9.085,3.635,,,,
2025-10-18T08:17:26.060607+00:00,11.120,8.292,,6.569,2.449,,,,
2025-10-18T08:17:26.670211+00:00,11.108,9.195,,2.860,1.028,,,,
2025-10-18T08:17:27.280004+00:00,11.096,10.389,,-1.364,-0.488,,,,
2025-10-18T08:17:27.885972+00:00,11.084,11.437,,-5.321,-1.950,,,,
2025-10-18T08:17:28.489283+00:00,11.072,11.973,,-8.324,-3.230,,,,
2025-10-18T08:17:29.096301+00:00,11.060,11.809,,-9.868,-4.223,,,,
2025-10-18T08:17:29.708279+00:00,11.048,10.990,,-9.649,-4.833,,,,
2025-10-18T08:17:30.319344+00:00,11.036,9.814,,-7.690,-4.995,,,,
2025-10-18T08:17:30.925140+00:00,11.025,8.713,,-4.378,-4.698,,,,
2025-10-18T08:17:31.527773+00:00,11.014,8.072,,-0.313,-3.978,,,,
2025-10-18T08:17:32.135448+00:00,11.003,8.114,,3.839,-2.889,,,,
2025-10-18T08:17:32.745051+00:00,10.993,8.834,,7.317,-1.532,,,,
2025-10-18T08:17:33.354305+00:00,10.983,9.973,,9.481,-0.033,,,,
2025-10-18T08:17:33.962486+00:00,10.973,11.121,,9.948,1.465,,,,
2025-10-18T08:17:34.570202+00:00,10.964,11.866,,8.640,2.828,,,,
2025-10-18T08:17:35.178326+00:00,10.955,11.943,,5.790,3.933,,,,
2025-10-18T08:17:35.783949+00:00,10.947,11.327,,1.924,4.675,,,,
2025-10-18T08:17:36.389896+00:00,10.940,10.238,,-2.285,4.991,,,,
2025-10-18T08:17:37.002397+00:00,10.933,9.053,,-6.126,4.849,,,,
2025-10-18T08:17:37.608739+00:00,10.926,8.218,,-8.837,4.263,,,,
2025-10-18T08:17:38.216998+00:00,10.921,8.019,,-9.981,3.285,,,,
2025-10-18T08:17:38.822505+00:00,10.916,8.526,,-9.350,2.012,,,,
2025-10-18T08:17:39.429583+00:00,10.911,9.561,,-7.056,0.552,,,,
2025-10-18T08:17:40.035463+00:00,10.908,10.750,,-3.514,-0.956,,,,
2025-10-18T08:17:40.644349+00:00,10.905,11.676,,0.671,-2.383,,,,
2025-10-18T08:17:41.252418+00:00,10.902,11.999,,4.730,-3.589,,,,
2025-10-18T08:17:41.864705+00:00,10.901,11.601,,7.964,-4.472,,,,
2025-10-18T08:17:42.472455+00:00,10.900,10.629,,9.750,-4.936,,,,
2025-10-18T08:17:43.075579+00:00,10.900,9.441,,9.804,-4.950,,,,
2025-10-18T08:17:43.678577+00:00,10.901,8.451,,8.137,-4.517,,,,
2025-10-18T08:17:44.288921+00:00,10.902,8.006,,4.997,-3.664,,,,
2025-10-18T08:17:44.899740+00:00,10.904,8.281,,0.956,-2.472,,,,
2025-10-18T08:17:45.508415+00:00,10.907,9.174,,-3.244,-1.056,,,,
2025-10-18T08:17:46.110847+00:00,10.911,10.352,,-6.832,0.441,,,,
2025-10-18T08:17:46.720136+00:00,10.915,11.415,,-9.241,1.915,,,,
2025-10-18T08:17:47.326437+00:00,10.920,11.968,,-9.995,3.207,,,,
2025-10-18T08:17:47.932981+00:00,10.926,11.819,,-8.975,4.206,,,,
2025-10-18T08:17:48.541419+00:00,10.932,11.018,,-6.351,4.823,,,,
2025-10-18T08:17:49.148606+00:00,10.939,9.854,,-2.601,4.997,,,,
2025-10-18T08:17:49.759501+00:00,10.947,8.736,,1.638,4.711,,,,
2025-10-18T08:17:50.365323+00:00,10.955,8.079,,5.552,3.996,,,,
2025-10-18T08:17:50.967793+00:00,10.963,8.102,,8.470,2.924,,,,
2025-10-18T08:17:51.575166+00:00,10.972,8.802,,9.909,1.578,,,,
2025-10-18T08:17:52.184612+00:00,10.982,9.935,,9.579,0.082,,,,
2025-10-18T08:17:52.793056+00:00,10.992,11.089,,7.536,-1.420,,,,
2025-10-18T08:17:53.401369+00:00,11.002,11.852,,4.148,-2.790,,,,
2025-10-18T08:17:54.010818+00:00,11.013,11.951,,0.011,-3.907,,,,
2025-10-18T08:17:54.618933+00:00,11.024,11.348,,-4.119,-4.662,,,,
2025-10-18T08:17:55.222512+00:00,11.036,10.272,,-7.493,-4.988,,,,
2025-10-18T08:17:55.828470+00:00,11.047,9.095,,-9.555,-4.863,,,,
2025-10-18T08:17:56.441188+00:00,11.059,8.234,,-9.916,-4.286,,,,
2025-10-18T08:17:57.053819+00:00,11.071,8.015,,-8.482,-3.309,,,,
2025-10-18T08:17:57.657035+00:00,11.083,8.506,,-5.567,-2.047,,,,
2025-10-18T08:17:58.262337+00:00,11.095,9.528,,-1.659,-0.594,,,,
2025-10-18T08:17:58.869424+00:00,11.107,10.721,,2.554,0.917,,,,
2025-10-18T08:17:59.478826+00:00,11.120,11.659,,6.326,2.350,,,,
2025-10-18T08:18:00.087463+00:00,11.132,12.000,,8.961,3.564,,,,
2025-10-18T08:18:00.690243+00:00,11.143,11.629,,9.993,4.444,,,,
2025-10-18T08:18:01.302386+00:00,11.155,10.666,,9.247,4.928,,,,
2025-10-18T08:18:01.910920+00:00,11.167,9.469,,6.847,4.955,,,,
2025-10-18T08:18:02.514046+00:00,11.178,8.469,,3.260,4.532,,,,
2025-10-18T08:18:03.117594+00:00,11.189,8.009,,-0.903,3.700,,,,
2025-10-18T08:18:03.728163+00:00,11.200,8.260,,-4.950,2.518,,,,
2025-10-18T08:18:04.339272+00:00,11.210,9.140,,-8.108,1.102,,,,
2025-10-18T08:18:04.948238+00:00,11.220,10.328,,-9.803,-0.411,,,,
2025-10-18T08:18:05.562739+00:00,11.230,11.405,,-9.734,-1.899,,,,
2025-10-18T08:18:06.170389+00:00,11.239,11.966,,-7.921,-3.196,,,,
2025-10-18T08:18:06.775677+00:00,11.247,11.825,,-4.711,-4.197,,,,
2025-10-18T08:18:07.380766+00:00,11.255,11.036,,-0.669,-4.816,,,,
2025-10-18T08:18:07.988048+00:00,11.263,9.874,,3.505,-4.998,,,,
2025-10-18T08:18:08.597163+00:00,11.269,8.755,,7.065,-4.720,,,,
2025-10-18T08:18:09.201690+00:00,11.275,8.086,,9.348,-4.016,,,,
2025-10-18T08:18:09.815848+00:00,11.281,8.101,,9.978,-2.927,,,,
2025-10-18T08:18:10.418499+00:00,11.286,8.792,,8.830,-1.593,,,,
2025-10-18T08:18:11.031932+00:00,11.290,9.930,,6.074,-0.087,,,,
2025-10-18T08:18:11.646689+00:00,11.293,11.096,,2.206,1.429,,,,
2025-10-18T08:18:12.130857+00:00,11.296,11.749,,-1.163,2.536,,,,
2025-10-18T08:18:12.740419+00:00,11.298,11.989,,-5.169,3.713,,,,
2025-10-18T08:18:13.350286+00:00,11.299,11.513,,-8.250,4.547,,,,
2025-10-18T08:18:13.953290+00:00,11.300,10.505,,-9.841,4.959,,,,
2025-10-18T08:18:14.559369+00:00,11.300,9.312,,-9.700,4.923,,,,
2025-10-18T08:18:15.165774+00:00,11.299,8.365,,-7.837,4.438,,,,
2025-10-18T08:18:15.786992+00:00,11.298,8.000,,-4.491,3.522,,,,
2025-10-18T08:18:16.395423+00:00,11.295,8.368,,-0.399,2.297,,,,
2025-10-18T08:18:17.001416+00:00,11.292,9.317,,3.749,0.867,,,,
2025-10-18T08:18:17.606375+00:00,11.289,10.507,,7.228,-0.639,,,,
2025-10-18T08:18:18.213680+00:00,11.284,11.520,,9.435,-2.093,,,,
2025-10-18T08:18:18.820250+00:00,11.279,11.990,,9.962,-3.353,,,,
2025-10-18T08:18:19.431945+00:00,11.273,11.744,,8.703,-4.314,,,,
2025-10-18T08:18:20.034994+00:00,11.267,10.882,,5.922,-4.870,,,,
2025-10-18T08:18:20.647115+00:00,11.260,9.690,,2.039,-4.985,,,,
2025-10-18T08:18:21.253083+00:00,11.252,8.620,,-2.171,-4.642,,,,
2025-10-18T08:18:21.862841+00:00,11.244,8.040,,-6.018,-3.870,,,,
2025-10-18T08:18:22.465629+00:00,11.236,8.160,,-8.761,-2.756,,,,
2025-10-18T08:18:23.074188+00:00,11.226,8.939,,-9.970,-1.379,,,,
2025-10-18T08:18:23.680230+00:00,11.217,10.094,,-9.404,0.118,,,,
2025-10-18T08:18:24.304028+00:00,11.206,11.243,,-7.083,1.646,,,,
2025-10-18T08:18:24.907704+00:00,11.196,11.913,,-3.564,2.975,,,,
2025-10-18T08:18:25.512707+00:00,11.185,11.905,,0.590,4.037,,,,
2025-10-18T08:18:26.115121+00:00,11.174,11.226,,4.624,4.730,,,,
2025-10-18T08:18:26.729911+00:00,11.163,10.090,,7.902,4.999,,,,
2025-10-18T08:18:27.366540+00:00,11.150,8.884,,9.772,4.783,,,,
2025-10-18T08:18:27.975999+00:00,11.139,8.135,,9.775,4.125,,,,
2025-10-18T08:18:28.585916+00:00,11.127,8.057,,8.024,3.086,,,,
2025-10-18T08:18:29.201422+00:00,11.114,8.689,,4.798,1.750,,,,
2025-10-18T08:18:29.831829+00:00,11.102,9.831,,0.591,0.211,,,,
2025-10-18T08:18:30.473428+00:00,11.089,11.057,,-3.801,-1.375,,,,
2025-10-18T08:18:31.090115+00:00,11.077,11.844,,-7.323,-2.769,,,,
2025-10-18T08:18:31.695917+00:00,11.065,11.957,,-9.476,-3.885,,,,
2025-10-18T08:18:32.307598+00:00,11.053,11.364,,-9.947,-4.652,,,,
2025-10-18T08:18:32.913223+00:00,11.041,10.288,,-8.643,-4.987,,,,
2025-10-18T08:18:33.520530+00:00,11.029,9.107,,-5.800,-4.867,,,,
2025-10-18T08:18:34.127167+00:00,11.018,8.246,,-1.928,-4.302,,,,
2025-10-18T08:18:34.733460+00:00,11.007,8.011,,2.283,-3.346,,,,
2025-10-18T08:18:35.341815+00:00,10.997,8.487,,6.101,-2.079,,,,
2025-10-18T08:18:35.954949+00:00,10.986,9.516,,8.845,-0.610,,,,
2025-10-18T08:18:36.562491+00:00,10.977,10.710,,9.982,0.902,,,,
2025-10-18T08:18:37.165941+00:00,10.967,11.646,,9.351,2.323,,,,
2025-10-18T08:18:37.769041+00:00,10.959,12.000,,7.078,3.533,,,,
2025-10-18T08:18:38.379972+00:00,10.950,11.640,,3.510,4.434,,,,
2025-10-18T08:18:38.993792+00:00,10.942,10.681,,-0.710,4.925,,,,
2025-10-18T08:18:39.601599+00:00,10.935,9.485,,-4.763,4.958,,,,
2025-10-18T08:18:40.205110+00:00,10.929,8.479,,-7.950,4.541,,,,
2025-10-18T08:18:40.814806+00:00,10.923,8.009,,-9.748,3.703,,,,
2025-10-18T08:18:41.420410+00:00,10.917,8.253,,-9.803,2.533,,,,
2025-10-18T08:18:42.026978+00:00,10.913,9.120,,-8.119,1.130,,,,
2025-10-18T08:18:42.635240+00:00,10.909,10.304,,-4.982,-0.381,,,,
2025-10-18T08:18:43.242853+00:00,10.906,11.378,,-0.961,-1.855,,,,
2025-10-18T08:18:43.855266+00:00,10.903,11.961,,3.264,-3.168,,,,
2025-10-18T08:18:44.460525+00:00,10.901,11.837,,6.861,-4.177,,,,
2025-10-18T08:18:45.063251+00:00,10.900,11.064,,9.239,-4.805,,,,
2025-10-18T08:18:45.670968+00:00,10.900,9.907,,9.995,-4.999,,,,
2025-10-18T08:18:46.279833+00:00,10.900,8.781,,8.966,-4.734,,,,
2025-10-18T08:18:46.888328+00:00,10.902,8.093,,6.334,-4.034,,,,
2025-10-18T08:18:47.501194+00:00,10.904,8.093,,2.542,-2.955,,,,
2025-10-18T08:18:48.111421+00:00,10.906,8.782,,-1.694,-1.607,,,,
2025-10-18T08:18:48.717560+00:00,10.909,9.903,,-5.601,-0.121,,,,
2025-10-18T08:18:49.320690+00:00,10.914,11.053,,-8.504,1.369,,,,
2025-10-18T08:18:49.926976+00:00,10.918,11.834,,-9.916,2.742,,,,
2025-10-18T08:18:50.539646+00:00,10.924,11.959,,-9.556,3.875,,,,
2025-10-18T08:18:51.150141+00:00,10.930,11.374,,-7.475,4.646,,,,
2025-10-18T08:18:51.753400+00:00,10.936,10.307,,-4.096,4.985,,,,
2025-10-18T08:18:52.359083+00:00,10.944,9.127,,0.019,4.873,,,,
2025-10-18T08:18:52.966278+00:00,10.952,8.256,,4.141,4.316,,,,
2025-10-18T08:18:53.579342+00:00,10.960,8.010,,7.553,3.352,,,,
2025-10-18T08:18:54.187694+00:00,10.969,8.482,,9.586,2.088,,,,
2025-10-18T08:18:54.791322+00:00,10.978,9.490,,9.911,0.643,,,,
2025-10-18T08:18:55.403950+00:00,10.988,10.695,,8.459,-0.882,,,,
2025-10-18T08:18:56.011661+00:00,10.999,11.641,,5.504,-2.315,,,,
2025-10-18T08:18:56.614969+00:00,11.009,12.000,,1.598,-3.527,,,,
2025-10-18T08:18:57.217954+00:00,11.020,11.653,,-2.586,-4.420,,,,
2025-10-18T08:18:57.828794+00:00,11.031,10.708,,-6.359,-4.918,,,,
2025-10-18T08:18:58.440408+00:00,11.043,9.506,,-8.989,-4.961,,,,
2025-10-18T08:18:59.048718+00:00,11.055,8.487,,-9.996,-4.547,,,,
2025-10-18T08:18:59.654249+00:00,11.067,8.011,,-9.225,-3.720,,,,
2025-10-18T08:19:00.262108+00:00,11.079,8.245,,-6.810,-2.550,,,,
2025-10-18T08:19:00.867604+00:00,11.091,9.104,,-3.196,-1.151,,,,
2025-10-18T08:19:01.474297+00:00,11.103,10.283,,0.992,0.355,,,,
2025-10-18T08:19:02.085500+00:00,11.115,11.368,,5.032,1.839,,,,
2025-10-18T08:19:02.698349+00:00,11.127,11.958,,8.170,3.156,,,,
2025-10-18T08:19:03.322347+00:00,11.140,11.827,,9.842,4.194,,,,
2025-10-18T08:19:03.929087+00:00,11.151,11.037,,9.697,4.816,,,,
2025-10-18T08:19:03.929087+00:00,11.151,11.037,,9.697,4.816,,,,
2025-10-18T08:19:09.671358+00:00,11.248,11.769,,-4.312,-4.281,,,,
2025-10-18T08:19:10.285436+00:00,11.256,10.909,,-0.160,-4.862,,,,
2025-10-18T08:19:10.898158+00:00,11.263,9.719,,4.013,-4.988,,,,
2025-10-18T08:19:11.507172+00:00,11.270,8.637,,7.441,-4.652,,,,
2025-10-18T08:19:12.113338+00:00,11.276,8.046,,9.532,-3.894,,,,
2025-10-18T08:19:12.720940+00:00,11.282,8.153,,9.930,-2.777,,,,
2025-10-18T08:19:13.326520+00:00,11.286,8.917,,8.567,-1.411,,,,
2025-10-18T08:19:13.931730+00:00,11.290,10.066,,5.689,0.083,,,,
2025-10-18T08:19:14.538371+00:00,11.294,11.194,,1.795,1.572,,,,
2025-10-18T08:19:15.262530+00:00,11.297,11.957,,-3.206,3.151,,,,
2025-10-18T08:19:15.870427+00:00,11.299,11.841,,-6.830,4.169,,,,
2025-10-18T08:19:16.476149+00:00,11.300,11.069,,-9.230,4.802,,,,
2025-10-18T08:19:17.084207+00:00,11.300,9.912,,-9.995,4.999,,,,
2025-10-18T08:19:17.691041+00:00,11.300,8.788,,-8.980,4.738,,,,
2025-10-18T08:19:18.305248+00:00,11.298,8.093,,-6.329,4.033,,,,
2025-10-18T08:19:18.908305+00:00,11.297,8.088,,-2.601,2.973,,,,
2025-10-18T08:19:19.519142+00:00,11.294,8.770,,1.637,1.627,,,,
2025-10-18T08:19:20.124048+00:00,11.291,9.884,,5.546,0.144,,,,
2025-10-18T08:19:20.728920+00:00,11.287,11.040,,8.475,-1.351,,,,
2025-10-18T08:19:21.332019+00:00,11.282,11.826,,9.906,-2.720,,,,
2025-10-18T08:19:21.981845+00:00,11.276,11.948,,9.500,-3.917,,,,
2025-10-18T08:19:22.625452+00:00,11.270,11.285,,7.193,-4.699,,,,
2025-10-18T08:19:23.235170+00:00,11.263,10.176,,3.672,-4.995,,,,
2025-10-18T08:19:23.861242+00:00,11.255,8.976,,-0.623,-4.820,,,,
2025-10-18T08:19:24.498385+00:00,11.247,8.155,,-4.867,-4.162,,,,
2025-10-18T08:19:25.102932+00:00,11.238,8.043,,-8.025,-3.148,,,,
2025-10-18T08:19:25.731838+00:00,11.229,8.661,,-9.802,-1.792,,,,
2025-10-18T08:19:26.359178+00:00,11.219,9.789,,-9.713,-0.265,,,,
2025-10-18T08:19:26.987153+00:00,11.209,10.997,,-7.778,1.291,,,,
2025-10-18T08:19:27.592155+00:00,11.199,11.806,,-4.508,2.671,,,,
2025-10-18T08:19:28.204489+00:00,11.188,11.972,,-0.390,3.821,,,,
2025-10-18T08:19:28.807917+00:00,11.177,11.433,,3.741,4.607,,,,
2025-10-18T08:19:29.422727+00:00,11.165,10.366,,7.269,4.979,,,,
2025-10-18T08:19:30.035131+00:00,11.154,9.169,,9.466,4.886,,,,
2025-10-18T08:19:30.641155+00:00,11.142,8.281,,9.954,4.346,,,,
2025-10-18T08:19:31.244819+00:00,11.130,8.005,,8.686,3.414,,,,
2025-10-18T08:19:31.865438+00:00,11.118,8.455,,5.794,2.136,,,,
2025-10-18T08:19:32.476391+00:00,11.105,9.463,,1.891,0.677,,,,
2025-10-18T08:19:33.082828+00:00,11.093,10.657,,-2.321,-0.833,,,,
2025-10-18T08:19:33.688318+00:00,11.081,11.615,,-6.116,-2.265,,,,
2025-10-18T08:19:34.302199+00:00,11.069,12.000,,-8.856,-3.506,,,,
2025-10-18T08:19:34.913845+00:00,11.057,11.656,,-9.985,-4.416,,,,
2025-10-18T08:19:35.534455+00:00,11.045,10.696,,-9.288,-4.921,,,,
2025-10-18T08:19:36.143565+00:00,11.033,9.498,,-6.924,-4.960,,,,
2025-10-18T08:19:36.757681+00:00,11.022,8.474,,-3.287,-4.537,,,,
2025-10-18T08:19:37.365025+00:00,11.011,8.009,,0.901,-3.700,,,,
2025-10-18T08:19:37.977465+00:00,11.000,8.261,,4.959,-2.515,,,,
2025-10-18T08:19:38.599686+00:00,10.990,9.163,,8.160,-1.071,,,,
2025-10-18T08:19:39.212429+00:00,10.980,10.360,,9.825,0.452,,,,
2025-10-18T08:19:39.824959+00:00,10.970,11.426,,9.710,1.932,,,,
2025-10-18T08:19:40.436974+00:00,10.961,11.973,,7.840,3.232,,,,
2025-10-18T08:19:41.041857+00:00,10.953,11.810,,4.597,4.221,,,,
2025-10-18T08:19:41.657300+00:00,10.944,10.986,,0.468,4.835,,,,
2025-10-18T08:19:42.264695+00:00,10.937,9.817,,-3.694,4.995,,,,
2025-10-18T08:19:42.887559+00:00,10.930,8.689,,-7.273,4.684,,,,
2025-10-18T08:19:43.499215+00:00,10.924,8.060,,-9.466,3.940,,,,
2025-10-18T08:19:44.112189+00:00,10.919,8.134,,-9.949,2.828,,,,
2025-10-18T08:19:44.716567+00:00,10.914,8.874,,-8.659,1.473,,,,
2025-10-18T08:19:45.327408+00:00,10.910,10.026,,-5.805,-0.032,,,,
2025-10-18T08:19:45.939001+00:00,10.906,11.169,,-1.901,-1.536,,,,
2025-10-18T08:19:46.555188+00:00,10.904,11.892,,2.378,-2.906,,,,
2025-10-18T08:19:47.170211+00:00,10.902,11.919,,6.215,-4.002,,,,
2025-10-18T08:19:47.787722+00:00,10.900,11.240,,8.925,-4.723,,,,
2025-10-18T08:19:48.393723+00:00,10.900,10.125,,9.990,-4.998,,,,
2025-10-18T08:19:49.002290+00:00,10.900,8.961,,9.278,-4.815,,,,
2025-10-18T08:19:49.614391+00:00,10.901,8.168,,6.890,-4.185,,,,
2025-10-18T08:19:50.227908+00:00,10.903,8.040,,3.246,-3.163,,,,
2025-10-18T08:19:50.832418+00:00,10.906,8.614,,-0.924,-1.867,,,,
2025-10-18T08:19:51.450210+00:00,10.909,9.706,,-5.012,-0.369,,,,
2025-10-18T08:19:52.061409+00:00,10.913,10.894,,-8.151,1.149,,,,
2025-10-18T08:19:52.671079+00:00,10.918,11.758,,-9.818,2.556,,,,
2025-10-18T08:19:53.274989+00:00,10.923,11.989,,-9.733,3.719,,,,
2025-10-18T08:19:53.887385+00:00,10.929,11.505,,-7.898,4.553,,,,
2025-10-18T08:19:54.499062+00:00,10.935,10.476,,-4.639,4.964,,,,
2025-10-18T08:19:55.110027+00:00,10.943,9.276,,-0.547,4.914,,,,
2025-10-18T08:19:55.716238+00:00,10.950,8.342,,3.613,4.415,,,,
2025-10-18T08:19:56.328947+00:00,10.959,8.000,,7.163,3.502,,,,
2025-10-18T08:19:56.933495+00:00,10.968,8.376,,9.397,2.281,,,,
2025-10-18T08:19:57.547667+00:00,10.977,9.346,,9.967,0.829,,,,
2025-10-18T08:19:58.162592+00:00,10.987,10.556,,8.721,-0.702,,,,
2025-10-18T08:19:58.778298+00:00,10.997,11.563,,5.879,-2.169,,,,
2025-10-18T08:19:59.384765+00:00,11.008,11.996,,2.026,-3.415,,,,
2025-10-18T08:19:59.994775+00:00,11.019,11.712,,-2.212,-4.354,,,,
2025-10-18T08:20:00.598589+00:00,11.030,10.823,,-6.018,-4.888,,,,
2025-10-18T08:20:01.209985+00:00,11.042,9.627,,-8.790,-4.978,,,,
2025-10-18T08:20:01.819685+00:00,11.054,8.569,,-9.975,-4.608,,,,
2025-10-18T08:20:02.428521+00:00,11.065,8.027,,-9.373,-3.815,,,,
2025-10-18T08:20:03.046285+00:00,11.078,8.202,,-7.051,-2.651,,,,
2025-10-18T08:20:03.659299+00:00,11.090,9.033,,-3.461,-1.249,,,,
2025-10-18T08:20:04.265831+00:00,11.102,10.203,,0.711,0.254,,,,
2025-10-18T08:20:04.874599+00:00,11.114,11.304,,4.771,1.739,,,,
2025-10-18T08:20:05.482195+00:00,11.126,11.936,,7.972,3.062,,,,
2025-10-18T08:20:06.096692+00:00,11.138,11.871,,9.763,4.114,,,,
2025-10-18T08:20:06.705539+00:00,11.150,11.130,,9.784,4.777,,,,
2025-10-18T08:20:07.316502+00:00,11.162,9.978,,8.046,5.000,,,,
2025-10-18T08:20:07.925519+00:00,11.173,8.838,,4.870,4.762,,,,
2025-10-18T08:20:08.537620+00:00,11.185,8.114,,0.801,4.081,,,,
2025-10-18T08:20:09.144453+00:00,11.196,8.071,,-3.378,3.032,,,,
2025-10-18T08:20:09.757838+00:00,11.206,8.728,,-6.990,1.690,,,,
2025-10-18T08:20:10.368777+00:00,11.216,9.843,,-9.326,0.196,,,,
2025-10-18T08:20:10.979571+00:00,11.226,11.015,,-9.983,-1.315,,,,
2025-10-18T08:20:11.586266+00:00,11.235,11.816,,-8.856,-2.696,,,,
2025-10-18T08:20:12.193434+00:00,11.244,11.969,,-6.152,-3.831,,,,
2025-10-18T08:20:12.807870+00:00,11.252,11.408,,-2.305,-4.624,,,,
2025-10-18T08:20:13.416564+00:00,11.260,10.343,,1.923,-4.981,,,,
2025-10-18T08:20:14.026825+00:00,11.267,9.152,,5.816,-4.881,,,,
2025-10-18T08:20:14.637954+00:00,11.273,8.266,,8.667,-4.328,,,,
2025-10-18T08:20:15.246136+00:00,11.279,8.007,,9.953,-3.380,,,,
2025-10-18T08:20:15.856884+00:00,11.284,8.467,,9.457,-2.115,,,,
2025-10-18T08:20:16.460681+00:00,11.288,9.467,,7.292,-0.673,,,,
2025-10-18T08:20:17.077969+00:00,11.292,10.681,,3.756,0.864,,,,
2025-10-18T08:20:17.694789+00:00,11.295,11.643,,-0.465,2.318,,,,
2025-10-18T08:20:18.305453+00:00,11.298,12.000,,-4.566,3.543,,,,
2025-10-18T08:20:18.914863+00:00,11.299,11.635,,-7.838,4.438,,,,
2025-10-18T08:20:19.525896+00:00,11.300,10.679,,-9.708,4.925,,,,
2025-10-18T08:20:20.129696+00:00,11.300,9.490,,-9.838,4.959,,,,
2025-10-18T08:20:20.744476+00:00,11.299,8.468,,-8.193,4.532,,,,
2025-10-18T08:20:21.354832+00:00,11.298,8.008,,-5.080,3.688,,,,
2025-10-18T08:20:21.967827+00:00,11.296,8.269,,-1.036,2.497,,,,
2025-10-18T08:20:22.579624+00:00,11.293,9.159,,3.188,1.077,,,,
2025-10-18T08:20:23.189859+00:00,11.289,10.351,,6.828,-0.440,,,,
2025-10-18T08:20:23.797528+00:00,11.285,11.412,,9.235,-1.910,,,,
2025-10-18T08:20:24.402970+00:00,11.280,11.967,,9.995,-3.201,,,,
2025-10-18T08:20:25.011167+00:00,11.274,11.821,,8.979,-4.204,,,,
2025-10-18T08:20:25.631319+00:00,11.268,11.001,,6.295,-4.829,,,,
2025-10-18T08:20:26.235240+00:00,11.261,9.840,,2.553,-4.996,,,,
2025-10-18T08:20:27.152870+00:00,11.249,8.320,,-3.748,-4.391,,,,
2025-10-18T08:20:27.845958+00:00,11.240,8.014,,-7.639,-3.317,,,,
2025-10-18T08:20:28.533528+00:00,11.230,8.617,,-9.759,-1.862,,,,
2025-10-18T08:20:29.432488+00:00,11.215,10.270,,-9.175,0.339,,,,
2025-10-18T08:20:30.335945+00:00,11.200,11.724,,-5.049,2.482,,,,
2025-10-18T08:20:30.940701+00:00,11.189,11.995,,-1.058,3.662,,,,
2025-10-18T08:20:31.574723+00:00,11.178,11.521,,3.314,4.541,,,,
2025-10-18T08:20:32.185491+00:00,11.167,10.501,,6.928,4.960,,,,
2025-10-18T08:20:32.861836+00:00,11.154,9.178,,9.454,4.888,,,,
2025-10-18T08:20:33.465883+00:00,11.142,8.288,,9.959,4.355,,,,
2025-10-18T08:20:34.078355+00:00,11.130,8.005,,8.680,3.411,,,,
2025-10-18T08:20:34.687905+00:00,11.118,8.443,,5.847,2.157,,,,
2025-10-18T08:20:35.291415+00:00,11.106,9.431,,2.007,0.719,,,,
2025-10-18T08:20:35.906088+00:00,11.093,10.641,,-2.262,-0.811,,,,
2025-10-18T08:20:36.516036+00:00,11.081,11.610,,-6.093,-2.255,,,,
2025-10-18T08:20:37.120355+00:00,11.069,11.999,,-8.811,-3.481,,,,
2025-10-18T08:20:37.732126+00:00,11.057,11.672,,-9.979,-4.400,,,,
2025-10-18T08:20:38.357359+00:00,11.045,10.713,,-9.311,-4.917,,,,
2025-10-18T08:20:38.973732+00:00,11.033,9.501,,-6.933,-4.960,,,,
2025-10-18T08:20:39.586371+00:00,11.022,8.478,,-3.308,-4.540,,,,
2025-10-18T08:20:40.195809+00:00,11.011,8.009,,0.893,-3.702,,,,
2025-10-18T08:20:40.809818+00:00,11.000,8.262,,4.962,-2.514,,,,
2025-10-18T08:20:41.417642+00:00,10.990,9.138,,8.103,-1.105,,,,
2025-10-18T08:20:42.025143+00:00,10.980,10.322,,9.799,0.404,,,,
2025-10-18T08:20:42.646470+00:00,10.970,11.411,,9.727,1.908,,,,
2025-10-18T08:20:43.268614+00:00,10.961,11.973,,7.841,3.231,,,,
2025-10-18T08:20:43.881442+00:00,10.952,11.803,,4.549,4.232,,,,
2025-10-18T08:20:44.487978+00:00,10.944,10.988,,0.476,4.834,,,,
2025-10-18T08:20:45.091800+00:00,10.937,9.826,,-3.663,4.995,,,,
2025-10-18T08:20:45.708908+00:00,10.930,8.705,,-7.222,4.693,,,,
2025-10-18T08:20:46.319117+00:00,10.924,8.065,,-9.439,3.959,,,,
2025-10-18T08:20:46.930797+00:00,10.919,8.125,,-9.958,2.855,,,,
2025-10-18T08:20:47.559076+00:00,10.914,8.892,,-8.622,1.447,,,,
2025-10-18T08:20:48.169391+00:00,10.910,10.046,,-5.747,-0.057,,,,
2025-10-18T08:20:48.778955+00:00,10.906,11.182,,-1.845,-1.555,,,,
2025-10-18T08:20:49.384794+00:00,10.904,11.890,,2.363,-2.902,,,,
2025-10-18T08:20:49.992425+00:00,10.902,11.925,,6.162,-3.987,,,,
2025-10-18T08:20:50.605989+00:00,10.900,11.261,,8.882,-4.712,,,,
2025-10-18T08:20:51.212889+00:00,10.900,10.150,,9.986,-4.996,,,,
2025-10-18T08:20:51.822176+00:00,10.900,8.982,,9.309,-4.823,,,,
2025-10-18T08:20:52.428176+00:00,10.901,8.183,,6.981,-4.209,,,,
2025-10-18T08:20:53.050202+00:00,10.903,8.037,,3.309,-3.182,,,,
2025-10-18T08:20:53.671689+00:00,10.906,8.625,,-0.976,-1.850,,,,
2025-10-18T08:20:54.281220+00:00,10.909,9.704,,-5.007,-0.371,,,,
2025-10-18T08:20:54.892917+00:00,10.913,10.894,,-8.149,1.148,,,,
2025-10-18T08:20:55.506154+00:00,10.918,11.761,,-9.822,2.563,,,,
2025-10-18T08:20:56.164214+00:00,10.923,11.973,,-9.633,3.813,,,,
2025-10-18T08:20:56.786756+00:00,10.929,11.413,,-7.600,4.620,,,,
2025-10-18T08:20:57.391573+00:00,10.936,10.357,,-4.259,4.980,,,,
2025-10-18T08:20:58.021548+00:00,10.944,9.129,,0.011,4.874,,,,
2025-10-18T08:20:58.653162+00:00,10.952,8.234,,4.288,4.286,,,,
2025-10-18T08:20:59.299876+00:00,10.961,8.025,,7.808,3.246,,,,
2025-10-18T08:20:59.929722+00:00,10.970,8.589,,9.727,1.908,,,,
2025-10-18T08:21:00.546509+00:00,10.980,9.669,,9.805,0.415,,,,
2025-10-18T08:21:01.163439+00:00,10.990,10.871,,8.083,-1.117,,,,
2025-10-18T08:21:01.773890+00:00,11.000,11.746,,4.916,-2.530,,,,
2025-10-18T08:21:02.384437+00:00,11.011,11.990,,0.864,-3.709,,,,
2025-10-18T08:21:03.002431+00:00,11.022,11.505,,-3.392,-4.553,,,,
2025-10-18T08:21:03.619375+00:00,11.034,10.466,,-7.018,-4.966,,,,
2025-10-18T08:21:04.227844+00:00,11.045,9.270,,-9.334,-4.913,,,,
2025-10-18T08:21:04.833455+00:00,11.057,8.340,,-9.984,-4.413,,,,
2025-10-18T08:21:05.442563+00:00,11.069,8.000,,-8.854,-3.505,,,,
2025-10-18T08:21:06.051356+00:00,11.081,8.379,,-6.141,-2.275,,,,
2025-10-18T08:21:06.663366+00:00,11.093,9.347,,-2.307,-0.828,,,,
2025-10-18T08:21:07.273854+00:00,11.106,10.549,,1.933,0.692,,,,
2025-10-18T08:21:07.883804+00:00,11.118,11.551,,5.822,2.147,,,,
2025-10-18T08:21:08.492954+00:00,11.130,11.995,,8.664,3.403,,,,
2025-10-18T08:21:09.096175+00:00,11.142,11.726,,9.949,4.337,,,,
2025-10-18T08:21:09.705416+00:00,11.154,10.838,,9.474,4.884,,,,
2025-10-18T08:21:10.318047+00:00,11.165,9.641,,7.285,4.980,,,,
2025-10-18T08:21:10.924538+00:00,11.177,8.584,,3.817,4.618,,,,
2025-10-18T08:21:11.535787+00:00,11.188,8.030,,-0.363,3.827,,,,
2025-10-18T08:21:12.149293+00:00,11.199,8.191,,-4.491,2.677,,,,
2025-10-18T08:21:12.761306+00:00,11.209,9.010,,-7.796,1.280,,,,
2025-10-18T08:21:13.370821+00:00,11.219,10.183,,-9.689,-0.229,,,,
2025-10-18T08:21:13.981562+00:00,11.229,11.292,,-9.843,-1.720,,,,
2025-10-18T08:21:14.591910+00:00,11.238,11.934,,-8.227,-3.051,,,,
2025-10-18T08:21:15.206745+00:00,11.246,11.874,,-5.104,-4.107,,,,
2025-10-18T08:21:15.815742+00:00,11.254,11.138,,-1.091,-4.773,,,,
2025-10-18T08:21:16.427171+00:00,11.262,9.987,,3.133,-5.000,,,,
2025-10-18T08:21:17.051347+00:00,11.269,8.821,,6.857,-4.754,,,,
2025-10-18T08:21:17.669707+00:00,11.275,8.103,,9.278,-4.056,,,,
2025-10-18T08:21:18.287500+00:00,11.281,8.087,,9.987,-2.976,,,,
2025-10-18T08:21:18.900149+00:00,11.286,8.770,,8.875,-1.625,,,,
2025-10-18T08:21:19.506519+00:00,11.290,9.888,,6.190,-0.140,,,,
2025-10-18T08:21:20.117589+00:00,11.293,11.054,,2.374,1.370,,,,
2025-10-18T08:21:20.724943+00:00,11.296,11.836,,-1.844,2.745,,,,
2025-10-18T08:21:21.331751+00:00,11.298,11.961,,-5.731,3.869,,,,
2025-10-18T08:21:21.946008+00:00,11.299,11.375,,-8.625,4.645,,,,
2025-10-18T08:21:22.564108+00:00,11.300,10.279,,-9.952,4.988,,,,
2025-10-18T08:21:23.176342+00:00,11.300,9.090,,-9.458,4.861,,,,
2025-10-18T08:21:23.790501+00:00,11.299,8.230,,-7.244,4.280,,,,
2025-10-18T08:21:24.394458+00:00,11.297,8.014,,-3.778,3.318,,,,
2025-10-18T08:21:25.000204+00:00,11.295,8.504,,0.366,2.051,,,,
2025-10-18T08:21:25.611101+00:00,11.292,9.535,,4.477,0.585,,,,
2025-10-18T08:21:26.226355+00:00,11.288,10.743,,7.801,-0.946,,,,
2025-10-18T08:21:26.835949+00:00,11.283,11.672,,9.691,-2.376,,,,
2025-10-18T08:21:27.439028+00:00,11.278,11.999,,9.851,-3.575,,,,
2025-10-18T08:21:28.055089+00:00,11.272,11.606,,8.230,-4.467,,,,
2025-10-18T08:21:28.661542+00:00,11.266,10.640,,5.159,-4.934,,,,
2025-10-18T08:21:29.269839+00:00,11.258,9.442,,1.160,-4.950,,,,
2025-10-18T08:21:29.880185+00:00,11.251,8.442,,-3.060,-4.510,,,,
2025-10-18T08:21:30.487669+00:00,11.242,8.005,,-6.715,-3.658,,,,
2025-10-18T08:21:31.100561+00:00,11.234,8.287,,-9.189,-2.459,,,,
2025-10-18T08:21:31.708019+00:00,11.224,9.183,,-9.998,-1.044,,,,
2025-10-18T08:21:32.310914+00:00,11.215,10.362,,-9.040,0.455,,,,
2025-10-18T08:21:32.923974+00:00,11.204,11.428,,-6.442,1.936,,,,
2025-10-18T08:21:33.534676+00:00,11.194,11.973,,-2.692,3.232,,,,
2025-10-18T08:21:34.143853+00:00,11.183,11.806,,1.533,4.228,,,,
2025-10-18T08:21:34.753283+00:00,11.172,10.989,,5.485,4.834,,,,
2025-10-18T08:21:35.364113+00:00,11.160,9.813,,8.458,4.995,,,,
2025-10-18T08:21:35.970762+00:00,11.148,8.711,,9.905,4.696,,,,
2025-10-18T08:21:36.575644+00:00,11.137,8.070,,9.596,3.972,,,,
2025-10-18T08:21:37.186134+00:00,11.124,8.118,,7.566,2.876,,,,
2025-10-18T08:21:37.811632+00:00,11.112,8.870,,4.079,1.478,,,,
2025-10-18T08:21:38.415641+00:00,11.100,10.007,,-0.026,-0.009,,,,
2025-10-18T08:21:39.019482+00:00,11.088,11.142,,-4.126,-1.496,,,,
2025-10-18T08:21:39.629269+00:00,11.076,11.876,,-7.527,-2.859,,,,
2025-10-18T08:21:40.238305+00:00,11.064,11.935,,-9.576,-3.957,,,,
2025-10-18T08:21:40.844324+00:00,11.052,11.302,,-9.913,-4.689,,,,
2025-10-18T08:21:41.453092+00:00,11.040,10.200,,-8.483,-4.994,,,,
2025-10-18T08:21:42.061082+00:00,11.029,9.028,,-5.540,-4.840,,,,
2025-10-18T08:21:42.669730+00:00,11.017,8.203,,-1.604,-4.241,,,,
2025-10-18T08:21:43.280887+00:00,11.006,8.024,,2.635,-3.248,,,,
2025-10-18T08:21:43.893491+00:00,10.996,8.563,,6.408,-1.951,,,,
2025-10-18T08:21:44.509342+00:00,10.985,9.631,,9.030,-0.464,,,,
2025-10-18T08:21:45.115131+00:00,10.976,10.816,,9.998,1.042,,,,
2025-10-18T08:21:45.724506+00:00,10.966,11.714,,9.185,2.461,,,,
2025-10-18T08:21:46.335206+00:00,10.958,11.995,,6.720,3.656,,,,
2025-10-18T08:21:46.953465+00:00,10.949,11.546,,2.995,4.520,,,,
2025-10-18T08:21:47.564580+00:00,10.941,10.538,,-1.233,4.954,,,,
2025-10-18T08:21:48.180266+00:00,10.934,9.326,,-5.266,4.926,,,,
2025-10-18T08:21:48.790375+00:00,10.928,8.369,,-8.315,4.442,,,,
2025-10-18T08:21:49.398192+00:00,10.922,8.000,,-9.866,3.552,,,,
2025-10-18T08:21:50.002600+00:00,10.917,8.344,,-9.665,2.344,,,,
2025-10-18T08:21:50.612919+00:00,10.912,9.285,,-7.733,0.908,,,,
2025-10-18T08:21:51.244215+00:00,10.908,10.526,,-4.279,-0.663,,,,
2025-10-18T08:21:51.871686+00:00,10.905,11.558,,-0.030,-2.160,,,,
2025-10-18T08:21:52.480447+00:00,10.903,11.995,,4.107,-3.412,,,,
2025-10-18T08:21:53.095125+00:00,10.901,11.709,,7.536,-4.358,,,,
2025-10-18T08:21:53.745618+00:00,10.900,10.731,,9.659,-4.913,,,,
2025-10-18T08:21:54.359374+00:00,10.900,9.526,,9.860,-4.964,,,,
2025-10-18T08:21:54.971334+00:00,10.901,8.496,,8.276,-4.554,,,,
2025-10-18T08:21:55.582342+00:00,10.902,8.012,,5.202,-3.722,,,,
2025-10-18T08:21:56.196117+00:00,10.904,8.250,,1.172,-2.539,,,,
2025-10-18T08:21:56.805654+00:00,10.907,9.120,,-3.043,-1.130,,,,
2025-10-18T08:21:57.409680+00:00,10.911,10.295,,-6.684,0.370,,,,
2025-10-18T08:21:58.016525+00:00,10.915,11.371,,-9.155,1.843,,,,
2025-10-18T08:21:58.631363+00:00,10.920,11.960,,-9.999,3.163,,,,
2025-10-18T08:21:59.244437+00:00,10.926,11.833,,-9.024,4.184,,,,
2025-10-18T08:21:59.853314+00:00,10.932,11.045,,-6.434,4.812,,,,
2025-10-18T08:22:00.463799+00:00,10.939,9.879,,-2.683,4.998,,,,
2025-10-18T08:22:01.076146+00:00,10.946,8.753,,1.563,4.720,,,,
2025-10-18T08:22:01.693586+00:00,10.955,8.078,,5.557,3.995,,,,
2025-10-18T08:22:02.304558+00:00,10.963,8.108,,8.505,2.905,,,,
2025-10-18T08:22:02.943149+00:00,10.973,8.868,,9.943,1.481,,,,
2025-10-18T08:22:03.561813+00:00,10.983,10.034,,9.473,-0.043,,,,
2025-10-18T08:22:04.173144+00:00,10.993,11.176,,7.289,-1.545,,,,
2025-10-18T08:22:04.778973+00:00,11.003,11.888,,3.826,-2.894,,,,
2025-10-18T08:22:05.383212+00:00,11.014,11.929,,-0.303,-3.976,,,,
2025-10-18T08:22:05.996077+00:00,11.025,11.273,,-4.434,-4.705,,,,
2025-10-18T08:22:06.606076+00:00,11.037,10.160,,-7.748,-4.996,,,,
2025-10-18T08:22:07.217228+00:00,11.048,8.987,,-9.672,-4.825,,,,
2025-10-18T08:22:07.839515+00:00,11.060,8.172,,-9.840,-4.192,,,,
2025-10-18T08:22:08.463952+00:00,11.073,8.043,,-8.162,-3.152,,,,
2025-10-18T08:22:09.075214+00:00,11.085,8.633,,-5.028,-1.837,,,,
2025-10-18T08:22:09.678949+00:00,11.097,9.703,,-1.040,-0.372,,,,
2025-10-18T08:22:10.291389+00:00,11.109,10.894,,3.188,1.149,,,,
2025-10-18T08:22:10.907361+00:00,11.122,11.763,,6.858,2.570,,,,
2025-10-18T08:22:11.515112+00:00,11.134,11.986,,9.250,3.735,,,,
2025-10-18T08:22:12.134147+00:00,11.146,11.483,,9.990,4.570,,,,
2025-10-18T08:22:12.748745+00:00,11.158,10.438,,8.898,4.970,,,,
2025-10-18T08:22:13.370579+00:00,11.169,9.219,,6.144,4.900,,,,
2025-10-18T08:22:13.977843+00:00,11.181,8.308,,2.344,4.378,,,,
2025-10-18T08:22:14.585264+00:00,11.192,8.002,,-1.875,3.455,,,,
2025-10-18T08:22:15.199779+00:00,11.202,8.419,,-5.800,2.200,,,,
2025-10-18T08:22:15.813961+00:00,11.213,9.415,,-8.668,0.740,,,,
2025-10-18T08:22:16.434804+00:00,11.223,10.636,,-9.962,-0.806,,,,
2025-10-18T08:22:17.039223+00:00,11.232,11.601,,-9.442,-2.238,,,,
2025-10-18T08:22:17.644531+00:00,11.241,11.999,,-7.254,-3.469,,,,
2025-10-18T08:22:18.281983+00:00,11.250,11.650,,-3.572,-4.423,,,,
2025-10-18T08:22:18.893152+00:00,11.257,10.704,,0.625,-4.919,,,,
2025-10-18T08:22:19.501982+00:00,11.265,9.506,,4.695,-4.961,,,,
2025-10-18T08:22:20.108964+00:00,11.271,8.489,,7.917,-4.549,,,,
2025-10-18T08:22:20.719275+00:00,11.277,8.011,,9.737,-3.715,,,,
2025-10-18T08:22:21.328099+00:00,11.283,8.249,,9.808,-2.541,,,,
2025-10-18T08:22:21.937270+00:00,11.287,9.118,,8.124,-1.132,,,,
2025-10-18T08:22:22.556203+00:00,11.291,10.323,,4.925,0.405,,,,
2025-10-18T08:22:23.175089+00:00,11.294,11.408,,0.816,1.903,,,,
2025-10-18T08:22:23.799027+00:00,11.297,11.973,,-3.476,3.230,,,,
2025-10-18T08:22:24.404123+00:00,11.299,11.810,,-7.023,4.221,,,,
2025-10-18T08:22:25.009686+00:00,11.300,11.004,,-9.329,4.828,,,,
2025-10-18T08:22:25.624323+00:00,11.300,9.823,,-9.981,4.995,,,,
2025-10-18T08:22:26.236756+00:00,11.300,8.711,,-8.822,4.697,,,,
2025-10-18T08:22:26.848344+00:00,11.298,8.066,,-6.068,3.961,,,,
2025-10-18T08:22:27.451906+00:00,11.296,8.118,,-2.275,2.876,,,,
2025-10-18T08:22:28.075264+00:00,11.294,8.867,,2.053,1.483,,,,
2025-10-18T08:22:28.688218+00:00,11.290,10.022,,5.939,-0.027,,,,
2025-10-18T08:22:29.292264+00:00,11.286,11.154,,8.717,-1.513,,,,
2025-10-18T08:22:29.896040+00:00,11.281,11.877,,9.960,-2.862,,,,
2025-10-18T08:22:30.508499+00:00,11.276,11.933,,9.430,-3.964,,,,
2025-10-18T08:22:31.125663+00:00,11.270,11.278,,7.170,-4.703,,,,
2025-10-18T08:22:31.742804+00:00,11.263,10.152,,3.593,-4.996,,,,
2025-10-18T08:22:32.346395+00:00,11.255,8.993,,-0.550,-4.827,,,,
2025-10-18T08:22:32.984743+00:00,11.247,8.162,,-4.811,-4.174,,,,
2025-10-18T08:22:33.597075+00:00,11.238,8.043,,-8.019,-3.151,,,,
2025-10-18T08:22:34.205414+00:00,11.229,8.629,,-9.771,-1.843,,,,
2025-10-18T08:22:34.816964+00:00,11.220,9.714,,-9.773,-0.359,,,,
2025-10-18T08:22:35.427861+00:00,11.210,10.901,,-8.013,1.158,,,,
2025-10-18T08:22:36.039160+00:00,11.199,11.763,,-4.809,2.568,,,,
2025-10-18T08:22:36.645972+00:00,11.189,11.987,,-0.768,3.732,,,,
2025-10-18T08:22:37.250179+00:00,11.178,11.505,,3.392,4.553,,,,
2025-10-18T08:22:37.868255+00:00,11.166,10.464,,7.024,4.966,,,,
2025-10-18T08:22:38.484257+00:00,11.154,9.254,,9.356,4.909,,,,
2025-10-18T08:22:39.094916+00:00,11.143,8.325,,9.978,4.397,,,,
2025-10-18T08:22:39.716775+00:00,11.130,8.002,,8.767,3.457,,,,
2025-10-18T08:22:40.323214+00:00,11.118,8.408,,6.007,2.221,,,,
2025-10-18T08:22:40.936729+00:00,11.106,9.396,,2.133,0.765,,,,
2025-10-18T08:22:41.547021+00:00,11.094,10.597,,-2.107,-0.755,,,,
2025-10-18T08:22:42.156492+00:00,11.082,11.582,,-5.963,-2.203,,,,
2025-10-18T08:22:42.777989+00:00,11.069,11.999,,-8.791,-3.470,,,,
2025-10-18T08:22:43.401645+00:00,11.057,11.665,,-9.982,-4.407,,,,
2025-10-18T08:22:44.013327+00:00,11.045,10.727,,-9.331,-4.914,,,,
2025-10-18T08:22:44.620682+00:00,11.034,9.534,,-7.017,-4.965,,,,
2025-10-18T08:22:45.225048+00:00,11.022,8.511,,-3.473,-4.566,,,,
2025-10-18T08:22:45.833838+00:00,11.011,8.015,,0.714,-3.745,,,,
2025-10-18T08:22:46.442308+00:00,11.001,8.232,,4.771,-2.581,,,,
2025-10-18T08:22:47.064267+00:00,10.990,9.107,,8.033,-1.146,,,,
2025-10-18T08:22:47.674715+00:00,10.980,10.294,,9.779,0.369,,,,
2025-10-18T08:22:48.280881+00:00,10.971,11.369,,9.773,1.840,,,,
2025-10-18T08:22:48.894135+00:00,10.961,11.959,,8.004,3.158,,,,
2025-10-18T08:22:49.504619+00:00,10.953,11.837,,4.799,4.177,,,,
2025-10-18T08:22:50.113510+00:00,10.945,11.054,,0.743,4.809,,,,
2025-10-18T08:22:50.722392+00:00,10.938,9.892,,-3.446,4.998,,,,
2025-10-18T08:22:51.332072+00:00,10.931,8.768,,-7.023,4.727,,,,
2025-10-18T08:22:51.945238+00:00,10.925,8.086,,-9.348,4.015,,,,
2025-10-18T08:22:52.554059+00:00,10.919,8.098,,-9.980,2.938,,,,
2025-10-18T08:22:53.164721+00:00,10.914,8.797,,-8.820,1.586,,,,
2025-10-18T08:22:53.775958+00:00,10.910,9.932,,-6.070,0.086,,,,
2025-10-18T08:22:54.388205+00:00,10.907,11.093,,-2.218,-1.425,,,,
2025-10-18T08:22:55.006437+00:00,10.904,11.861,,2.076,-2.816,,,,
2025-10-18T08:22:55.615817+00:00,10.902,11.945,,5.937,-3.925,,,,
2025-10-18T08:22:56.231452+00:00,10.901,11.319,,8.756,-4.679,,,,
2025-10-18T08:22:56.842507+00:00,10.900,10.218,,9.971,-4.993,,,,
2025-10-18T08:22:57.447556+00:00,10.900,9.048,,9.404,-4.847,,,,
2025-10-18T08:22:58.063195+00:00,10.901,8.207,,7.123,-4.248,,,,
2025-10-18T08:22:58.682767+00:00,10.903,8.026,,3.514,-3.241,,,,
2025-10-18T08:22:59.291580+00:00,10.905,8.563,,-0.670,-1.951,,,,
2025-10-18T08:22:59.900264+00:00,10.909,9.616,,-4.734,-0.482,,,,
2025-10-18T08:23:00.506020+00:00,10.913,10.802,,-7.939,1.024,,,,
2025-10-18T08:23:01.115112+00:00,10.917,11.706,,-9.743,2.445,,,,
2025-10-18T08:23:01.721656+00:00,10.922,11.997,,-9.806,3.636,,,,
2025-10-18T08:23:02.339139+00:00,10.928,11.561,,-8.083,4.507,,,,
2025-10-18T08:23:02.962317+00:00,10.935,10.539,,-4.838,4.954,,,,
2025-10-18T08:23:03.581499+00:00,10.942,9.321,,-0.715,4.925,,,,
2025-10-18T08:23:04.188829+00:00,10.950,8.369,,3.462,4.442,,,,
2025-10-18T08:23:04.800138+00:00,10.958,8.000,,7.043,3.545,,,,
2025-10-18T08:23:05.407116+00:00,10.967,8.351,,9.343,2.330,,,,
2025-10-18T08:23:06.020603+00:00,10.977,9.303,,9.979,0.885,,,,
2025-10-18T08:23:06.635191+00:00,10.987,10.512,,8.799,-0.645,,,,
2025-10-18T08:23:07.239478+00:00,10.997,11.520,,6.072,-2.091,,,,
2025-10-18T08:23:07.851353+00:00,11.007,11.991,,2.224,-3.362,,,,
2025-10-18T08:23:08.466468+00:00,11.019,11.736,,-2.049,-4.325,,,,
2025-10-18T08:23:09.087291+00:00,11.030,10.835,,-5.979,-4.884,,,,
2025-10-18T08:23:09.691160+00:00,11.041,9.656,,-8.741,-4.981,,,,
2025-10-18T08:23:10.301757+00:00,11.053,8.588,,-9.968,-4.621,,,,
2025-10-18T08:23:10.925946+00:00,11.065,8.027,,-9.369,-3.812,,,,
2025-10-18T08:23:11.533376+00:00,11.078,8.194,,-7.092,-2.669,,,,
2025-10-18T08:23:12.144613+00:00,11.090,9.015,,-3.528,-1.274,,,,
2025-10-18T08:23:12.760861+00:00,11.102,10.202,,0.707,0.253,,,,
2025-10-18T08:23:13.373007+00:00,11.114,11.309,,4.788,1.746,,,,
2025-10-18T08:23:13.980167+00:00,11.126,11.938,,7.982,3.067,,,,
2025-10-18T08:23:14.588365+00:00,11.138,11.873,,9.757,4.108,,,,
2025-10-18T08:23:15.199934+00:00,11.150,11.132,,9.786,4.776,,,,
2025-10-18T08:23:15.813661+00:00,11.162,9.975,,8.039,5.000,,,,
2025-10-18T08:23:16.423275+00:00,11.174,8.835,,4.857,4.760,,,,
2025-10-18T08:23:17.035395+00:00,11.185,8.112,,0.786,4.078,,,,
2025-10-18T08:23:17.643552+00:00,11.196,8.073,,-3.402,3.025,,,,
2025-10-18T08:23:18.272895+00:00,11.206,8.758,,-7.087,1.644,,,,
2025-10-18T08:23:18.878292+00:00,11.217,9.871,,-9.361,0.161,,,,
2025-10-18T08:23:19.493561+00:00,11.226,11.047,,-9.975,-1.359,,,,
2025-10-18T08:23:20.102099+00:00,11.235,11.833,,-8.789,-2.738,,,,
2025-10-18T08:23:20.712444+00:00,11.244,11.961,,-6.022,-3.869,,,,
2025-10-18T08:23:21.315874+00:00,11.252,11.390,,-2.220,-4.635,,,,
2025-10-18T08:23:21.927586+00:00,11.260,10.312,,2.029,-4.985,,,,
2025-10-18T08:23:22.537873+00:00,11.267,9.124,,5.904,-4.872,,,,
2025-10-18T08:23:23.153679+00:00,11.273,8.246,,8.736,-4.302,,,,
2025-10-18T08:23:23.770900+00:00,11.279,8.013,,9.971,-3.325,,,,
2025-10-18T08:23:24.378163+00:00,11.284,8.500,,9.397,-2.057,,,,
2025-10-18T08:23:24.984383+00:00,11.289,9.521,,7.156,-0.603,,,,
2025-10-18T08:23:25.598603+00:00,11.292,10.728,,3.593,0.926,,,,
2025-10-18T08:23:26.205682+00:00,11.295,11.661,,-0.574,2.352,,,,
2025-10-18T08:23:26.818780+00:00,11.298,12.000,,-4.676,3.574,,,,
2025-10-18T08:23:27.422596+00:00,11.299,11.621,,-7.890,4.452,,,,
2025-10-18T08:23:28.043256+00:00,11.300,10.638,,-9.743,4.934,,,,
2025-10-18T08:23:28.651147+00:00,11.300,9.441,,-9.804,4.950,,,,
2025-10-18T08:23:29.260375+00:00,11.299,8.442,,-8.110,4.510,,,,
2025-10-18T08:23:29.863916+00:00,11.298,8.006,,-4.999,3.665,,,,
2025-10-18T08:23:30.478580+00:00,11.296,8.285,,-0.930,2.464,,,,
2025-10-18T08:23:31.096886+00:00,11.293,9.198,,3.332,1.024,,,,
2025-10-18T08:23:31.714254+00:00,11.289,10.407,,6.974,-0.512,,,,
2025-10-18T08:23:32.323966+00:00,11.285,11.455,,9.315,-1.981,,,,
2025-10-18T08:23:32.949369+00:00,11.279,11.983,,9.979,-3.297,,,,
2025-10-18T08:23:33.559299+00:00,11.274,11.775,,8.811,-4.274,,,,
2025-10-18T08:23:34.170034+00:00,11.267,10.925,,6.058,-4.856,,,,
2025-10-18T08:23:34.779414+00:00,11.260,9.744,,2.223,-4.990,,,,
2025-10-18T08:23:35.396042+00:00,11.253,8.644,,-2.060,-4.657,,,,
2025-10-18T08:23:35.999770+00:00,11.245,8.049,,-5.892,-3.905,,,,
2025-10-18T08:23:36.611530+00:00,11.236,8.150,,-8.715,-2.784,,,,
2025-10-18T08:23:37.216885+00:00,11.227,8.911,,-9.961,-1.419,,,,
2025-10-18T08:23:37.841890+00:00,11.217,10.099,,-9.398,0.124,,,,
2025-10-18T08:23:38.455182+00:00,11.207,11.231,,-7.123,1.627,,,,
2025-10-18T08:23:39.074230+00:00,11.196,11.917,,-3.517,2.990,,,,
2025-10-18T08:23:39.682867+00:00,11.185,11.899,,0.666,4.053,,,,
2025-10-18T08:23:40.295918+00:00,11.174,11.191,,4.757,4.748,,,,
2025-10-18T08:23:40.902841+00:00,11.162,10.062,,7.960,4.999,,,,
2025-10-18T08:23:41.511442+00:00,11.151,8.908,,9.750,4.793,,,,
2025-10-18T08:23:42.126252+00:00,11.139,8.142,,9.788,4.138,,,,
2025-10-18T08:23:42.752865+00:00,11.126,8.061,,7.992,3.071,,,,
2025-10-18T08:23:43.361626+00:00,11.114,8.690,,4.793,1.747,,,,
2025-10-18T08:23:43.971675+00:00,11.102,9.792,,0.727,0.260,,,,
2025-10-18T08:23:44.574543+00:00,11.090,10.957,,-3.422,-1.234,,,,
2025-10-18T08:23:45.184712+00:00,11.078,11.791,,-7.007,-2.633,,,,
2025-10-18T08:23:45.791893+00:00,11.066,11.979,,-9.325,-3.783,,,,
2025-10-18T08:23:46.416538+00:00,11.054,11.436,,-9.977,-4.605,,,,
2025-10-18T08:23:47.026134+00:00,11.042,10.380,,-8.802,-4.977,,,,
2025-10-18T08:23:47.635892+00:00,11.030,9.187,,-6.047,-4.891,,,,
2025-10-18T08:23:48.262483+00:00,11.019,8.270,,-2.092,-4.333,,,,
2025-10-18T08:23:48.870310+00:00,11.008,8.007,,2.130,-3.387,,,,
2025-10-18T08:23:49.476998+00:00,10.997,8.456,,5.967,-2.134,,,,
2025-10-18T08:23:50.092484+00:00,10.987,9.474,,8.773,-0.664,,,,
2025-10-18T08:23:50.696263+00:00,10.977,10.662,,9.970,0.840,,,,
2025-10-18T08:23:51.299634+00:00,10.968,11.616,,9.413,2.266,,,,
2025-10-18T08:23:51.915720+00:00,10.959,12.000,,7.139,3.511,,,,
2025-10-18T08:23:52.524183+00:00,10.950,11.657,,3.609,4.416,,,,
2025-10-18T08:23:53.137637+00:00,10.943,10.710,,-0.602,4.918,,,,
2025-10-18T08:23:53.760108+00:00,10.935,9.486,,-4.759,4.958,,,,
2025-10-18T08:23:54.369910+00:00,10.929,8.472,,-7.973,4.535,,,,
2025-10-18T08:23:54.983059+00:00,10.923,8.008,,-9.762,3.688,,,,
2025-10-18T08:23:55.591465+00:00,10.917,8.265,,-9.786,2.507,,,,
2025-10-18T08:23:56.202055+00:00,10.913,9.148,,-8.054,1.091,,,,
2025-10-18T08:23:56.810467+00:00,10.909,10.335,,-4.885,-0.421,,,,
2025-10-18T08:23:57.414028+00:00,10.906,11.395,,-0.878,-1.882,,,,
2025-10-18T08:23:58.038975+00:00,10.903,11.970,,3.425,-3.215,,,,
2025-10-18T08:23:58.654325+00:00,10.901,11.808,,7.035,-4.224,,,,
2025-10-18T08:23:59.263881+00:00,10.900,10.993,,9.346,-4.832,,,,
2025-10-18T08:23:59.872684+00:00,10.900,9.822,,9.981,-4.995,,,,
2025-10-18T08:24:00.478502+00:00,10.900,8.719,,8.840,-4.701,,,,
2025-10-18T08:24:01.095353+00:00,10.902,8.067,,6.072,-3.963,,,,
2025-10-18T08:24:01.710096+00:00,10.904,8.125,,2.204,-2.854,,,,
2025-10-18T08:24:02.318083+00:00,10.906,8.859,,-2.019,-1.495,,,,
2025-10-18T08:24:02.941209+00:00,10.910,10.032,,-5.968,0.040,,,,
2025-10-18T08:24:03.549736+00:00,10.914,11.169,,-8.750,1.536,,,,
2025-10-18T08:24:04.161224+00:00,10.919,11.889,,-9.970,2.897,,,,
2025-10-18T08:24:04.767888+00:00,10.924,11.927,,-9.403,3.982,,,,
2025-10-18T08:24:05.375064+00:00,10.930,11.276,,-7.162,4.704,,,,
2025-10-18T08:24:05.983142+00:00,10.937,10.167,,-3.641,4.996,,,,
2025-10-18T08:24:06.590320+00:00,10.945,9.000,,0.523,4.830,,,,
2025-10-18T08:24:07.202385+00:00,10.953,8.186,,4.625,4.215,,,,
2025-10-18T08:24:07.823704+00:00,10.961,8.035,,7.930,3.192,,,,
2025-10-18T08:24:08.432442+00:00,10.970,8.599,,9.739,1.892,,,,
2025-10-18T08:24:09.039212+00:00,10.980,9.663,,9.809,0.422,,,,
2025-10-18T08:24:09.649598+00:00,10.990,10.854,,8.121,-1.094,,,,
2025-10-18T08:24:10.256892+00:00,11.000,11.733,,4.992,-2.503,,,,
2025-10-18T08:24:10.876772+00:00,11.011,11.990,,0.886,-3.704,,,,
2025-10-18T08:24:11.481040+00:00,11.022,11.527,,-3.280,-4.535,,,,
2025-10-18T08:24:12.093097+00:00,11.033,10.508,,-6.909,-4.959,,,,
2025-10-18T08:24:12.703295+00:00,11.045,9.308,,-9.283,-4.922,,,,
2025-10-18T08:24:13.311770+00:00,11.057,8.360,,-9.990,-4.433,,,,
2025-10-18T08:24:13.914848+00:00,11.069,8.000,,-8.929,-3.546,,,,
2025-10-18T08:24:14.527407+00:00,11.081,8.357,,-6.248,-2.318,,,,
2025-10-18T08:24:15.136551+00:00,11.093,9.305,,-2.460,-0.883,,,,
2025-10-18T08:24:15.752029+00:00,11.105,10.515,,1.813,0.649,,,,
2025-10-18T08:24:16.359405+00:00,11.117,11.526,,5.708,2.102,,,,
2025-10-18T08:24:16.970607+00:00,11.129,11.992,,8.600,3.370,,,,
2025-10-18T08:24:17.583645+00:00,11.142,11.734,,9.944,4.327,,,,
2025-10-18T08:24:18.206735+00:00,11.154,10.827,,9.461,4.887,,,,
2025-10-18T08:24:18.815130+00:00,11.165,9.638,,7.278,4.979,,,,
2025-10-18T08:24:19.432055+00:00,11.177,8.567,,3.739,4.606,,,,
2025-10-18T08:24:20.037369+00:00,11.188,8.028,,-0.405,3.817,,,,
2025-10-18T08:24:20.647920+00:00,11.199,8.194,,-4.510,2.670,,,,
2025-10-18T08:24:21.252142+00:00,11.209,9.002,,-7.776,1.292,,,,
2025-10-18T08:24:21.865450+00:00,11.219,10.181,,-9.687,-0.227,,,,
2025-10-18T08:24:22.475421+00:00,11.229,11.289,,-9.845,-1.716,,,,
2025-10-18T08:24:23.094886+00:00,11.238,11.938,,-8.197,-3.066,,,,
2025-10-18T08:24:23.704910+00:00,11.246,11.872,,-5.088,-4.110,,,,
2025-10-18T08:24:24.315211+00:00,11.254,11.131,,-1.064,-4.776,,,,
2025-10-18T08:24:24.919075+00:00,11.262,9.995,,3.108,-5.000,,,,
2025-10-18T08:24:25.527149+00:00,11.269,8.853,,6.756,-4.769,,,,
2025-10-18T08:24:26.143125+00:00,11.275,8.117,,9.219,-4.088,,,,
2025-10-18T08:24:26.758063+00:00,11.281,8.073,,9.995,-3.026,,,,
2025-10-18T08:24:27.372460+00:00,11.286,8.734,,8.949,-1.680,,,,
2025-10-18T08:24:28.020993+00:00,11.290,9.926,,6.085,-0.092,,,,
2025-10-18T08:24:28.665931+00:00,11.294,11.142,,2.013,1.497,,,,
2025-10-18T08:24:29.272990+00:00,11.296,11.875,,-2.204,2.854,,,,
2025-10-18T08:24:29.880538+00:00,11.298,11.937,,-6.032,3.952,,,,
2025-10-18T08:24:30.500508+00:00,11.300,11.287,,-8.827,4.698,,,,
2025-10-18T08:24:31.109753+00:00,11.300,10.179,,-9.980,4.995,,,,
2025-10-18T08:24:31.716500+00:00,11.300,9.011,,-9.352,4.834,,,,
2025-10-18T08:24:32.322144+00:00,11.299,8.198,,-7.068,4.233,,,,
2025-10-18T08:24:32.945872+00:00,11.297,8.031,,-3.413,3.212,,,,
2025-10-18T08:24:33.556977+00:00,11.294,8.588,,0.793,1.911,,,,
2025-10-18T08:24:34.169466+00:00,11.291,9.658,,4.866,0.429,,,,
2025-10-18T08:24:34.776201+00:00,11.287,10.843,,8.033,-1.079,,,,
2025-10-18T08:24:35.394320+00:00,11.283,11.738,,9.790,-2.513,,,,
2025-10-18T08:24:36.010713+00:00,11.277,11.990,,9.745,-3.706,,,,
2025-10-18T08:24:36.617676+00:00,11.271,11.522,,7.954,-4.540,,,,
2025-10-18T08:24:37.227103+00:00,11.265,10.506,,4.733,-4.959,,,,
2025-10-18T08:24:37.841048+00:00,11.257,9.299,,0.633,-4.920,,,,
2025-10-18T08:24:38.462344+00:00,11.250,8.339,,-3.631,-4.412,,,,
2025-10-18T08:24:39.076455+00:00,11.241,8.001,,-7.184,-3.495,,,,
2025-10-18T08:24:39.682365+00:00,11.232,8.383,,-9.410,-2.269,,,,
2025-10-18T08:24:40.287158+00:00,11.223,9.338,,-9.969,-0.839,,,,
2025-10-18T08:24:40.896283+00:00,11.213,10.537,,-8.754,0.678,,,,
2025-10-18T08:24:41.509969+00:00,11.203,11.549,,-5.945,2.143,,,,
2025-10-18T08:24:42.123123+00:00,11.192,11.995,,-2.060,3.406,,,,
2025-10-18T08:24:42.743957+00:00,11.181,11.706,,2.252,4.361,,,,
2025-10-18T08:24:43.374921+00:00,11.169,10.762,,6.200,4.905,,,,
2025-10-18T08:24:43.986223+00:00,11.158,9.563,,8.897,4.970,,,,
2025-10-18T08:24:44.594504+00:00,11.146,8.526,,9.988,4.577,,,,
2025-10-18T08:24:45.202055+00:00,11.134,8.018,,9.298,3.765,,,,
2025-10-18T08:24:45.818228+00:00,11.122,8.227,,6.907,2.590,,,,
2025-10-18T08:24:46.424111+00:00,11.110,9.070,,3.319,1.197,,,,
2025-10-18T08:24:47.033122+00:00,11.097,10.251,,-0.878,-0.314,,,,
2025-10-18T08:24:47.640690+00:00,11.085,11.338,,-4.910,-1.792,,,,
2025-10-18T08:24:48.259723+00:00,11.073,11.952,,-8.114,-3.129,,,,
2025-10-18T08:24:48.869793+00:00,11.061,11.849,,-9.806,-4.156,,,,
2025-10-18T08:24:49.479146+00:00,11.049,11.079,,-9.738,-4.798,,,,
2025-10-18T08:24:50.099498+00:00,11.037,9.899,,-7.878,-4.998,,,,
2025-10-18T08:24:50.715297+00:00,11.026,8.764,,-4.583,-4.725,,,,
2025-10-18T08:24:51.325145+00:00,11.014,8.086,,-0.492,-4.016,,,,
2025-10-18T08:24:51.930007+00:00,11.004,8.095,,3.655,-2.947,,,,
2025-10-18T08:24:52.544908+00:00,10.993,8.796,,7.205,-1.587,,,,
2025-10-18T08:24:53.171139+00:00,10.983,9.961,,9.467,-0.049,,,,
2025-10-18T08:24:53.783566+00:00,10.973,11.118,,9.949,1.461,,,,
2025-10-18T08:24:54.387516+00:00,10.964,11.862,,8.660,2.817,,,,
2025-10-18T08:24:54.991450+00:00,10.955,11.947,,5.846,3.918,,,,
2025-10-18T08:24:55.601488+00:00,10.947,11.335,,1.961,4.670,,,,
2025-10-18T08:24:56.214455+00:00,10.940,10.235,,-2.296,4.991,,,,
2025-10-18T08:24:56.821869+00:00,10.933,9.059,,-6.107,4.851,,,,
2025-10-18T08:24:57.426148+00:00,10.926,8.223,,-8.819,4.271,,,,
2025-10-18T08:24:58.058297+00:00,10.920,8.024,,-9.988,3.251,,,,
2025-10-18T08:24:58.668395+00:00,10.915,8.558,,-9.292,1.960,,,,
2025-10-18T08:24:59.285065+00:00,10.911,9.625,,-6.893,0.471,,,,
2025-10-18T08:24:59.896008+00:00,10.907,10.819,,-3.267,-1.048,,,,
2025-10-18T08:25:00.505722+00:00,10.904,11.717,,0.938,-2.467,,,,
2025-10-18T08:25:01.120381+00:00,10.902,11.994,,5.006,-3.667,,,,
2025-10-18T08:25:01.724072+00:00,10.901,11.556,,8.116,-4.512,,,,
2025-10-18T08:25:02.331356+00:00,10.900,10.561,,9.803,-4.950,,,,
2025-10-18T08:25:02.956182+00:00,10.900,9.332,,9.717,-4.928,,,,
2025-10-18T08:25:03.565085+00:00,10.901,8.374,,7.871,-4.447,,,,
2025-10-18T08:25:04.173602+00:00,10.902,8.000,,4.619,-3.558,,,,
2025-10-18T08:25:04.781920+00:00,10.905,8.344,,0.542,-2.342,,,,
2025-10-18T08:25:05.399246+00:00,10.908,9.300,,-3.689,-0.890,,,,
2025-10-18T08:25:06.005954+00:00,10.911,10.493,,-7.191,0.621,,,,
2025-10-18T08:25:06.616139+00:00,10.916,11.515,,-9.424,2.082,,,,
2025-10-18T08:25:07.225756+00:00,10.921,11.990,,-9.963,3.351,,,,
2025-10-18T08:25:07.863575+00:00,10.927,11.720,,-8.618,4.345,,,,
2025-10-18T08:25:08.472880+00:00,10.933,10.826,,-5.747,4.887,,,,
2025-10-18T08:25:09.079149+00:00,10.940,9.641,,-1.867,4.980,,,,
2025-10-18T08:25:09.683843+00:00,10.948,8.586,,2.333,4.620,,,,
2025-10-18T08:25:10.295783+00:00,10.956,8.030,,6.162,3.829,,,,
2025-10-18T08:25:10.908282+00:00,10.965,8.190,,8.878,2.681,,,,
2025-10-18T08:25:11.517524+00:00,10.974,9.002,,9.987,1.292,,,,
2025-10-18T08:25:12.121727+00:00,10.984,10.163,,9.319,-0.204,,,,
2025-10-18T08:25:12.736724+00:00,10.994,11.283,,6.955,-1.706,,,,
2025-10-18T08:25:13.350100+00:00,11.005,11.932,,3.332,-3.046,,,,
2025-10-18T08:25:13.958259+00:00,11.015,11.881,,-0.859,-4.093,,,,
2025-10-18T08:25:14.574891+00:00,11.027,11.141,,-4.948,-4.772,,,,
2025-10-18T08:25:15.179195+00:00,11.038,10.005,,-8.079,-5.000,,,,
2025-10-18T08:25:15.795625+00:00,11.050,8.848,,-9.803,-4.766,,,,
2025-10-18T08:25:16.405451+00:00,11.062,8.119,,-9.741,-4.093,,,,
2025-10-18T08:25:17.015369+00:00,11.074,8.069,,-7.930,-3.042,,,,
2025-10-18T08:25:17.619352+00:00,11.086,8.705,,-4.732,-1.724,,,,
2025-10-18T08:25:18.244812+00:00,11.098,9.843,,-0.550,-0.196,,,,
2025-10-18T08:25:18.854330+00:00,11.111,11.013,,3.632,1.312,,,,
2025-10-18T08:25:19.468784+00:00,11.123,11.822,,7.186,2.709,,,,
2025-10-18T08:25:20.074593+00:00,11.135,11.968,,9.411,3.840,,,,
2025-10-18T08:25:20.683815+00:00,11.147,11.408,,9.967,4.623,,,,
2025-10-18T08:25:21.287968+00:00,11.158,10.352,,8.755,4.980,,,,
2025-10-18T08:25:21.898588+00:00,11.170,9.160,,5.964,4.883,,,,
2025-10-18T08:25:22.506386+00:00,11.181,8.274,,2.119,4.337,,,,
2025-10-18T08:25:23.133247+00:00,11.193,8.009,,-2.234,3.359,,,,
2025-10-18T08:25:23.738945+00:00,11.203,8.474,,-6.046,2.102,,,,
2025-10-18T08:25:24.349006+00:00,11.213,9.491,,-8.802,0.642,,,,
2025-10-18T08:25:24.952671+00:00,11.223,10.678,,-9.974,-0.861,,,,
2025-10-18T08:25:25.567522+00:00,11.233,11.639,,-9.364,-2.311,,,,
2025-10-18T08:25:26.178210+00:00,11.241,12.000,,-7.067,-3.537,,,,
2025-10-18T08:25:26.786762+00:00,11.250,11.640,,-3.512,-4.433,,,,
2025-10-18T08:25:27.395272+00:00,11.258,10.691,,0.671,-4.922,,,,
2025-10-18T08:25:28.017766+00:00,11.265,9.467,,4.819,-4.955,,,,
2025-10-18T08:25:28.623137+00:00,11.271,8.465,,7.996,-4.529,,,,
2025-10-18T08:25:29.229273+00:00,11.277,8.008,,9.759,-3.691,,,,
2025-10-18T08:25:29.837005+00:00,11.283,8.262,,9.790,-2.512,,,,
2025-10-18T08:25:30.450527+00:00,11.287,9.149,,8.051,-1.089,,,,
2025-10-18T08:25:31.063383+00:00,11.291,10.345,,4.854,0.433,,,,
2025-10-18T08:25:31.672277+00:00,11.294,11.410,,0.805,1.907,,,,
2025-10-18T08:25:32.282093+00:00,11.297,11.968,,-3.394,3.206,,,,
2025-10-18T08:25:32.912262+00:00,11.299,11.799,,-7.085,4.237,,,,
2025-10-18T08:25:33.554149+00:00,11.300,10.919,,-9.447,4.858,,,,
2025-10-18T08:25:34.168822+00:00,11.300,9.726,,-9.954,4.988,,,,
2025-10-18T08:25:34.812654+00:00,11.299,8.592,,-8.541,4.623,,,,
2025-10-18T08:25:35.420963+00:00,11.298,8.033,,-5.631,3.841,,,,
2025-10-18T08:25:36.041024+00:00,11.296,8.190,,-1.633,2.681,,,,
2025-10-18T08:25:36.654886+00:00,11.293,9.010,,2.625,1.281,,,,
2025-10-18T08:25:37.261635+00:00,11.290,10.177,,6.368,-0.222,,,,
2025-10-18T08:25:37.894446+00:00,11.285,11.321,,9.058,-1.765,,,,
2025-10-18T08:25:38.513037+00:00,11.280,11.947,,10.000,-3.105,,,,
2025-10-18T08:25:39.167867+00:00,11.274,11.823,,8.987,-4.200,,,,
2025-10-18T08:25:39.776073+00:00,11.268,11.026,,6.374,-4.820,,,,
2025-10-18T08:25:40.395628+00:00,11.261,9.838,,2.546,-4.996,,,,
2025-10-18T08:25:41.005217+00:00,11.253,8.726,,-1.685,-4.705,,,,
2025-10-18T08:25:41.615872+00:00,11.245,8.072,,-5.620,-3.978,,,,
2025-10-18T08:25:42.223478+00:00,11.237,8.113,,-8.532,-2.890,,,,
2025-10-18T08:25:42.851941+00:00,11.227,8.864,,-9.941,-1.488,,,,
2025-10-18T08:25:43.460981+00:00,11.217,10.010,,-9.500,0.012,,,,
2025-10-18T08:25:44.064685+00:00,11.207,11.143,,-7.384,1.498,,,,
2025-10-18T08:25:44.668312+00:00,11.197,11.873,,-3.969,2.848,,,,
2025-10-18T08:25:45.280000+00:00,11.186,11.936,,0.201,3.953,,,,
2025-10-18T08:25:45.893589+00:00,11.175,11.295,,4.346,4.693,,,,
2025-10-18T08:25:46.503649+00:00,11.164,10.188,,7.686,4.994,,,,
2025-10-18T08:25:47.109383+00:00,11.152,9.021,,9.637,4.837,,,,
2025-10-18T08:25:47.721324+00:00,11.140,8.197,,9.875,4.232,,,,
2025-10-18T08:25:48.329185+00:00,11.128,8.026,,8.344,3.240,,,,
2025-10-18T08:25:48.940105+00:00,11.116,8.566,,5.307,1.945,,,,
2025-10-18T08:25:49.549084+00:00,11.104,9.622,,1.328,0.475,,,,
2025-10-18T08:25:50.153316+00:00,11.092,10.805,,-2.857,-1.028,,,,
2025-10-18T08:25:50.770589+00:00,11.079,11.716,,-6.608,-2.465,,,,
2025-10-18T08:25:51.379326+00:00,11.067,11.995,,-9.119,-3.656,,,,
2025-10-18T08:25:51.984673+00:00,11.055,11.562,,-10.000,-4.506,,,,
2025-10-18T08:25:52.591472+00:00,11.044,10.571,,-9.108,-4.948,,,,
                                    