ts_iso,batt_v,airspeed_ms,groundspeed_ms,roll_deg,pitch_deg,yaw_deg,lat,lon,alt_m
2025-10-18T08:37:57.466178+00:00,,,,,,,,,
2025-10-18T08:37:58.075455+00:00,,,,,,,,,
2025-10-18T08:37:58.676882+00:00,,,,,,,,,
2025-10-18T08:37:59.281270+00:00,,,,,,,,,
2025-10-18T08:38:00.260637+00:00,,,,,,,,,
2025-10-18T08:38:00.865902+00:00,,,,,,,,,
2025-10-18T08:38:01.468887+00:00,,,,,,,,,
2025-10-18T08:38:02.686148+00:00,11.124,11.876,,7.527,2.859,,,,
2025-10-18T08:38:03.306423+00:00,11.137,11.929,,9.598,3.974,,,,
2025-10-18T08:38:03.911891+00:00,11.148,11.286,,9.903,4.698,,,,
2025-10-18T08:38:04.524331+00:00,11.160,10.172,,8.429,4.995,,,,
2025-10-18T08:38:05.146791+00:00,11.172,8.978,,5.371,4.821,,,,
2025-10-18T08:38:05.766490+00:00,11.183,8.170,,1.328,4.188,,,,
2025-10-18T08:38:06.372579+00:00,11.194,8.037,,-2.870,3.182,,,,
2025-10-18T08:38:06.975471+00:00,11.205,8.598,,-6.542,1.893,,,,
2025-10-18T08:38:07.580978+00:00,11.215,9.660,,-9.073,0.427,,,,
2025-10-18T08:38:08.192265+00:00,11.225,10.852,,-10.000,-1.092,,,,
2025-10-18T08:38:08.802854+00:00,11.234,11.736,,-9.125,-2.508,,,,
2025-10-18T08:38:09.406258+00:00,11.243,11.993,,-6.646,-3.680,,,,
2025-10-18T08:38:10.010835+00:00,11.251,11.545,,-2.991,-4.521,,,,
2025-10-18T08:38:10.639852+00:00,11.259,10.502,,1.361,-4.960,,,,
2025-10-18T08:38:11.251231+00:00,11.266,9.300,,5.350,-4.920,,,,
2025-10-18T08:38:11.860910+00:00,11.272,8.353,,8.367,-4.426,,,,
2025-10-18T08:38:12.465886+00:00,11.278,8.000,,9.879,-3.533,,,,
2025-10-18T08:38:12.937447+00:00,11.282,8.220,,9.849,-2.609,,,,
2025-10-18T08:38:13.543844+00:00,11.287,9.056,,8.262,-1.216,,,,
2025-10-18T08:38:14.146641+00:00,11.291,10.222,,5.229,0.279,,,,
2025-10-18T08:38:14.764948+00:00,11.294,11.333,,1.172,1.784,,,,
2025-10-18T08:38:15.374714+00:00,11.297,11.947,,-3.045,3.104,,,,
2025-10-18T08:38:16.060806+00:00,11.299,11.797,,-7.101,4.242,,,,
2025-10-18T08:38:16.675587+00:00,11.300,10.961,,-9.391,4.844,,,,
2025-10-18T08:38:17.290370+00:00,11.300,9.773,,-9.968,4.992,,,,
2025-10-18T08:38:17.806665+00:00,11.300,8.822,,-9.044,4.754,,,,
2025-10-18T08:38:18.411375+00:00,11.298,8.112,,-6.492,4.077,,,,
2025-10-18T08:38:19.022352+00:00,11.297,8.075,,-2.753,3.018,,,,
2025-10-18T08:38:20.131736+00:00,11.291,9.629,,4.774,0.466,,,,
2025-10-18T08:38:20.737257+00:00,11.287,10.814,,7.965,-1.040,,,,
2025-10-18T08:38:21.348103+00:00,11.283,11.714,,9.755,-2.462,,,,
2025-10-18T08:38:21.953523+00:00,11.278,11.996,,9.796,-3.647,,,,
2025-10-18T08:38:22.557338+00:00,11.272,11.570,,8.111,-4.499,,,,
2025-10-18T08:38:23.280091+00:00,11.264,10.358,,4.260,-4.980,,,,
2025-10-18T08:38:23.890318+00:00,11.257,9.166,,0.129,-4.885,,,,
2025-10-18T08:38:24.499615+00:00,11.249,8.276,,-4.019,-4.340,,,,
2025-10-18T08:38:25.106628+00:00,11.240,8.006,,-7.437,-3.399,,,,
2025-10-18T08:38:25.714024+00:00,11.231,8.449,,-9.532,-2.147,,,,
2025-10-18T08:38:26.320385+00:00,11.222,9.445,,-9.931,-0.701,,,,
2025-10-18T08:38:26.923215+00:00,11.212,10.632,,-8.580,0.801,,,,
2025-10-18T08:38:27.528509+00:00,11.202,11.600,,-5.710,2.235,,,,
2025-10-18T08:38:27.528509+00:00,11.202,11.600,,-5.710,2.235,,,,
2025-10-18T08:38:29.945893+00:00,11.158,9.597,,8.840,4.974,,,,
2025-10-18T08:38:31.069208+00:00,11.136,8.060,,9.554,3.941,,,,
2025-10-18T08:38:31.674195+00:00,11.124,8.128,,7.495,2.845,,,,
2025-10-18T08:38:32.281357+00:00,11.112,8.865,,4.099,1.486,,,,
2025-10-18T08:38:32.887711+00:00,11.100,10.006,,-0.021,-0.007,,,,
2025-10-18T08:38:33.494613+00:00,11.088,11.146,,-4.141,-1.501,,,,
2025-10-18T08:38:33.494613+00:00,11.088,11.146,,-4.141,-1.501,,,,
2025-10-18T08:38:37.397407+00:00,11.013,8.040,,0.173,-3.870,,,,
2025-10-18T08:38:38.024188+00:00,11.002,8.180,,4.404,-2.706,,,,
2025-10-18T08:38:38.629700+00:00,10.991,8.975,,7.707,-1.329,,,,
2025-10-18T08:38:39.234568+00:00,10.981,10.133,,9.644,0.167,,,,
2025-10-18T08:38:39.837383+00:00,10.972,11.241,,9.881,1.643,,,,
2025-10-18T08:38:40.445898+00:00,10.963,11.915,,8.362,2.982,,,,
2025-10-18T08:38:41.054806+00:00,10.954,11.901,,5.347,4.048,,,,
2025-10-18T08:38:41.657719+00:00,10.946,11.213,,1.416,4.737,,,,
2025-10-18T08:38:42.265050+00:00,10.939,10.089,,-2.793,4.999,,,,
2025-10-18T08:38:42.878634+00:00,10.932,8.922,,-6.538,4.799,,,,
2025-10-18T08:38:43.484095+00:00,10.926,8.155,,-9.071,4.162,,,,
2025-10-18T08:38:44.589014+00:00,10.916,8.482,,-9.431,2.089,,,,
2025-10-18T08:38:45.196445+00:00,10.911,9.496,,-7.219,0.635,,,,
2025-10-18T08:38:45.813599+00:00,10.908,10.709,,-3.659,-0.901,,,,
2025-10-18T08:38:46.419745+00:00,10.905,11.648,,0.497,-2.328,,,,
2025-10-18T08:38:47.023829+00:00,10.902,12.000,,4.552,-3.539,,,,
2025-10-18T08:38:47.645712+00:00,10.901,11.623,,7.882,-4.450,,,,
2025-10-18T08:38:48.251738+00:00,10.900,10.669,,9.717,-4.928,,,,
2025-10-18T08:38:48.858254+00:00,10.900,9.475,,9.828,-4.956,,,,
2025-10-18T08:38:49.467247+00:00,10.901,8.465,,8.184,-4.530,,,,
2025-10-18T08:38:50.081025+00:00,10.902,8.007,,5.046,-3.678,,,,
2025-10-18T08:38:50.687179+00:00,10.904,8.268,,1.045,-2.500,,,,
2025-10-18T08:38:51.294297+00:00,10.907,9.148,,-3.149,-1.091,,,,
2025-10-18T08:38:51.896861+00:00,10.911,10.324,,-6.759,0.406,,,,
2025-10-18T08:38:53.008654+00:00,10.919,11.913,,-9.987,2.975,,,,
2025-10-18T08:38:53.619184+00:00,10.925,11.902,,-9.298,4.045,,,,
2025-10-18T08:38:54.222408+00:00,10.931,11.216,,-6.973,4.735,,,,
2025-10-18T08:38:54.825037+00:00,10.938,10.102,,-3.427,4.998,,,,
2025-10-18T08:38:55.435068+00:00,10.945,8.939,,0.772,4.806,,,,
2025-10-18T08:38:56.040361+00:00,10.953,8.163,,4.803,4.176,,,,
2025-10-18T08:38:56.648353+00:00,10.961,8.041,,7.996,3.162,,,,
2025-10-18T08:38:57.253448+00:00,10.970,8.616,,9.758,1.864,,,,
2025-10-18T08:38:57.866806+00:00,10.980,9.700,,9.783,0.376,,,,
2025-10-18T08:38:58.472682+00:00,10.990,10.879,,8.064,-1.128,,,,
2025-10-18T08:38:58.933480+00:00,10.998,11.586,,5.773,-2.211,,,,
2025-10-18T08:38:59.543991+00:00,11.008,11.998,,1.870,-3.456,,,,
2025-10-18T08:39:00.154665+00:00,11.019,11.688,,-2.371,-4.383,,,,
2025-10-18T08:39:00.757653+00:00,11.031,10.781,,-6.143,-4.900,,,,
2025-10-18T08:39:01.865629+00:00,11.052,8.702,,-9.911,-4.691,,,,
2025-10-18T08:39:02.467472+00:00,11.064,8.068,,-9.589,-3.968,,,,
2025-10-18T08:39:03.079517+00:00,11.076,8.121,,-7.544,-2.867,,,,
2025-10-18T08:39:03.694085+00:00,11.088,8.860,,-4.120,-1.493,,,,
2025-10-18T08:39:04.302460+00:00,11.100,10.004,,0.013,0.004,,,,
2025-10-18T08:39:04.954139+00:00,11.113,11.216,,4.417,1.605,,,,
2025-10-18T08:39:05.561891+00:00,11.125,11.905,,7.726,2.948,,,,
2025-10-18T08:39:06.167414+00:00,11.137,11.913,,9.653,4.018,,,,
2025-10-18T08:39:06.773022+00:00,11.149,11.241,,9.872,4.723,,,,
2025-10-18T08:39:07.390033+00:00,11.161,10.104,,8.300,4.998,,,,
2025-10-18T08:39:08.005853+00:00,11.172,8.932,,5.209,4.803,,,,
2025-10-18T08:39:08.611589+00:00,11.184,8.159,,1.236,4.169,,,,
2025-10-18T08:39:09.216935+00:00,11.194,8.041,,-2.953,3.157,,,,
2025-10-18T08:39:09.820596+00:00,11.205,8.617,,-6.612,1.862,,,,
2025-10-18T08:39:10.432997+00:00,11.215,9.699,,-9.132,0.377,,,,
2025-10-18T08:39:11.546788+00:00,11.233,11.642,,-9.359,-2.315,,,,
2025-10-18T08:39:12.153082+00:00,11.241,12.000,,-7.079,-3.533,,,,
2025-10-18T08:39:12.768131+00:00,11.250,11.635,,-3.485,-4.438,,,,
2025-10-18T08:39:13.373962+00:00,11.258,10.689,,0.681,-4.923,,,,
2025-10-18T08:39:13.976567+00:00,11.265,9.503,,4.706,-4.961,,,,
2025-10-18T08:39:14.586205+00:00,11.271,8.483,,7.936,-4.544,,,,
2025-10-18T08:39:15.200664+00:00,11.277,8.009,,9.750,-3.700,,,,
2025-10-18T08:39:15.811196+00:00,11.283,8.259,,9.794,-2.519,,,,
2025-10-18T08:39:16.414889+00:00,11.287,9.126,,8.104,-1.121,,,,
2025-10-18T08:39:17.020942+00:00,11.291,10.307,,4.974,0.384,,,,
2025-10-18T08:39:17.634956+00:00,11.294,11.389,,0.906,1.873,,,,
2025-10-18T08:39:18.272623+00:00,11.297,11.973,,-3.482,3.232,,,,
2025-10-18T08:39:18.879671+00:00,11.299,11.808,,-7.037,4.224,,,,
2025-10-18T08:39:19.983985+00:00,11.300,10.049,,-9.999,5.000,,,,
2025-10-18T08:39:20.598286+00:00,11.300,8.888,,-9.160,4.784,,,,
2025-10-18T08:39:21.204422+00:00,11.299,8.139,,-6.696,4.133,,,,
2025-10-18T08:39:21.807300+00:00,11.297,8.052,,-3.067,3.111,,,,
2025-10-18T08:39:22.410734+00:00,11.294,8.652,,1.105,1.807,,,,
2025-10-18T08:39:23.029560+00:00,11.291,9.759,,5.174,0.301,,,,
2025-10-18T08:39:23.640269+00:00,11.287,10.941,,8.257,-1.213,,,,
2025-10-18T08:39:24.251462+00:00,11.282,11.784,,9.853,-2.616,,,,
2025-10-18T08:39:24.855992+00:00,11.277,11.982,,9.685,-3.766,,,,
2025-10-18T08:39:25.462616+00:00,11.271,11.475,,7.800,-4.576,,,,
2025-10-18T08:39:26.068332+00:00,11.264,10.443,,4.534,-4.969,,,,
2025-10-18T08:39:26.674271+00:00,11.257,9.254,,0.464,-4.909,,,,
2025-10-18T08:39:27.281589+00:00,11.249,8.328,,-3.697,-4.400,,,,
2025-10-18T08:39:28.402036+00:00,11.234,8.284,,-9.180,-2.466,,,,
2025-10-18T08:39:29.008301+00:00,11.224,9.175,,-9.999,-1.055,,,,
2025-10-18T08:39:29.613747+00:00,11.215,10.359,,-9.046,0.450,,,,
2025-10-18T08:39:30.217188+00:00,11.205,11.412,,-6.503,1.910,,,,
2025-10-18T08:39:30.834911+00:00,11.194,11.971,,-2.721,3.224,,,,
2025-10-18T08:39:31.445430+00:00,11.183,11.808,,1.512,4.224,,,,
2025-10-18T08:39:32.050333+00:00,11.172,11.002,,5.440,4.829,,,,
2025-10-18T08:39:32.658469+00:00,11.160,9.833,,8.420,4.996,,,,
2025-10-18T08:39:33.268303+00:00,11.148,8.722,,9.898,4.703,,,,
2025-10-18T08:39:33.873939+00:00,11.137,8.073,,9.608,3.982,,,,
2025-10-18T08:39:34.477460+00:00,11.125,8.109,,7.626,2.903,,,,
2025-10-18T08:39:35.084218+00:00,11.113,8.818,,4.283,1.555,,,,
2025-10-18T08:39:36.198591+00:00,11.090,10.927,,-3.310,-1.193,,,,
2025-10-18T08:39:36.809114+00:00,11.078,11.776,,-6.924,-2.598,,,,
2025-10-18T08:39:37.413178+00:00,11.066,11.984,,-9.275,-3.751,,,,
2025-10-18T08:39:38.015121+00:00,11.054,11.493,,-9.993,-4.562,,,,
2025-10-18T08:39:38.620780+00:00,11.043,10.470,,-8.951,-4.965,,,,
2025-10-18T08:39:39.235756+00:00,11.031,9.263,,-6.274,-4.911,,,,
2025-10-18T08:39:39.847098+00:00,11.020,8.329,,-2.476,-4.401,,,,
2025-10-18T08:39:40.456579+00:00,11.009,8.001,,1.755,-3.486,,,,
2025-10-18T08:39:41.064842+00:00,10.998,8.391,,5.664,-2.253,,,,
2025-10-18T08:39:41.671682+00:00,10.988,9.356,,8.557,-0.817,,,,
2025-10-18T08:39:42.274952+00:00,10.978,10.543,,9.926,0.686,,,,
2025-10-18T08:39:42.880855+00:00,10.969,11.543,,9.546,2.132,,,,
2025-10-18T08:39:43.492322+00:00,10.960,11.994,,7.448,3.395,,,,
2025-10-18T08:39:44.599541+00:00,10.945,11.031,,0.651,4.818,,,,
2025-10-18T08:39:45.205354+00:00,10.937,9.872,,-3.513,4.997,,,,
2025-10-18T08:39:45.812510+00:00,10.931,8.756,,-7.061,4.721,,,,
2025-10-18T08:39:46.418893+00:00,10.925,8.085,,-9.351,4.014,,,,
2025-10-18T08:39:47.022609+00:00,10.919,8.096,,-9.982,2.946,,,,
2025-10-18T08:39:47.635784+00:00,10.914,8.794,,-8.826,1.590,,,,
2025-10-18T08:39:48.247784+00:00,10.910,9.930,,-6.075,0.088,,,,
2025-10-18T08:39:48.860654+00:00,10.907,11.092,,-2.221,-1.424,,,,
2025-10-18T08:39:49.465214+00:00,10.904,11.851,,1.980,-2.787,,,,
2025-10-18T08:39:50.068357+00:00,10.902,11.954,,5.822,-3.894,,,,
2025-10-18T08:39:50.677597+00:00,10.901,11.359,,8.664,-4.655,,,,
2025-10-18T08:39:51.286794+00:00,10.900,10.275,,9.954,-4.988,,,,
2025-10-18T08:39:51.894732+00:00,10.900,9.094,,9.463,-4.862,,,,
2025-10-18T08:39:53.001926+00:00,10.902,8.000,,4.499,-3.524,,,,
2025-10-18T08:39:53.607621+00:00,10.905,8.363,,0.426,-2.306,,,,
2025-10-18T08:39:54.213272+00:00,10.908,9.309,,-3.721,-0.878,,,,
2025-10-18T08:39:54.815598+00:00,10.911,10.494,,-7.194,0.622,,,,
2025-10-18T08:39:55.428460+00:00,10.916,11.519,,-9.431,2.090,,,,
2025-10-18T08:39:56.042561+00:00,10.921,11.991,,-9.959,3.365,,,,
2025-10-18T08:39:56.650335+00:00,10.927,11.742,,-8.696,4.317,,,,
2025-10-18T08:39:57.258229+00:00,10.933,10.869,,-5.882,4.874,,,,
2025-10-18T08:39:57.862942+00:00,10.940,9.691,,-2.041,4.985,,,,
2025-10-18T08:39:58.472011+00:00,10.948,8.616,,2.191,4.639,,,,
2025-10-18T08:39:59.074999+00:00,10.956,8.041,,5.995,3.876,,,,
2025-10-18T08:39:59.682710+00:00,10.964,8.161,,8.764,2.754,,,,
2025-10-18T08:40:00.791142+00:00,10.982,9.884,,9.628,0.145,,,,
2025-10-18T08:40:01.399835+00:00,10.992,11.046,,7.651,-1.359,,,,
2025-10-18T08:40:02.004107+00:00,11.002,11.829,,4.334,-2.729,,,,
2025-10-18T08:40:02.608289+00:00,11.013,11.965,,0.254,-3.852,,,,
2025-10-18T08:40:03.211293+00:00,11.024,11.406,,-3.864,-4.625,,,,
2025-10-18T08:40:03.833959+00:00,11.035,10.313,,-7.397,-4.985,,,,
2025-10-18T08:40:04.442236+00:00,11.047,9.128,,-9.516,-4.873,,,,
2025-10-18T08:40:05.052500+00:00,11.059,8.254,,-9.934,-4.312,,,,
2025-10-18T08:40:05.655657+00:00,11.071,8.009,,-8.592,-3.366,,,,
2025-10-18T08:40:06.263796+00:00,11.083,8.473,,-5.713,-2.104,,,,
2025-10-18T08:40:06.867570+00:00,11.095,9.476,,-1.844,-0.660,,,,
2025-10-18T08:40:07.477146+00:00,11.107,10.676,,2.389,0.857,,,,
2025-10-18T08:40:08.085526+00:00,11.119,11.630,,6.187,2.293,,,,
2025-10-18T08:40:09.194838+00:00,11.141,11.763,,9.919,4.289,,,,
2025-10-18T08:40:09.804290+00:00,11.153,10.905,,9.555,4.863,,,,
2025-10-18T08:40:10.412464+00:00,11.164,9.724,,7.484,4.988,,,,
2025-10-18T08:40:11.015267+00:00,11.176,8.650,,4.111,4.661,,,,
2025-10-18T08:40:11.623206+00:00,11.187,8.049,,-0.019,3.905,,,,
2025-10-18T08:40:12.236772+00:00,11.198,8.152,,-4.181,2.780,,,,
2025-10-18T08:40:12.847647+00:00,11.208,8.924,,-7.572,1.401,,,,
2025-10-18T08:40:13.455644+00:00,11.218,10.080,,-9.593,-0.100,,,,
2025-10-18T08:40:14.063451+00:00,11.228,11.207,,-9.903,-1.591,,,,
2025-10-18T08:40:14.666575+00:00,11.237,11.899,,-8.465,-2.927,,,,
2025-10-18T08:40:15.272388+00:00,11.245,11.919,,-5.524,-4.003,,,,
2025-10-18T08:40:15.878155+00:00,11.253,11.256,,-1.605,-4.714,,,,
2025-10-18T08:40:16.495281+00:00,11.261,10.124,,2.675,-4.998,,,,
2025-10-18T08:40:17.607679+00:00,11.273,8.265,,8.671,-4.326,,,,
2025-10-18T08:40:18.211475+00:00,11.279,8.007,,9.951,-3.385,,,,
2025-10-18T08:40:18.816489+00:00,11.284,8.455,,9.477,-2.135,,,,
2025-10-18T08:40:19.425286+00:00,11.288,9.460,,7.310,-0.682,,,,
2025-10-18T08:40:20.041777+00:00,11.292,10.672,,3.786,0.853,,,,
2025-10-18T08:40:20.652374+00:00,11.295,11.631,,-0.391,2.294,,,,
2025-10-18T08:40:21.255769+00:00,11.297,12.000,,-4.453,3.511,,,,
2025-10-18T08:40:21.867504+00:00,11.299,11.653,,-7.769,4.420,,,,
2025-10-18T08:40:22.474363+00:00,11.300,10.716,,-9.673,4.916,,,,
2025-10-18T08:40:23.077902+00:00,11.300,9.530,,-9.862,4.965,,,,
2025-10-18T08:40:23.680998+00:00,11.299,8.510,,-8.318,4.565,,,,
2025-10-18T08:40:24.290120+00:00,11.298,8.015,,-5.278,3.743,,,,
2025-10-18T08:40:25.400964+00:00,11.293,8.902,,2.197,1.432,,,,
2025-10-18T08:40:26.009102+00:00,11.290,10.054,,6.030,-0.068,,,,
2025-10-18T08:40:26.618771+00:00,11.286,11.189,,8.791,-1.565,,,,
2025-10-18T08:40:27.221545+00:00,11.281,11.891,,9.972,-2.904,,,,
2025-10-18T08:40:27.827631+00:00,11.276,11.925,,9.396,-3.986,,,,
2025-10-18T08:40:28.441354+00:00,11.269,11.261,,7.116,-4.712,,,,
2025-10-18T08:40:29.053796+00:00,11.263,10.140,,3.551,-4.997,,,,
2025-10-18T08:40:29.661521+00:00,11.255,8.975,,-0.623,-4.820,,,,
2025-10-18T08:40:30.267258+00:00,11.247,8.180,,-4.674,-4.205,,,,
2025-10-18T08:40:30.872061+00:00,11.239,8.031,,-7.893,-3.208,,,,
2025-10-18T08:40:31.481212+00:00,11.230,8.588,,-9.726,-1.910,,,,
2025-10-18T08:40:32.087134+00:00,11.220,9.646,,-9.821,-0.445,,,,
2025-10-18T08:40:32.696114+00:00,11.210,10.835,,-8.163,1.069,,,,
2025-10-18T08:40:33.801700+00:00,11.191,11.999,,-1.801,3.474,,,,
2025-10-18T08:40:34.413942+00:00,11.180,11.675,,2.449,4.396,,,,
2025-10-18T08:40:35.022064+00:00,11.169,10.751,,6.234,4.908,,,,
2025-10-18T08:40:35.624955+00:00,11.158,9.567,,8.890,4.970,,,,
2025-10-18T08:40:36.228686+00:00,11.146,8.535,,9.986,4.584,,,,
2025-10-18T08:40:36.854097+00:00,11.134,8.015,,9.269,3.747,,,,
2025-10-18T08:40:37.464909+00:00,11.122,8.233,,6.878,2.578,,,,
2025-10-18T08:40:38.072992+00:00,11.110,9.085,,3.267,1.177,,,,
2025-10-18T08:40:38.677559+00:00,11.097,10.258,,-0.903,-0.323,,,,
2025-10-18T08:40:39.284384+00:00,11.085,11.343,,-4.927,-1.799,,,,
2025-10-18T08:40:39.890294+00:00,11.073,11.948,,-8.071,-3.109,,,,
2025-10-18T08:40:40.496296+00:00,11.061,11.859,,-9.786,-4.136,,,,
2025-10-18T08:40:41.103087+00:00,11.049,11.108,,-9.764,-4.786,,,,
2025-10-18T08:40:42.213619+00:00,11.028,9.000,,-5.446,-4.830,,,,
2025-10-18T08:40:42.818444+00:00,11.017,8.193,,-1.520,-4.225,,,,
2025-10-18T08:40:43.422185+00:00,11.006,8.026,,2.668,-3.239,,,,
2025-10-18T08:40:44.024444+00:00,10.996,8.555,,6.378,-1.964,,,,
2025-10-18T08:40:44.637279+00:00,10.986,9.614,,9.004,-0.485,,,,
2025-10-18T08:40:45.248208+00:00,10.976,10.809,,9.997,1.034,,,,
2025-10-18T08:40:45.851743+00:00,10.967,11.704,,9.211,2.441,,,,
2025-10-18T08:40:46.459681+00:00,10.958,11.997,,6.782,3.635,,,,
2025-10-18T08:40:47.068408+00:00,10.949,11.573,,3.138,4.497,,,,
2025-10-18T08:40:47.673805+00:00,10.942,10.590,,-1.044,4.944,,,,
2025-10-18T08:40:48.276982+00:00,10.935,9.402,,-5.028,4.942,,,,
2025-10-18T08:40:48.882547+00:00,10.928,8.422,,-8.138,4.492,,,,
2025-10-18T08:40:49.996236+00:00,10.918,8.201,,-9.873,2.653,,,,
2025-10-18T08:40:50.604956+00:00,10.913,9.024,,-8.334,1.261,,,,
2025-10-18T08:40:51.208913+00:00,10.909,10.188,,-5.332,-0.235,,,,
2025-10-18T08:40:51.810981+00:00,10.906,11.283,,-1.405,-1.706,,,,
2025-10-18T08:40:52.417937+00:00,10.903,11.929,,2.801,-3.032,,,,
2025-10-18T08:40:53.039776+00:00,10.901,11.876,,6.588,-4.103,,,,
2025-10-18T08:40:53.651515+00:00,10.900,11.138,,9.116,-4.773,,,,
2025-10-18T08:40:54.259067+00:00,10.900,9.995,,10.000,-5.000,,,,
2025-10-18T08:40:54.866441+00:00,10.900,8.854,,9.102,-4.769,,,,
2025-10-18T08:40:55.473541+00:00,10.901,8.124,,6.585,-4.102,,,,
2025-10-18T08:40:56.077204+00:00,10.903,8.062,,2.919,-3.067,,,,
2025-10-18T08:40:56.683479+00:00,10.906,8.690,,-1.278,-1.749,,,,
2025-10-18T08:40:57.297023+00:00,10.909,9.798,,-5.292,-0.252,,,,
2025-10-18T08:40:58.404529+00:00,10.917,11.690,,-9.718,2.411,,,,
2025-10-18T08:40:59.015183+00:00,10.922,11.998,,-9.821,3.617,,,,
2025-10-18T08:40:59.626283+00:00,10.928,11.583,,-8.154,4.488,,,,
2025-10-18T08:41:00.231800+00:00,10.935,10.606,,-5.052,4.941,,,,
2025-10-18T08:41:00.835549+00:00,10.942,9.417,,-1.068,4.945,,,,
2025-10-18T08:41:01.448125+00:00,10.950,8.423,,3.163,4.493,,,,
2025-10-18T08:41:02.060387+00:00,10.958,8.002,,6.819,3.623,,,,
2025-10-18T08:41:02.663796+00:00,10.967,8.299,,9.218,2.435,,,,
2025-10-18T08:41:03.271589+00:00,10.976,9.204,,9.996,1.017,,,,
2025-10-18T08:41:03.874963+00:00,10.986,10.385,,9.005,-0.484,,,,
2025-10-18T08:41:04.483606+00:00,10.996,11.438,,6.403,-1.953,,,,
2025-10-18T08:41:05.086750+00:00,11.006,11.973,,2.694,-3.232,,,,
2025-10-18T08:41:05.694986+00:00,11.017,11.807,,-1.524,-4.226,,,,
2025-10-18T08:41:06.807424+00:00,11.038,10.031,,-8.026,-5.000,,,,
2025-10-18T08:41:07.411014+00:00,11.049,8.890,,-9.766,-4.785,,,,
2025-10-18T08:41:08.019207+00:00,11.061,8.139,,-9.782,-4.132,,,,
2025-10-18T08:41:08.630402+00:00,11.073,8.056,,-8.039,-3.093,,,,
2025-10-18T08:41:09.244153+00:00,11.086,8.681,,-4.831,-1.762,,,,
2025-10-18T08:41:09.847583+00:00,11.098,9.767,,-0.816,-0.292,,,,
2025-10-18T08:41:10.454115+00:00,11.110,10.941,,3.362,1.212,,,,
2025-10-18T08:41:11.066260+00:00,11.122,11.784,,6.971,2.617,,,,
2025-10-18T08:41:11.680461+00:00,11.134,11.979,,9.325,3.783,,,,
2025-10-18T08:41:12.286290+00:00,11.146,11.462,,9.985,4.586,,,,
2025-10-18T08:41:12.889599+00:00,11.158,10.429,,8.884,4.971,,,,
2025-10-18T08:41:13.498632+00:00,11.169,9.235,,6.191,4.904,,,,
2025-10-18T08:41:14.608151+00:00,11.190,8.005,,-1.088,3.655,,,,
2025-10-18T08:41:15.216661+00:00,11.200,8.284,,-5.099,2.465,,,,
2025-10-18T08:41:15.828955+00:00,11.211,9.187,,-8.213,1.039,,,,
2025-10-18T08:41:16.432095+00:00,11.221,10.367,,-9.829,-0.461,,,,
2025-10-18T08:41:17.040189+00:00,11.230,11.424,,-9.712,-1.930,,,,
2025-10-18T08:41:17.652009+00:00,11.239,11.972,,-7.845,-3.230,,,,
2025-10-18T08:41:18.263228+00:00,11.248,11.805,,-4.564,-4.228,,,,
2025-10-18T08:41:18.873922+00:00,11.256,10.985,,-0.465,-4.835,,,,
2025-10-18T08:41:19.479615+00:00,11.263,9.819,,3.686,-4.995,,,,
2025-10-18T08:41:20.086669+00:00,11.270,8.715,,7.190,-4.699,,,,
2025-10-18T08:41:20.699208+00:00,11.276,8.068,,9.429,-3.965,,,,
2025-10-18T08:41:21.301917+00:00,11.281,8.116,,9.966,-2.882,,,,
2025-10-18T08:41:21.907304+00:00,11.286,8.832,,8.746,-1.533,,,,
2025-10-18T08:41:23.016078+00:00,11.293,10.933,,2.846,1.202,,,,
2025-10-18T08:41:23.628868+00:00,11.296,11.781,,-1.399,2.609,,,,
2025-10-18T08:41:24.239992+00:00,11.298,11.981,,-5.381,3.772,,,,
2025-10-18T08:41:24.845237+00:00,11.299,11.472,,-8.370,4.579,,,,
2025-10-18T08:41:25.448881+00:00,11.300,10.443,,-9.878,4.969,,,,
2025-10-18T08:41:26.067785+00:00,11.300,9.230,,-9.619,4.903,,,,
2025-10-18T08:41:26.677888+00:00,11.299,8.311,,-7.623,4.381,,,,
2025-10-18T08:41:27.287228+00:00,11.297,8.002,,-4.263,3.457,,,,
2025-10-18T08:41:27.893753+00:00,11.295,8.409,,-0.158,2.220,,,,
2025-10-18T08:41:28.500660+00:00,11.292,9.384,,3.977,0.780,,,,
2025-10-18T08:41:29.108164+00:00,11.288,10.580,,7.408,-0.733,,,,
2025-10-18T08:41:29.711573+00:00,11.284,11.564,,9.511,-2.170,,,,
2025-10-18T08:41:30.318522+00:00,11.279,11.996,,9.939,-3.417,,,,
2025-10-18T08:41:31.433936+00:00,11.268,10.996,,6.282,-4.831,,,,
2025-10-18T08:41:32.040288+00:00,11.261,9.831,,2.521,-4.996,,,,
2025-10-18T08:41:32.648435+00:00,11.253,8.722,,-1.701,-4.703,,,,
2025-10-18T08:41:33.253702+00:00,11.245,8.074,,-5.602,-3.983,,,,
2025-10-18T08:41:33.867640+00:00,11.237,8.115,,-8.544,-2.884,,,,
2025-10-18T08:41:34.476070+00:00,11.227,8.836,,-9.927,-1.528,,,,
2025-10-18T08:41:35.082804+00:00,11.218,9.971,,-9.541,-0.036,,,,
2025-10-18T08:41:35.692417+00:00,11.208,11.122,,-7.446,1.466,,,,
2025-10-18T08:41:36.303587+00:00,11.197,11.869,,-4.005,2.837,,,,
2025-10-18T08:41:36.914370+00:00,11.186,11.940,,0.155,3.943,,,,
2025-10-18T08:41:37.517448+00:00,11.175,11.321,,4.238,4.678,,,,
2025-10-18T08:41:38.120587+00:00,11.164,10.236,,7.577,4.991,,,,
2025-10-18T08:41:39.230709+00:00,11.143,8.326,,9.978,4.397,,,,
2025-10-18T08:41:39.841810+00:00,11.131,8.001,,8.805,3.478,,,,
2025-10-18T08:41:40.449943+00:00,11.119,8.396,,6.062,2.243,,,,
2025-10-18T08:41:41.053461+00:00,11.107,9.358,,2.268,0.813,,,,
2025-10-18T08:41:41.663078+00:00,11.094,10.558,,-1.967,-0.705,,,,
2025-10-18T08:41:42.283897+00:00,11.082,11.571,,-5.912,-2.183,,,,
2025-10-18T08:41:42.891814+00:00,11.070,11.996,,-8.714,-3.429,,,,
2025-10-18T08:41:43.499695+00:00,11.058,11.706,,-9.962,-4.361,,,,
2025-10-18T08:41:44.110587+00:00,11.046,10.800,,-9.426,-4.895,,,,
2025-10-18T08:41:44.719619+00:00,11.034,9.607,,-7.202,-4.976,,,,
2025-10-18T08:41:45.325046+00:00,11.023,8.561,,-3.712,-4.602,,,,
2025-10-18T08:41:45.927811+00:00,11.012,8.027,,0.417,-3.815,,,,
2025-10-18T08:41:46.536097+00:00,11.001,8.193,,4.506,-2.672,,,,
2025-10-18T08:41:47.645499+00:00,10.983,9.964,,9.471,-0.045,,,,
2025-10-18T08:41:48.253852+00:00,10.973,11.113,,9.951,1.455,,,,
2025-10-18T08:41:48.867715+00:00,10.964,11.867,,8.634,2.832,,,,
2025-10-18T08:41:49.475215+00:00,10.955,11.942,,5.784,3.935,,,,
2025-10-18T08:41:50.079112+00:00,10.947,11.328,,1.928,4.674,,,,
2025-10-18T08:41:50.693407+00:00,10.940,10.223,,-2.338,4.992,,,,
2025-10-18T08:41:51.305982+00:00,10.933,9.040,,-6.169,4.844,,,,
2025-10-18T08:41:51.917100+00:00,10.926,8.207,,-8.878,4.247,,,,
2025-10-18T08:41:52.523552+00:00,10.920,8.022,,-9.986,3.265,,,,
2025-10-18T08:41:53.126978+00:00,10.915,8.538,,-9.328,1.992,,,,
2025-10-18T08:41:53.737417+00:00,10.911,9.585,,-6.996,0.522,,,,
2025-10-18T08:41:54.342993+00:00,10.907,10.772,,-3.437,-0.984,,,,
2025-10-18T08:41:54.948287+00:00,10.905,11.685,,0.728,-2.401,,,,
2025-10-18T08:41:56.059598+00:00,10.901,11.713,,7.518,-4.353,,,,
2025-10-18T08:41:56.667500+00:00,10.900,10.817,,9.569,-4.890,,,,
2025-10-18T08:41:57.282527+00:00,10.900,9.614,,9.908,-4.976,,,,
2025-10-18T08:41:57.887923+00:00,10.901,8.566,,8.474,-4.606,,,,
2025-10-18T08:41:58.497434+00:00,10.902,8.026,,5.517,-3.809,,,,
2025-10-18T08:41:59.108289+00:00,10.904,8.198,,1.561,-2.659,,,,
2025-10-18T08:41:59.717413+00:00,10.907,9.019,,-2.664,-1.267,,,,
2025-10-18T08:42:00.325567+00:00,10.910,10.191,,-6.406,0.239,,,,
2025-10-18T08:42:00.932355+00:00,10.915,11.292,,-9.001,1.720,,,,
2025-10-18T08:42:01.542120+00:00,10.920,11.934,,-9.997,3.050,,,,
2025-10-18T08:42:02.148161+00:00,10.925,11.880,,-9.209,4.094,,,,
2025-10-18T08:42:02.751141+00:00,10.931,11.163,,-6.804,4.761,,,,
2025-10-18T08:42:03.859669+00:00,10.944,9.062,,0.276,4.852,,,,
2025-10-18T08:42:04.473613+00:00,10.952,8.216,,4.416,4.260,,,,
2025-10-18T08:42:05.084743+00:00,10.961,8.020,,7.740,3.275,,,,
2025-10-18T08:42:05.687898+00:00,10.970,8.531,,9.655,2.005,,,,
2025-10-18T08:42:06.293150+00:00,10.979,9.564,,9.872,0.549,,,,
2025-10-18T08:42:06.907752+00:00,10.989,10.769,,8.307,-0.980,,,,
2025-10-18T08:42:07.517171+00:00,10.999,11.687,,5.259,-2.406,,,,
2025-10-18T08:42:08.125002+00:00,11.010,11.998,,1.279,-3.608,,,,
2025-10-18T08:42:08.728522+00:00,11.021,11.599,,-2.900,-4.473,,,,
2025-10-18T08:42:09.339743+00:00,11.032,10.619,,-6.609,-4.938,,,,
2025-10-18T08:42:09.947783+00:00,11.044,9.422,,-9.118,-4.946,,,,
2025-10-18T08:42:10.550507+00:00,11.055,8.438,,-10.000,-4.507,,,,
2025-10-18T08:42:11.153557+00:00,11.067,8.005,,-9.127,-3.660,,,,
2025-10-18T08:42:12.267304+00:00,11.089,8.991,,-3.618,-1.307,,,,
2025-10-18T08:42:12.879770+00:00,11.102,10.167,,0.585,0.209,,,,
2025-10-18T08:42:13.487692+00:00,11.114,11.275,,4.654,1.694,,,,
2025-10-18T08:42:14.097215+00:00,11.126,11.928,,7.899,3.028,,,,
2025-10-18T08:42:14.700904+00:00,11.138,11.890,,9.719,4.074,,,,
2025-10-18T08:42:15.313912+00:00,11.150,11.168,,9.817,4.759,,,,
2025-10-18T08:42:15.920503+00:00,11.161,10.035,,8.161,5.000,,,,
2025-10-18T08:42:16.532772+00:00,11.173,8.879,,5.021,4.780,,,,
2025-10-18T08:42:17.142072+00:00,11.184,8.133,,0.993,4.121,,,,
2025-10-18T08:42:17.747315+00:00,11.195,8.057,,-3.185,3.089,,,,
2025-10-18T08:42:18.354929+00:00,11.206,8.675,,-6.813,1.772,,,,
2025-10-18T08:42:18.961540+00:00,11.216,9.765,,-9.224,0.294,,,,
2025-10-18T08:42:19.567005+00:00,11.225,10.937,,-9.996,-1.207,,,,
2025-10-18T08:42:20.676955+00:00,11.242,11.999,,-6.937,-3.583,,,,
2025-10-18T08:42:21.279887+00:00,11.250,11.616,,-3.378,-4.457,,,,
2025-10-18T08:42:21.888301+00:00,11.258,10.653,,0.812,-4.931,,,,
2025-10-18T08:42:22.494255+00:00,11.265,9.460,,4.842,-4.953,,,,
2025-10-18T08:42:23.101474+00:00,11.272,8.458,,8.019,-4.523,,,,
2025-10-18T08:42:23.704593+00:00,11.277,8.008,,9.763,-3.686,,,,
2025-10-18T08:42:24.316386+00:00,11.283,8.269,,9.780,-2.498,,,,
2025-10-18T08:42:24.927001+00:00,11.287,9.156,,8.035,-1.080,,,,
2025-10-18T08:42:25.533865+00:00,11.291,10.341,,4.868,0.428,,,,
2025-10-18T08:42:26.139506+00:00,11.294,11.402,,0.844,1.894,,,,
2025-10-18T08:42:26.749546+00:00,11.297,11.966,,-3.359,3.196,,,,
2025-10-18T08:42:27.355037+00:00,11.299,11.825,,-6.935,4.197,,,,
2025-10-18T08:42:28.462065+00:00,11.300,10.084,,-9.996,4.999,,,,
2025-10-18T08:42:29.070923+00:00,11.300,8.926,,-9.223,4.801,,,,
2025-10-18T08:42:29.676594+00:00,11.299,8.157,,-6.817,4.165,,,,
2025-10-18T08:42:30.281015+00:00,11.297,8.042,,-3.212,3.153,,,,
2025-10-18T08:42:30.887935+00:00,11.294,8.625,,0.977,1.850,,,,
2025-10-18T08:42:31.503894+00:00,11.291,9.717,,5.047,0.354,,,,
2025-10-18T08:42:32.110366+00:00,11.287,10.896,,8.155,-1.151,,,,
2025-10-18T08:42:32.720794+00:00,11.282,11.759,,9.820,-2.560,,,,
2025-10-18T08:42:33.323970+00:00,11.277,11.988,,9.731,-3.720,,,,
2025-10-18T08:42:33.935804+00:00,11.271,11.505,,7.897,-4.554,,,,
2025-10-18T08:42:34.542402+00:00,11.265,10.485,,4.668,-4.963,,,,
2025-10-18T08:42:35.147455+00:00,11.257,9.295,,0.621,-4.919,,,,
2025-10-18T08:42:35.750519+00:00,11.250,8.358,,-3.523,-4.431,,,,
2025-10-18T08:42:36.860937+00:00,11.234,8.248,,-9.075,-2.545,,,,
2025-10-18T08:42:37.466901+00:00,11.225,9.108,,-10.000,-1.145,,,,
2025-10-18T08:42:38.074900+00:00,11.215,10.291,,-9.146,0.365,,,,
2025-10-18T08:42:38.678844+00:00,11.205,11.363,,-6.681,1.831,,,,
2025-10-18T08:42:39.284422+00:00,11.195,11.954,,-3.030,3.135,,,,
2025-10-18T08:42:39.892240+00:00,11.184,11.848,,1.174,4.157,,,,
2025-10-18T08:42:40.501401+00:00,11.173,11.078,,5.176,4.799,,,,
2025-10-18T08:42:41.109761+00:00,11.161,9.922,,8.248,4.999,,,,
2025-10-18T08:42:41.721184+00:00,11.149,8.789,,9.851,4.738,,,,
2025-10-18T08:42:42.324486+00:00,11.138,8.100,,9.691,4.049,,,,
2025-10-18T08:42:42.932888+00:00,11.126,8.084,,7.805,2.984,,,,
2025-10-18T08:42:43.535949+00:00,11.114,8.748,,4.559,1.658,,,,
2025-10-18T08:42:44.144351+00:00,11.101,9.865,,0.474,0.169,,,,
2025-10-18T08:42:45.253588+00:00,11.079,11.726,,-6.661,-2.488,,,,
2025-10-18T08:42:45.856354+00:00,11.067,11.995,,-9.132,-3.663,,,,
2025-10-18T08:42:46.461937+00:00,11.055,11.556,,-10.000,-4.511,,,,
2025-10-18T08:42:47.071734+00:00,11.044,10.557,,-9.086,-4.950,,,,
2025-10-18T08:42:47.690295+00:00,11.032,9.340,,-6.495,-4.929,,,,
2025-10-18T08:42:48.293736+00:00,11.021,8.385,,-2.807,-4.458,,,,
2025-10-18T08:42:48.901584+00:00,11.010,8.001,,1.406,-3.576,,,,
2025-10-18T08:42:49.513488+00:00,10.999,8.337,,5.391,-2.357,,,,
2025-10-18T08:42:50.123087+00:00,10.989,9.273,,8.393,-0.925,,,,
2025-10-18T08:42:50.729060+00:00,10.979,10.463,,9.887,0.583,,,,
2025-10-18T08:42:51.332100+00:00,10.969,11.485,,9.633,2.031,,,,
2025-10-18T08:42:51.938663+00:00,10.960,11.984,,7.673,3.303,,,,
2025-10-18T08:42:53.048257+00:00,10.945,11.110,,0.977,4.785,,,,
2025-10-18T08:42:53.654352+00:00,10.938,9.965,,-3.206,5.000,,,,
2025-10-18T08:42:54.262877+00:00,10.931,8.828,,-6.833,4.757,,,,
2025-10-18T08:42:54.865204+00:00,10.925,8.116,,-9.223,4.086,,,,
2025-10-18T08:42:55.470930+00:00,10.919,8.069,,-9.996,3.041,,,,
2025-10-18T08:42:56.078291+00:00,10.915,8.711,,-8.994,1.715,,,,
2025-10-18T08:42:56.688648+00:00,10.910,9.821,,-6.375,0.225,,,,
2025-10-18T08:42:57.296552+00:00,10.907,10.990,,-2.626,-1.281,,,,
2025-10-18T08:42:57.902122+00:00,10.904,11.803,,1.576,-2.664,,,,
2025-10-18T08:42:58.510514+00:00,10.902,11.974,,5.514,-3.809,,,,
2025-10-18T08:42:59.120757+00:00,10.901,11.434,,8.475,-4.606,,,,
2025-10-18T08:42:59.723595+00:00,10.900,10.390,,9.906,-4.976,,,,
2025-10-18T08:43:00.328962+00:00,10.900,9.205,,9.593,-4.896,,,,
2025-10-18T08:43:01.435696+00:00,10.902,8.003,,4.881,-3.632,,,,
2025-10-18T08:43:02.045877+00:00,10.905,8.300,,0.827,-2.432,,,,
2025-10-18T08:43:02.653787+00:00,10.907,9.207,,-3.361,-1.013,,,,
2025-10-18T08:43:03.258860+00:00,10.911,10.392,,-6.935,0.492,,,,
2025-10-18T08:43:03.862452+00:00,10.915,11.436,,-9.279,1.949,,,,
2025-10-18T08:43:04.479951+00:00,10.920,11.977,,-9.987,3.256,,,,
2025-10-18T08:43:05.088965+00:00,10.926,11.795,,-8.886,4.244,,,,
2025-10-18T08:43:05.697176+00:00,10.932,10.970,,-6.198,4.841,,,,
2025-10-18T08:43:06.303961+00:00,10.939,9.799,,-2.413,4.994,,,,
2025-10-18T08:43:06.913504+00:00,10.947,8.696,,1.820,4.688,,,,
2025-10-18T08:43:07.520974+00:00,10.955,8.064,,5.714,3.953,,,,
2025-10-18T08:43:08.124592+00:00,10.964,8.122,,8.577,2.865,,,,
2025-10-18T08:43:08.729839+00:00,10.973,8.846,,9.932,1.513,,,,
2025-10-18T08:43:09.845605+00:00,10.991,10.960,,7.871,-1.239,,,,
2025-10-18T08:43:10.452096+00:00,11.001,11.789,,4.632,-2.629,,,,
2025-10-18T08:43:11.060351+00:00,11.012,11.979,,0.558,-3.782,,,,
2025-10-18T08:43:11.665715+00:00,11.023,11.463,,-3.597,-4.585,,,,
2025-10-18T08:43:12.279837+00:00,11.034,10.410,,-7.158,-4.973,,,,
2025-10-18T08:43:12.888048+00:00,11.046,9.218,,-9.403,-4.900,,,,
2025-10-18T08:43:13.494251+00:00,11.058,8.309,,-9.970,-4.379,,,,
2025-10-18T08:43:14.102654+00:00,11.070,8.002,,-8.761,-3.454,,,,
2025-10-18T08:43:14.708853+00:00,11.082,8.410,,-6.000,-2.218,,,,
2025-10-18T08:43:15.318803+00:00,11.094,9.391,,-2.148,-0.770,,,,
2025-10-18T08:43:15.924548+00:00,11.106,10.584,,2.061,0.738,,,,
2025-10-18T08:43:16.529765+00:00,11.118,11.569,,5.901,2.179,,,,
2025-10-18T08:43:17.634095+00:00,11.140,11.814,,9.862,4.215,,,,
2025-10-18T08:43:18.241755+00:00,11.152,11.007,,9.667,4.827,,,,
2025-10-18T08:43:18.849898+00:00,11.163,9.840,,7.747,4.996,,,,
2025-10-18T08:43:19.452185+00:00,11.175,8.738,,4.482,4.712,,,,
2025-10-18T08:43:20.058193+00:00,11.186,8.079,,0.405,3.998,,,,
2025-10-18T08:43:20.672335+00:00,11.197,8.109,,-3.796,2.903,,,,
2025-10-18T08:43:21.278684+00:00,11.207,8.818,,-7.269,1.555,,,,
2025-10-18T08:43:21.881957+00:00,11.217,9.941,,-9.445,0.073,,,,
2025-10-18T08:43:22.488051+00:00,11.227,11.091,,-9.960,-1.422,,,,
2025-10-18T08:43:23.099530+00:00,11.236,11.855,,-8.690,-2.799,,,,
2025-10-18T08:43:23.711611+00:00,11.245,11.948,,-5.849,-3.917,,,,
2025-10-18T08:43:24.316318+00:00,11.253,11.343,,-2.000,-4.665,,,,
2025-10-18T08:43:24.919758+00:00,11.260,10.265,,2.192,-4.989,,,,
2025-10-18T08:43:26.027273+00:00,11.272,8.345,,8.394,-4.418,,,,
2025-10-18T08:43:26.634371+00:00,11.278,8.000,,9.888,-3.516,,,,
2025-10-18T08:43:27.240341+00:00,11.283,8.368,,9.625,-2.296,,,,
2025-10-18T08:43:27.851911+00:00,11.288,9.328,,7.631,-0.852,,,,
2025-10-18T08:43:28.455775+00:00,11.292,10.517,,4.308,0.651,,,,
2025-10-18T08:43:29.072976+00:00,11.295,11.540,,0.133,2.126,,,,
2025-10-18T08:43:29.676394+00:00,11.297,11.992,,-3.977,3.375,,,,
2025-10-18T08:43:30.286909+00:00,11.299,11.734,,-7.422,4.328,,,,
2025-10-18T08:43:30.893541+00:00,11.300,10.856,,-9.524,4.878,,,,
2025-10-18T08:43:31.500707+00:00,11.300,9.672,,-9.934,4.983,,,,
2025-10-18T08:43:32.110260+00:00,11.299,8.602,,-8.567,4.630,,,,
2025-10-18T08:43:32.718596+00:00,11.298,8.035,,-5.671,3.852,,,,
2025-10-18T08:43:33.321472+00:00,11.296,8.169,,-1.800,2.732,,,,
2025-10-18T08:43:34.428282+00:00,11.291,9.901,,5.595,0.123,,,,
2025-10-18T08:43:35.034909+00:00,11.286,11.058,,8.513,-1.375,,,,
2025-10-18T08:43:35.647278+00:00,11.282,11.841,,9.924,-2.760,,,,
2025-10-18T08:43:36.259548+00:00,11.276,11.956,,9.539,-3.888,,,,
2025-10-18T08:43:36.872018+00:00,11.270,11.359,,7.428,-4.655,,,,
2025-10-18T08:43:37.475603+00:00,11.263,10.286,,4.029,-4.987,,,,
2025-10-18T08:43:38.083392+00:00,11.256,9.105,,-0.107,-4.866,,,,
2025-10-18T08:43:38.693905+00:00,11.248,8.241,,-4.242,-4.295,,,,
2025-10-18T08:43:39.300908+00:00,11.240,8.012,,-7.598,-3.334,,,,
2025-10-18T08:43:39.910791+00:00,11.231,8.497,,-9.608,-2.062,,,,
2025-10-18T08:43:40.519431+00:00,11.221,9.522,,-9.895,-0.602,,,,
2025-10-18T08:43:41.127120+00:00,11.212,10.716,,-8.416,0.911,,,,
2025-10-18T08:43:42.231963+00:00,11.193,11.990,,-2.249,3.355,,,,
2025-10-18T08:43:42.842313+00:00,11.182,11.745,,1.991,4.314,,,,
2025-10-18T08:43:43.450563+00:00,11.170,10.873,,5.861,4.873,,,,
2025-10-18T08:43:44.056535+00:00,11.159,9.693,,8.676,4.985,,,,
2025-10-18T08:43:44.664710+00:00,11.147,8.619,,9.955,4.641,,,,
2025-10-18T08:43:45.283207+00:00,11.135,8.036,,9.433,3.855,,,,
2025-10-18T08:43:45.886679+00:00,11.123,8.169,,7.244,2.734,,,,
2025-10-18T08:43:46.492737+00:00,11.111,8.952,,3.764,1.361,,,,
2025-10-18T08:43:47.098967+00:00,11.099,10.110,,-0.385,-0.137,,,,
2025-10-18T08:43:47.709450+00:00,11.087,11.235,,-4.492,-1.633,,,,
2025-10-18T08:43:48.319295+00:00,11.075,11.913,,-7.788,-2.977,,,,
2025-10-18T08:43:48.926261+00:00,11.063,11.904,,-9.681,-4.041,,,,
2025-10-18T08:43:49.529379+00:00,11.051,11.220,,-9.858,-4.733,,,,
2025-10-18T08:43:50.638065+00:00,11.030,9.126,,-5.857,-4.873,,,,
2025-10-18T08:43:51.243668+00:00,11.018,8.257,,-2.004,-4.316,,,,
2025-10-18T08:43:51.853252+00:00,11.007,8.009,,2.230,-3.360,,,,
2025-10-18T08:43:52.459079+00:00,10.997,8.474,,6.044,-2.103,,,,
2025-10-18T08:43:53.065089+00:00,10.987,9.482,,8.787,-0.653,,,,
2025-10-18T08:43:53.674614+00:00,10.977,10.681,,9.975,0.864,,,,
2025-10-18T08:43:54.280777+00:00,10.968,11.631,,9.382,2.295,,,,
2025-10-18T08:43:54.887087+00:00,10.959,12.000,,7.125,3.516,,,,
2025-10-18T08:43:55.497253+00:00,10.950,11.651,,3.578,4.422,,,,
2025-10-18T08:43:56.102557+00:00,10.943,10.716,,-0.578,4.916,,,,
2025-10-18T08:43:56.714612+00:00,10.935,9.513,,-4.673,4.962,,,,
2025-10-18T08:43:57.319503+00:00,10.929,8.496,,-7.893,4.554,,,,
2025-10-18T08:43:57.928729+00:00,10.923,8.012,,-9.726,3.726,,,,
2025-10-18T08:43:59.034764+00:00,10.914,8.911,,-8.579,1.419,,,,
2025-10-18T08:43:59.640057+00:00,10.910,10.059,,-5.708,-0.074,,,,
2025-10-18T08:44:00.245808+00:00,10.906,11.187,,-1.825,-1.562,,,,
2025-10-18T08:44:00.857911+00:00,10.904,11.896,,2.425,-2.921,,,,
2025-10-18T08:44:01.471052+00:00,10.902,11.917,,6.242,-4.009,,,,
2025-10-18T08:44:02.077382+00:00,10.900,11.249,,8.906,-4.718,,,,
2025-10-18T08:44:02.680772+00:00,10.900,10.142,,9.988,-4.997,,,,
2025-10-18T08:44:03.291030+00:00,10.900,8.973,,9.296,-4.819,,,,
2025-10-18T08:44:03.901800+00:00,10.901,8.175,,6.932,-4.196,,,,
2025-10-18T08:44:04.505356+00:00,10.903,8.033,,3.367,-3.198,,,,
2025-10-18T08:44:05.112875+00:00,10.906,8.592,,-0.818,-1.902,,,,
2025-10-18T08:44:05.721040+00:00,10.909,9.657,,-4.861,-0.431,,,,
2025-10-18T08:44:06.827982+00:00,10.916,11.609,,-9.587,2.252,,,,
2025-10-18T08:44:07.435550+00:00,10.922,11.999,,-9.906,3.484,,,,
2025-10-18T08:44:08.048149+00:00,10.927,11.669,,-8.442,4.403,,,,
2025-10-18T08:44:08.651474+00:00,10.934,10.749,,-5.503,4.908,,,,
2025-10-18T08:44:09.262568+00:00,10.941,9.549,,-1.543,4.968,,,,
2025-10-18T08:44:09.875137+00:00,10.949,8.511,,2.704,4.565,,,,
2025-10-18T08:44:10.482712+00:00,10.957,8.015,,6.436,3.747,,,,
2025-10-18T08:44:11.086288+00:00,10.966,8.226,,9.008,2.593,,,,
2025-10-18T08:44:11.694621+00:00,10.975,9.073,,9.997,1.194,,,,
2025-10-18T08:44:12.301711+00:00,10.984,10.249,,9.204,-0.312,,,,
2025-10-18T08:44:12.913831+00:00,10.995,11.344,,6.748,-1.801,,,,
2025-10-18T08:44:13.518427+00:00,11.005,11.948,,3.121,-3.108,,,,
2025-10-18T08:44:14.123763+00:00,11.016,11.860,,-1.061,-4.134,,,,
2025-10-18T08:44:15.228690+00:00,11.036,10.179,,-7.706,-4.995,,,,
2025-10-18T08:44:15.839301+00:00,11.048,9.005,,-9.654,-4.831,,,,
2025-10-18T08:44:16.450737+00:00,11.060,8.189,,-9.865,-4.220,,,,
2025-10-18T08:44:17.058612+00:00,11.072,8.029,,-8.310,-3.224,,,,
2025-10-18T08:44:17.662535+00:00,11.084,8.569,,-5.296,-1.941,,,,
2025-10-18T08:44:18.281607+00:00,11.096,9.645,,-1.245,-0.445,,,,
2025-10-18T08:44:18.887604+00:00,11.109,10.830,,2.949,1.061,,,,
2025-10-18T08:44:19.493969+00:00,11.121,11.719,,6.623,2.471,,,,
2025-10-18T08:44:20.100652+00:00,11.133,11.995,,9.122,3.657,,,,
2025-10-18T08:44:20.711745+00:00,11.145,11.554,,10.000,4.513,,,,
2025-10-18T08:44:21.315252+00:00,11.156,10.565,,9.098,4.949,,,,
2025-10-18T08:44:21.924941+00:00,11.168,9.364,,6.564,4.935,,,,
2025-10-18T08:44:22.529675+00:00,11.179,8.399,,2.886,4.471,,,,
2025-10-18T08:44:23.634426+00:00,11.199,8.210,,-4.623,2.632,,,,
2025-10-18T08:44:24.247197+00:00,11.209,9.048,,-7.892,1.227,,,,
2025-10-18T08:44:24.858377+00:00,11.219,10.230,,-9.729,-0.288,,,,
2025-10-18T08:44:25.461701+00:00,11.229,11.317,,-9.822,-1.758,,,,
2025-10-18T08:44:26.076485+00:00,11.238,11.944,,-8.143,-3.092,,,,
2025-10-18T08:44:26.690327+00:00,11.247,11.860,,-4.985,-4.135,,,,
2025-10-18T08:44:27.301729+00:00,11.255,11.101,,-0.938,-4.789,,,,
2025-10-18T08:44:27.905164+00:00,11.262,9.959,,3.226,-5.000,,,,
2025-10-18T08:44:28.513427+00:00,11.269,8.824,,6.848,-4.755,,,,
2025-10-18T08:44:29.124262+00:00,11.275,8.109,,9.253,-4.070,,,,
2025-10-18T08:44:29.734327+00:00,11.281,8.077,,9.993,-3.010,,,,
2025-10-18T08:44:30.339080+00:00,11.286,8.731,,8.954,-1.684,,,,
2025-10-18T08:44:31.443892+00:00,11.293,10.811,,3.297,1.036,,,,
2025-10-18T08:44:32.054781+00:00,11.296,11.713,,-0.915,2.459,,,,
2025-10-18T08:44:32.666102+00:00,11.298,11.995,,-4.965,3.655,,,,
2025-10-18T08:44:33.269317+00:00,11.299,11.565,,-8.086,4.504,,,,
2025-10-18T08:44:33.877362+00:00,11.300,10.573,,-9.794,4.947,,,,
2025-10-18T08:44:34.494620+00:00,11.300,9.358,,-9.740,4.933,,,,
2025-10-18T08:44:35.100823+00:00,11.299,8.393,,-7.942,4.466,,,,
2025-10-18T08:44:35.704128+00:00,11.298,8.001,,-4.754,3.596,,,,
2025-10-18T08:44:36.310179+00:00,11.295,8.318,,-0.711,2.396,,,,
2025-10-18T08:44:36.920832+00:00,11.292,9.242,,3.488,0.965,,,,
2025-10-18T08:44:37.536179+00:00,11.289,10.450,,7.083,-0.566,,,,
2025-10-18T08:44:38.140968+00:00,11.284,11.478,,9.357,-2.019,,,,
2025-10-18T08:44:38.744054+00:00,11.279,11.981,,9.981,-3.287,,,,
2025-10-18T08:44:39.852156+00:00,11.269,11.127,,6.694,-4.777,,,,
2025-10-18T08:44:40.461720+00:00,11.262,9.979,,3.019,-5.000,,,,
2025-10-18T08:44:41.070478+00:00,11.254,8.839,,-1.191,-4.762,,,,
2025-10-18T08:44:41.682574+00:00,11.246,8.114,,-5.209,-4.082,,,,
2025-10-18T08:44:42.286440+00:00,11.238,8.070,,-8.252,-3.038,,,,
2025-10-18T08:44:42.901539+00:00,11.228,8.725,,-9.856,-1.694,,,,
2025-10-18T08:44:43.505006+00:00,11.219,9.825,,-9.682,-0.219,,,,
2025-10-18T08:44:44.115531+00:00,11.209,10.999,,-7.775,1.292,,,,
2025-10-18T08:44:44.723592+00:00,11.199,11.810,,-4.484,2.679,,,,
2025-10-18T08:44:45.328905+00:00,11.188,11.973,,-0.413,3.816,,,,
2025-10-18T08:44:45.938239+00:00,11.177,11.429,,3.758,4.609,,,,
2025-10-18T08:44:46.546518+00:00,11.165,10.373,,7.250,4.978,,,,
2025-10-18T08:44:47.149710+00:00,11.154,9.193,,9.436,4.893,,,,
2025-10-18T08:44:48.256386+00:00,11.132,8.002,,9.060,3.620,,,,
2025-10-18T08:44:48.863188+00:00,11.120,8.304,,6.510,2.425,,,,
2025-10-18T08:44:49.475792+00:00,11.108,9.221,,2.764,0.993,,,,
2025-10-18T08:44:50.086487+00:00,11.096,10.418,,-1.469,-0.526,,,,
2025-10-18T08:44:50.699238+00:00,11.084,11.467,,-5.450,-2.001,,,,
2025-10-18T08:44:51.302789+00:00,11.072,11.979,,-8.409,-3.272,,,,
2025-10-18T08:44:51.910182+00:00,11.060,11.789,,-9.893,-4.253,,,,
2025-10-18T08:44:52.519072+00:00,11.048,10.956,,-9.612,-4.846,,,,
2025-10-18T08:44:53.126935+00:00,11.036,9.781,,-7.616,-4.993,,,,
2025-10-18T08:44:53.735745+00:00,11.025,8.684,,-4.256,-4.681,,,,
2025-10-18T08:44:54.343408+00:00,11.014,8.060,,-0.143,-3.941,,,,
2025-10-18T08:44:54.950569+00:00,11.003,8.130,,3.993,-2.841,,,,
2025-10-18T08:44:56.055160+00:00,10.984,9.793,,9.261,-0.260,,,,
2025-10-18T08:44:56.662677+00:00,10.974,10.965,,9.993,1.246,,,,
2025-10-18T08:44:57.268650+00:00,10.965,11.791,,8.949,2.634,,,,
2025-10-18T08:44:57.872907+00:00,10.957,11.980,,6.329,3.779,,,,
2025-10-18T08:44:58.478817+00:00,10.948,11.465,,2.581,4.584,,,,
2025-10-18T08:44:59.093589+00:00,10.941,10.411,,-1.684,4.973,,,,
2025-10-18T08:44:59.696965+00:00,10.934,9.228,,-5.577,4.902,,,,
2025-10-18T08:45:00.302657+00:00,10.927,8.315,,-8.498,4.385,,,,
2025-10-18T08:45:00.909186+00:00,10.921,8.001,,-9.915,3.468,,,,
2025-10-18T08:45:01.520812+00:00,10.916,8.407,,-9.561,2.223,,,,
2025-10-18T08:45:02.129393+00:00,10.912,9.385,,-7.495,0.779,,,,
2025-10-18T08:45:02.737504+00:00,10.908,10.582,,-4.092,-0.736,,,,
2025-10-18T08:45:03.340455+00:00,10.905,11.564,,0.005,-2.171,,,,
2025-10-18T08:45:04.447857+00:00,10.901,11.814,,7.002,-4.215,,,,
2025-10-18T08:45:05.052555+00:00,10.900,11.013,,9.316,-4.825,,,,
2025-10-18T08:45:05.661013+00:00,10.900,9.846,,9.985,-4.996,,,,
2025-10-18T08:45:06.268406+00:00,10.900,8.735,,8.874,-4.710,,,,
2025-10-18T08:45:06.876613+00:00,10.902,8.077,,6.177,-3.991,,,,
2025-10-18T08:45:07.488875+00:00,10.904,8.111,,2.350,-2.898,,,,
2025-10-18T08:45:08.094971+00:00,10.906,8.821,,-1.859,-1.550,,,,
2025-10-18T08:45:08.701504+00:00,10.910,9.952,,-5.742,-0.060,,,,
2025-10-18T08:45:09.311280+00:00,10.914,11.106,,-8.616,1.444,,,,
2025-10-18T08:45:09.914663+00:00,10.918,11.856,,-9.940,2.801,,,,
2025-10-18T08:45:10.526329+00:00,10.924,11.947,,-9.498,3.918,,,,
2025-10-18T08:45:11.131408+00:00,10.930,11.342,,-7.373,4.666,,,,
2025-10-18T08:45:11.737609+00:00,10.937,10.258,,-3.938,4.990,,,,
2025-10-18T08:45:12.843570+00:00,10.950,8.343,,3.611,4.416,,,,
2025-10-18T08:45:13.448589+00:00,10.959,8.000,,7.124,3.516,,,,
2025-10-18T08:45:14.054315+00:00,10.968,8.368,,9.381,2.296,,,,
2025-10-18T08:45:14.663018+00:00,10.977,9.323,,9.974,0.860,,,,
2025-10-18T08:45:15.274376+00:00,10.987,10.525,,8.775,-0.663,,,,
2025-10-18T08:45:15.877477+00:00,10.997,11.527,,6.039,-2.105,,,,
2025-10-18T08:45:16.480883+00:00,11.007,11.990,,2.241,-3.357,,,,
2025-10-18T08:45:17.090848+00:00,11.018,11.744,,-1.996,-4.315,,,,
2025-10-18T08:45:17.700899+00:00,11.030,10.869,,-5.875,-4.874,,,,
2025-10-18T08:45:18.309454+00:00,11.041,9.683,,-8.694,-4.984,,,,
2025-10-18T08:45:18.912833+00:00,11.053,8.618,,-9.955,-4.641,,,,
2025-10-18T08:45:19.520615+00:00,11.065,8.040,,-9.457,-3.871,,,,
2025-10-18T08:45:20.627118+00:00,11.087,8.766,,-4.486,-1.631,,,,
2025-10-18T08:45:21.231649+00:00,11.099,9.880,,-0.421,-0.150,,,,
2025-10-18T08:45:21.840673+00:00,11.111,11.044,,3.749,1.355,,,,
2025-10-18T08:45:22.443044+00:00,11.123,11.827,,7.214,2.722,,,,
2025-10-18T08:45:23.054463+00:00,11.135,11.963,,9.438,3.858,,,,
2025-10-18T08:45:23.666929+00:00,11.147,11.387,,9.958,4.637,,,,
2025-10-18T08:45:24.274660+00:00,11.159,10.316,,8.692,4.984,,,,
2025-10-18T08:45:24.877947+00:00,11.170,9.140,,5.902,4.877,,,,
2025-10-18T08:45:25.485127+00:00,11.181,8.263,,2.048,4.324,,,,
2025-10-18T08:45:26.094453+00:00,11.192,8.008,,-2.185,3.372,,,,
2025-10-18T08:45:26.703562+00:00,11.203,8.470,,-6.025,2.110,,,,
2025-10-18T08:45:27.311653+00:00,11.213,9.479,,-8.783,0.656,,,,
2025-10-18T08:45:27.914644+00:00,11.223,10.666,,-9.971,-0.845,,,,
2025-10-18T08:45:29.021349+00:00,11.240,11.985,,-7.659,-3.309,,,,
2025-10-18T08:45:29.627809+00:00,11.248,11.772,,-4.331,-4.277,,,,
2025-10-18T08:45:30.240528+00:00,11.256,10.916,,-0.191,-4.859,,,,
2025-10-18T08:45:30.851247+00:00,11.263,9.731,,3.972,-4.989,,,,
2025-10-18T08:45:31.455273+00:00,11.270,8.653,,7.388,-4.663,,,,
2025-10-18T08:45:32.067750+00:00,11.276,8.048,,9.521,-3.902,,,,
2025-10-18T08:45:32.675592+00:00,11.282,8.149,,9.934,-2.787,,,,
2025-10-18T08:45:33.284906+00:00,11.286,8.915,,8.571,-1.414,,,,
2025-10-18T08:45:33.891725+00:00,11.290,10.067,,5.686,0.084,,,,
2025-10-18T08:45:34.494837+00:00,11.294,11.189,,1.816,1.565,,,,
2025-10-18T08:45:35.107977+00:00,11.296,11.898,,-2.441,2.925,,,,
2025-10-18T08:45:35.714746+00:00,11.298,11.919,,-6.220,4.003,,,,
2025-10-18T08:45:36.317652+00:00,11.300,11.261,,-8.882,4.712,,,,
2025-10-18T08:45:37.422641+00:00,11.300,9.179,,-9.565,4.889,,,,
2025-10-18T08:45:38.033856+00:00,11.299,8.281,,-7.492,4.346,,,,
2025-10-18T08:45:38.644934+00:00,11.297,8.006,,-4.070,3.402,,,,
2025-10-18T08:45:39.253349+00:00,11.295,8.448,,0.067,2.148,,,,
2025-10-18T08:45:39.866085+00:00,11.292,9.456,,4.220,0.686,,,,
2025-10-18T08:45:40.475279+00:00,11.288,10.656,,7.592,-0.831,,,,
2025-10-18T08:45:41.081487+00:00,11.284,11.615,,9.598,-2.265,,,,
2025-10-18T08:45:41.687704+00:00,11.278,11.999,,9.902,-3.492,,,,
2025-10-18T08:45:42.294921+00:00,11.273,11.670,,8.446,-4.402,,,,
2025-10-18T08:45:42.906476+00:00,11.266,10.735,,5.461,-4.912,,,,
2025-10-18T08:45:43.511585+00:00,11.259,9.547,,1.535,-4.967,,,,
2025-10-18T08:45:44.116694+00:00,11.251,8.519,,-2.662,-4.572,,,,
2025-10-18T08:45:45.221333+00:00,11.236,8.134,,-8.638,-2.830,,,,
2025-10-18T08:45:45.832230+00:00,11.227,8.883,,-9.950,-1.459,,,,
2025-10-18T08:45:46.443179+00:00,11.217,10.037,,-9.469,0.047,,,,
2025-10-18T08:45:47.046080+00:00,11.207,11.165,,-7.322,1.529,,,,
2025-10-18T08:45:47.654261+00:00,11.197,11.885,,-3.856,2.884,,,,
2025-10-18T08:45:48.271315+00:00,11.186,11.924,,0.361,3.988,,,,
2025-10-18T08:45:48.877291+00:00,11.175,11.271,,4.442,4.706,,,,
2025-10-18T08:45:49.480715+00:00,11.163,10.171,,7.725,4.995,,,,
2025-10-18T08:45:50.086627+00:00,11.152,9.005,,9.654,4.832,,,,
2025-10-18T08:45:50.697130+00:00,11.140,8.190,,9.867,4.222,,,,
2025-10-18T08:45:51.310293+00:00,11.128,8.030,,8.295,3.216,,,,
2025-10-18T08:45:51.915008+00:00,11.116,8.576,,5.268,1.930,,,,
2025-10-18T08:45:52.517961+00:00,11.104,9.623,,1.324,0.474,,,,
2025-10-18T08:45:53.625630+00:00,11.082,11.589,,-5.992,-2.215,,,,
2025-10-18T08:45:54.232522+00:00,11.070,11.998,,-8.759,-3.453,,,,
2025-10-18T08:45:54.838472+00:00,11.058,11.695,,-9.969,-4.375,,,,
2025-10-18T08:45:55.446664+00:00,11.046,10.784,,-9.406,-4.899,,,,
2025-10-18T08:45:56.049706+00:00,11.034,9.602,,-7.189,-4.975,,,,
2025-10-18T08:45:56.730867+00:00,11.022,8.457,,-3.197,-4.522,,,,
2025-10-18T08:45:57.334374+00:00,11.011,8.007,,0.969,-3.684,,,,
2025-10-18T08:45:57.945211+00:00,11.000,8.269,,5.009,-2.497,,,,
2025-10-18T08:45:58.551944+00:00,10.990,9.150,,8.131,-1.089,,,,
2025-10-18T08:45:59.156944+00:00,10.980,10.331,,9.805,0.415,,,,
2025-10-18T08:45:59.768466+00:00,10.970,11.403,,9.736,1.895,,,,
2025-10-18T08:46:00.376531+00:00,10.961,11.966,,7.926,3.194,,,,
2025-10-18T08:46:00.979437+00:00,10.953,11.828,,4.732,4.192,,,,
2025-10-18T08:46:02.085265+00:00,10.939,10.094,,-2.774,4.999,,,,
2025-10-18T08:46:02.690186+00:00,10.932,8.941,,-6.477,4.807,,,,
2025-10-18T08:46:03.299033+00:00,10.926,8.161,,-9.047,4.173,,,,
2025-10-18T08:46:03.909749+00:00,10.920,8.042,,-9.999,3.152,,,,
2025-10-18T08:46:04.522508+00:00,10.915,8.634,,-9.146,1.835,,,,
2025-10-18T08:46:05.125737+00:00,10.911,9.704,,-6.685,0.370,,,,
2025-10-18T08:46:05.733023+00:00,10.907,10.886,,-3.022,-1.137,,,,
2025-10-18T08:46:06.343594+00:00,10.904,11.754,,1.201,-2.548,,,,
2025-10-18T08:46:06.950882+00:00,10.902,11.989,,5.188,-3.718,,,,
2025-10-18T08:46:07.558852+00:00,10.901,11.512,,8.255,-4.548,,,,
2025-10-18T08:46:08.167138+00:00,10.900,10.492,,9.849,-4.961,,,,
2025-10-18T08:46:08.774524+00:00,10.900,9.298,,9.686,-4.920,,,,
2025-10-18T08:46:09.879434+00:00,10.902,8.011,,5.195,-3.720,,,,
2025-10-18T08:46:10.490127+00:00,10.904,8.248,,1.184,-2.543,,,,
2025-10-18T08:46:11.098586+00:00,10.907,9.114,,-3.024,-1.137,,,,
2025-10-18T08:46:11.704504+00:00,10.911,10.293,,-6.679,0.368,,,,
2025-10-18T08:46:12.312845+00:00,10.915,11.371,,-9.157,1.844,,,,
2025-10-18T08:46:12.931777+00:00,10.920,11.962,,-9.998,3.172,,,,
2025-10-18T08:46:13.535505+00:00,10.926,11.836,,-9.038,4.178,,,,
2025-10-18T08:46:14.144155+00:00,10.932,11.053,,-6.461,4.809,,,,
2025-10-18T08:46:14.750058+00:00,10.939,9.898,,-2.747,4.998,,,,
2025-10-18T08:46:15.364124+00:00,10.946,8.765,,1.510,4.726,,,,
2025-10-18T08:46:15.972164+00:00,10.954,8.088,,5.457,4.020,,,,
2025-10-18T08:46:16.579959+00:00,10.963,8.096,,8.429,2.947,,,,
2025-10-18T08:46:17.182800+00:00,10.972,8.778,,9.893,1.615,,,,
2025-10-18T08:46:18.292075+00:00,10.990,10.873,,8.078,-1.120,,,,
2025-10-18T08:46:18.898863+00:00,11.000,11.743,,4.932,-2.524,,,,
2025-10-18T08:46:19.510508+00:00,11.011,11.990,,0.875,-3.707,,,,
2025-10-18T08:46:20.118258+00:00,11.022,11.521,,-3.314,-4.541,,,,
2025-10-18T08:46:20.726568+00:00,11.033,10.505,,-6.916,-4.959,,,,
2025-10-18T08:46:21.339217+00:00,11.045,9.301,,-9.293,-4.920,,,,
2025-10-18T08:46:21.945198+00:00,11.057,8.358,,-9.989,-4.431,,,,
2025-10-18T08:46:22.551754+00:00,11.069,8.000,,-8.913,-3.537,,,,
2025-10-18T08:46:23.162923+00:00,11.081,8.361,,-6.229,-2.310,,,,
2025-10-18T08:46:23.766088+00:00,11.093,9.300,,-2.477,-0.889,,,,
2025-10-18T08:46:24.378216+00:00,11.105,10.504,,1.773,0.635,,,,
2025-10-18T08:46:24.983215+00:00,11.117,11.515,,5.661,2.083,,,,
2025-10-18T08:46:25.589247+00:00,11.129,11.989,,8.552,3.345,,,,
2025-10-18T08:46:26.695403+00:00,11.151,11.079,,9.738,4.798,,,,
2025-10-18T08:46:27.300465+00:00,11.162,9.929,,7.943,4.999,,,,
2025-10-18T08:46:27.906306+00:00,11.174,8.804,,4.739,4.745,,,,
2025-10-18T08:46:28.515067+00:00,11.185,8.102,,0.675,4.055,,,,
2025-10-18T08:46:29.126297+00:00,11.196,8.084,,-3.525,2.987,,,,
2025-10-18T08:46:29.729117+00:00,11.206,8.746,,-7.049,1.662,,,,
2025-10-18T08:46:30.332929+00:00,11.216,9.852,,-9.338,0.185,,,,
2025-10-18T08:46:30.943065+00:00,11.226,11.022,,-9.981,-1.325,,,,
2025-10-18T08:46:31.552318+00:00,11.235,11.822,,-8.834,-2.710,,,,
2025-10-18T08:46:32.161290+00:00,11.244,11.966,,-6.106,-3.845,,,,
2025-10-18T08:46:32.764441+00:00,11.252,11.412,,-2.325,-4.621,,,,
2025-10-18T08:46:33.372740+00:00,11.260,10.349,,1.900,-4.981,,,,
2025-10-18T08:46:34.478954+00:00,11.272,8.396,,8.224,-4.468,,,,
2025-10-18T08:46:35.083308+00:00,11.278,8.001,,9.834,-3.598,,,,
2025-10-18T08:46:35.692900+00:00,11.283,8.320,,9.703,-2.391,,,,
2025-10-18T08:46:36.295277+00:00,11.288,9.231,,7.862,-0.980,,,,
2025-10-18T08:46:36.906280+00:00,11.292,10.429,,4.590,0.540,,,,
2025-10-18T08:46:37.518974+00:00,11.295,11.474,,0.480,2.014,,,,
2025-10-18T08:46:38.126447+00:00,11.297,11.982,,-3.683,3.290,,,,
2025-10-18T08:46:38.729826+00:00,11.299,11.784,,-7.171,4.260,,,,
2025-10-18T08:46:39.338357+00:00,11.300,10.947,,-9.410,4.849,,,,
2025-10-18T08:46:39.945270+00:00,11.300,9.773,,-9.968,4.992,,,,
2025-10-18T08:46:40.561288+00:00,11.299,8.667,,-8.724,4.671,,,,
2025-10-18T08:46:41.166000+00:00,11.298,8.056,,-5.945,3.928,,,,
2025-10-18T08:46:41.770778+00:00,11.296,8.134,,-2.117,2.828,,,,
2025-10-18T08:46:42.875724+00:00,11.291,9.805,,5.313,0.244,,,,
2025-10-18T08:46:43.486296+00:00,11.287,10.982,,8.347,-1.269,,,,
2025-10-18T08:46:44.097368+00:00,11.282,11.804,,9.879,-2.665,,,,
2025-10-18T08:46:44.705190+00:00,11.277,11.974,,9.638,-3.809,,,,
2025-10-18T08:46:45.309057+00:00,11.271,11.443,,7.696,-4.600,,,,
2025-10-18T08:46:45.928210+00:00,11.264,10.371,,4.302,-4.978,,,,
2025-10-18T08:46:46.534412+00:00,11.257,9.185,,0.204,-4.890,,,,
2025-10-18T08:46:47.140922+00:00,11.249,8.289,,-3.932,-4.356,,,,
2025-10-18T08:46:47.747780+00:00,11.241,8.004,,-7.372,-3.424,,,,
2025-10-18T08:46:48.355636+00:00,11.232,8.432,,-9.504,-2.176,,,,
2025-10-18T08:46:48.967999+00:00,11.222,9.431,,-9.937,-0.718,,,,
2025-10-18T08:46:49.572847+00:00,11.212,10.622,,-8.599,0.788,,,,
2025-10-18T08:46:50.175617+00:00,11.202,11.590,,-5.755,2.218,,,,
2025-10-18T08:46:51.284787+00:00,11.183,11.794,,1.625,4.245,,,,
2025-10-18T08:46:51.895099+00:00,11.171,10.964,,5.568,4.843,,,,
2025-10-18T08:46:52.503621+00:00,11.160,9.789,,8.502,4.993,,,,
2025-10-18T08:46:53.111714+00:00,11.148,8.691,,9.917,4.685,,,,
2025-10-18T08:46:53.729052+00:00,11.136,8.057,,9.543,3.933,,,,
2025-10-18T08:46:54.335064+00:00,11.124,8.133,,7.467,2.832,,,,
2025-10-18T08:46:54.938606+00:00,11.112,8.869,,4.084,1.480,,,,
2025-10-18T08:46:55.545169+00:00,11.100,10.011,,-0.039,-0.014,,,,
2025-10-18T08:46:56.155828+00:00,11.088,11.156,,-4.181,-1.516,,,,
2025-10-18T08:46:56.766541+00:00,11.076,11.883,,-7.571,-2.879,,,,
2025-10-18T08:46:57.369865+00:00,11.064,11.933,,-9.584,-3.963,,,,
2025-10-18T08:46:57.974850+00:00,11.052,11.298,,-9.910,-4.691,,,,
2025-10-18T08:46:59.082901+00:00,11.031,9.218,,-6.141,-4.899,,,,
2025-10-18T08:46:59.689549+00:00,11.019,8.308,,-2.344,-4.378,,,,
2025-10-18T08:47:00.295295+00:00,11.008,8.002,,1.863,-3.458,,,,
2025-10-18T08:47:00.897662+00:00,10.998,8.403,,5.721,-2.231,,,,
2025-10-18T08:47:01.506446+00:00,10.988,9.378,,8.600,-0.787,,,,
2025-10-18T08:47:02.118822+00:00,10.978,10.584,,9.943,0.738,,,,
2025-10-18T08:47:02.722031+00:00,10.968,11.566,,9.507,2.173,,,,
2025-10-18T08:47:03.325678+00:00,10.960,11.995,,7.399,3.414,,,,
2025-10-18T08:47:03.935640+00:00,10.951,11.713,,3.949,4.353,,,,
2025-10-18T08:47:04.545103+00:00,10.943,10.814,,-0.207,4.891,,,,
2025-10-18T08:47:05.153349+00:00,10.936,9.624,,-4.318,4.978,,,,
2025-10-18T08:47:05.757930+00:00,10.929,8.574,,-7.641,4.612,,,,
2025-10-18T08:47:06.365065+00:00,10.923,8.029,,-9.621,3.823,,,,
2025-10-18T08:47:07.471526+00:00,10.914,8.815,,-8.783,1.560,,,,
2025-10-18T08:47:08.076105+00:00,10.910,9.940,,-6.045,0.075,,,,
2025-10-18T08:47:08.685557+00:00,10.907,11.095,,-2.207,-1.429,,,,
2025-10-18T08:47:09.295806+00:00,10.904,11.857,,2.032,-2.802,,,,
2025-10-18T08:47:09.899872+00:00,10.902,11.950,,5.871,-3.907,,,,
2025-10-18T08:47:10.511912+00:00,10.901,11.342,,8.703,-4.666,,,,
2025-10-18T08:47:11.119503+00:00,10.900,10.255,,9.960,-4.990,,,,
2025-10-18T08:47:11.728416+00:00,10.900,9.075,,9.439,-4.856,,,,
2025-10-18T08:47:12.335519+00:00,10.901,8.229,,7.237,-4.278,,,,
2025-10-18T08:47:12.938626+00:00,10.903,8.014,,3.774,-3.317,,,,
2025-10-18T08:47:13.550737+00:00,10.905,8.513,,-0.414,-2.035,,,,
2025-10-18T08:47:14.159620+00:00,10.908,9.545,,-4.508,-0.572,,,,
2025-10-18T08:47:14.762524+00:00,10.912,10.730,,-7.769,0.928,,,,
2025-10-18T08:47:15.866617+00:00,10.921,11.991,,-9.958,3.367,,,,
2025-10-18T08:47:16.474388+00:00,10.927,11.741,,-8.692,4.319,,,,
2025-10-18T08:47:17.082183+00:00,10.933,10.867,,-5.876,4.875,,,,
2025-10-18T08:47:17.687957+00:00,10.940,9.687,,-2.027,4.985,,,,
2025-10-18T08:47:18.297574+00:00,10.948,8.612,,2.208,4.637,,,,
2025-10-18T08:47:18.904924+00:00,10.956,8.039,,6.034,3.865,,,,
2025-10-18T08:47:19.510732+00:00,10.964,8.165,,8.781,2.743,,,,
2025-10-18T08:47:20.117107+00:00,10.974,8.946,,9.972,1.370,,,,
2025-10-18T08:47:20.724393+00:00,10.983,10.104,,9.392,-0.130,,,,
2025-10-18T08:47:21.336667+00:00,10.993,11.233,,7.115,-1.631,,,,
2025-10-18T08:47:21.942164+00:00,11.004,11.910,,3.595,-2.966,,,,
2025-10-18T08:47:22.549018+00:00,11.015,11.907,,-0.570,-4.033,,,,
2025-10-18T08:47:23.653253+00:00,11.035,10.320,,-7.380,-4.984,,,,
2025-10-18T08:47:24.261084+00:00,11.047,9.135,,-9.507,-4.876,,,,
2025-10-18T08:47:24.869460+00:00,11.059,8.260,,-9.939,-4.320,,,,
2025-10-18T08:47:25.472086+00:00,11.070,8.008,,-8.616,-3.378,,,,
2025-10-18T08:47:26.080353+00:00,11.083,8.465,,-5.750,-2.119,,,,
2025-10-18T08:47:26.697653+00:00,11.095,9.490,,-1.795,-0.643,,,,
2025-10-18T08:47:27.303745+00:00,11.107,10.683,,2.414,0.866,,,,
2025-10-18T08:47:27.907149+00:00,11.119,11.629,,6.180,2.290,,,,
2025-10-18T08:47:28.513689+00:00,11.131,12.000,,8.870,3.513,,,,
2025-10-18T08:47:29.124158+00:00,11.143,11.653,,9.986,4.420,,,,
2025-10-18T08:47:29.736465+00:00,11.155,10.706,,9.302,4.919,,,,
2025-10-18T08:47:30.340985+00:00,11.166,9.517,,6.974,4.963,,,,
2025-10-18T08:47:30.944159+00:00,11.178,8.501,,3.424,4.558,,,,
2025-10-18T08:47:32.052128+00:00,11.198,8.146,,-4.133,2.795,,,,
2025-10-18T08:47:32.661482+00:00,11.208,8.909,,-7.530,1.423,,,,
2025-10-18T08:47:33.269780+00:00,11.218,10.062,,-9.576,-0.078,,,,
2025-10-18T08:47:33.881732+00:00,11.228,11.199,,-9.908,-1.580,,,,
2025-10-18T08:47:34.485615+00:00,11.237,11.896,,-8.479,-2.919,,,,
2025-10-18T08:47:35.101339+00:00,11.245,11.915,,-5.489,-4.012,,,,
2025-10-18T08:47:35.704833+00:00,11.254,11.250,,-1.580,-4.718,,,,
2025-10-18T08:47:36.315511+00:00,11.261,10.129,,2.656,-4.997,,,,
2025-10-18T08:47:36.918194+00:00,11.268,8.975,,6.371,-4.820,,,,
2025-10-18T08:47:37.527587+00:00,11.274,8.177,,8.989,-4.200,,,,
2025-10-18T08:47:38.135988+00:00,11.280,8.034,,9.996,-3.194,,,,
2025-10-18T08:47:38.739130+00:00,11.285,8.590,,9.232,-1.907,,,,
2025-10-18T08:47:39.347188+00:00,11.289,9.652,,6.821,-0.436,,,,
2025-10-18T08:47:40.454825+00:00,11.295,11.607,,-0.248,2.249,,,,
2025-10-18T08:47:41.062214+00:00,11.297,11.999,,-4.349,3.481,,,,
2025-10-18T08:47:41.670585+00:00,11.299,11.675,,-7.681,4.396,,,,
2025-10-18T08:47:42.284231+00:00,11.300,10.740,,-9.650,4.910,,,,
2025-10-18T08:47:42.900306+00:00,11.300,9.531,,-9.863,4.965,,,,
2025-10-18T08:47:43.503571+00:00,11.299,8.511,,-8.320,4.565,,,,
2025-10-18T08:47:44.106886+00:00,11.298,8.016,,-5.315,3.753,,,,
2025-10-18T08:47:44.717265+00:00,11.296,8.229,,-1.327,2.587,,,,
2025-10-18T08:47:45.326325+00:00,11.293,9.079,,2.890,1.185,,,,
2025-10-18T08:47:45.934451+00:00,11.289,10.258,,6.586,-0.323,,,,
2025-10-18T08:47:46.537630+00:00,11.285,11.338,,9.091,-1.791,,,,
2025-10-18T08:47:47.146583+00:00,11.280,11.948,,10.000,-3.108,,,,
2025-10-18T08:47:48.253660+00:00,11.270,11.278,,7.168,-4.703,,,,
2025-10-18T08:47:48.860263+00:00,11.263,10.173,,3.659,-4.995,,,,
2025-10-18T08:47:49.472920+00:00,11.255,8.995,,-0.542,-4.828,,,,
2025-10-18T08:47:50.076082+00:00,11.248,8.192,,-4.586,-4.224,,,,
2025-10-18T08:47:50.687049+00:00,11.239,8.029,,-7.859,-3.223,,,,
2025-10-18T08:47:51.299839+00:00,11.230,8.582,,-9.719,-1.920,,,,
2025-10-18T08:47:51.907176+00:00,11.220,9.640,,-9.825,-0.452,,,,
2025-10-18T08:47:52.510637+00:00,11.211,10.820,,-8.197,1.048,,,,
2025-10-18T08:47:53.120860+00:00,11.200,11.717,,-5.088,2.468,,,,
2025-10-18T08:47:53.728344+00:00,11.190,11.995,,-1.083,3.656,,,,
