ts_iso,batt_v,airspeed_ms,groundspeed_ms,roll_deg,pitch_deg,yaw_deg,lat,lon,alt_m
2025-10-18T09:26:52.740580+00:00,,,,,,,,,
2025-10-18T09:26:53.349785+00:00,,,,,,,,,
2025-10-18T09:26:53.951500+00:00,,,,,,,,,
2025-10-18T09:26:54.555464+00:00,,,,,,,,,
2025-10-18T09:26:55.534067+00:00,,,,,,,,,
2025-10-18T09:26:56.559838+00:00,,,,,,,,,
2025-10-18T09:26:57.165700+00:00,,,,,,,,,
2025-10-18T09:26:57.781070+00:00,11.112,11.159,,4.193,1.521,,,,
2025-10-18T09:26:58.385201+00:00,11.124,11.880,,7.550,2.869,,,,
2025-10-18T09:26:59.013544+00:00,11.137,11.922,,9.623,3.994,,,,
2025-10-18T09:26:59.647243+00:00,11.149,11.222,,9.859,4.732,,,,
2025-10-18T09:27:00.255160+00:00,11.161,10.099,,8.288,4.998,,,,
2025-10-18T09:27:00.874693+00:00,11.173,8.920,,5.170,4.798,,,,
2025-10-18T09:27:01.503531+00:00,11.184,8.137,,1.030,4.128,,,,
2025-10-18T09:27:02.106630+00:00,11.195,8.053,,-3.136,3.104,,,,
2025-10-18T09:27:02.719321+00:00,11.205,8.671,,-6.801,1.777,,,,
2025-10-18T09:27:03.331105+00:00,11.216,9.770,,-9.231,0.287,,,,
2025-10-18T09:27:03.794987+00:00,11.223,10.684,,-9.976,-0.868,,,,
2025-10-18T09:27:04.401773+00:00,11.232,11.633,,-9.377,-2.299,,,,
2025-10-18T09:27:05.010103+00:00,11.241,12.000,,-7.105,-3.523,,,,
2025-10-18T09:27:05.631744+00:00,11.250,11.634,,-3.476,-4.440,,,,
2025-10-18T09:27:06.242052+00:00,11.258,10.678,,0.721,-4.926,,,,
2025-10-18T09:27:06.852540+00:00,11.265,9.477,,4.790,-4.956,,,,
2025-10-18T09:27:07.481491+00:00,11.272,8.441,,8.074,-4.509,,,,
2025-10-18T09:27:08.096323+00:00,11.278,8.004,,9.799,-3.644,,,,
2025-10-18T09:27:08.813203+00:00,11.284,8.414,,9.550,-2.211,,,,
2025-10-18T09:27:09.434078+00:00,11.288,9.418,,7.413,-0.735,,,,
2025-10-18T09:27:10.042362+00:00,11.292,10.616,,3.979,0.779,,,,
2025-10-18T09:27:10.652834+00:00,11.295,11.595,,-0.182,2.228,,,,
2025-10-18T09:27:11.262475+00:00,11.297,11.999,,-4.304,3.468,,,,
2025-10-18T09:27:11.871127+00:00,11.299,11.683,,-7.649,4.388,,,,
2025-10-18T09:27:12.478545+00:00,11.300,10.765,,-9.625,4.904,,,,
2025-10-18T09:27:13.085553+00:00,11.300,9.574,,-9.887,4.971,,,,
2025-10-18T09:27:13.688417+00:00,11.299,8.541,,-8.407,4.588,,,,
2025-10-18T09:27:14.293730+00:00,11.298,8.022,,-5.437,3.787,,,,
2025-10-18T09:27:14.904102+00:00,11.296,8.210,,-1.470,2.631,,,,
2025-10-18T09:27:15.509650+00:00,11.293,9.036,,2.728,1.244,,,,
2025-10-18T09:27:16.117435+00:00,11.290,10.210,,6.456,-0.262,,,,
2025-10-18T09:27:16.117435+00:00,11.290,10.210,,6.456,-0.262,,,,
2025-10-18T09:27:20.033529+00:00,11.251,8.459,,-2.969,-4.524,,,,
2025-10-18T09:27:20.640748+00:00,11.243,8.007,,-6.643,-3.681,,,,
2025-10-18T09:27:21.245980+00:00,11.234,8.265,,-9.128,-2.505,,,,
2025-10-18T09:27:21.922795+00:00,11.224,9.271,,-9.986,-0.927,,,,
2025-10-18T09:27:22.895496+00:00,11.208,11.129,,-7.425,1.477,,,,
2025-10-18T09:27:23.502980+00:00,11.197,11.869,,-4.000,2.838,,,,
2025-10-18T09:27:24.111890+00:00,11.186,11.940,,0.147,3.942,,,,
2025-10-18T09:27:24.723718+00:00,11.175,11.309,,4.286,4.685,,,,
2025-10-18T09:27:25.330643+00:00,11.164,10.213,,7.629,4.993,,,,
2025-10-18T09:27:25.941739+00:00,11.152,9.033,,9.624,4.842,,,,
2025-10-18T09:27:26.582645+00:00,11.140,8.178,,9.850,4.202,,,,
2025-10-18T09:27:27.189219+00:00,11.128,8.033,,8.264,3.201,,,,
2025-10-18T09:27:28.413126+00:00,11.103,9.670,,1.158,0.414,,,,
2025-10-18T09:27:29.020709+00:00,11.091,10.855,,-3.044,-1.096,,,,
2025-10-18T09:27:29.627518+00:00,11.079,11.733,,-6.699,-2.503,,,,
2025-10-18T09:27:30.236060+00:00,11.067,11.993,,-9.168,-3.685,,,,
2025-10-18T09:27:30.844959+00:00,11.055,11.536,,-9.999,-4.529,,,,
2025-10-18T09:27:31.932597+00:00,11.034,9.579,,-7.132,-4.972,,,,
2025-10-18T09:27:32.541333+00:00,11.023,8.537,,-3.596,-4.585,,,,
2025-10-18T09:27:33.144691+00:00,11.012,8.021,,0.545,-3.785,,,,
2025-10-18T09:27:33.752980+00:00,11.001,8.209,,4.620,-2.633,,,,
2025-10-18T09:27:34.360346+00:00,10.991,9.038,,7.867,-1.241,,,,
2025-10-18T09:27:34.965088+00:00,10.981,10.206,,9.709,0.257,,,,
2025-10-18T09:27:35.572130+00:00,10.971,11.304,,9.833,1.738,,,,
2025-10-18T09:27:36.180893+00:00,10.962,11.937,,8.202,3.063,,,,
2025-10-18T09:27:36.784185+00:00,10.954,11.878,,5.137,4.099,,,,
2025-10-18T09:27:37.391386+00:00,10.946,11.149,,1.142,4.768,,,,
2025-10-18T09:27:37.998084+00:00,10.938,10.011,,-3.053,5.000,,,,
2025-10-18T09:27:38.609768+00:00,10.931,8.861,,-6.731,4.772,,,,
2025-10-18T09:27:39.436853+00:00,10.923,8.019,,-9.681,3.770,,,,
2025-10-18T09:27:40.045113+00:00,10.918,8.217,,-9.852,2.614,,,,
2025-10-18T09:27:40.648150+00:00,10.913,9.046,,-8.284,1.230,,,,
2025-10-18T09:27:41.790005+00:00,10.906,11.202,,-1.761,-1.584,,,,
2025-10-18T09:27:42.394376+00:00,10.904,11.897,,2.436,-2.924,,,,
2025-10-18T09:27:43.006991+00:00,10.902,11.916,,6.248,-4.011,,,,
2025-10-18T09:27:43.616981+00:00,10.900,11.242,,8.921,-4.722,,,,
2025-10-18T09:27:44.238311+00:00,10.900,10.097,,9.994,-4.999,,,,
2025-10-18T09:27:44.842423+00:00,10.900,8.945,,9.253,-4.808,,,,
2025-10-18T09:27:45.478433+00:00,10.901,8.142,,6.718,-4.138,,,,
2025-10-18T09:27:46.085144+00:00,10.903,8.052,,3.069,-3.111,,,,
2025-10-18T09:27:46.776906+00:00,10.906,8.787,,-1.714,-1.600,,,,
2025-10-18T09:27:47.565895+00:00,10.911,10.274,,-6.628,0.343,,,,
2025-10-18T09:27:48.215514+00:00,10.915,11.417,,-9.243,1.917,,,,
2025-10-18T09:27:49.610360+00:00,10.928,11.638,,-8.338,4.435,,,,
2025-10-18T09:27:50.222302+00:00,10.934,10.681,,-5.291,4.925,,,,
2025-10-18T09:27:50.830503+00:00,10.941,9.485,,-1.314,4.958,,,,
2025-10-18T09:27:51.437142+00:00,10.949,8.475,,2.887,4.537,,,,
2025-10-18T09:27:52.044485+00:00,10.957,8.009,,6.579,3.702,,,,
2025-10-18T09:27:52.669322+00:00,10.966,8.273,,9.149,2.489,,,,
2025-10-18T09:27:53.272688+00:00,10.975,9.150,,10.000,1.089,,,,
2025-10-18T09:27:53.879103+00:00,10.985,10.333,,9.084,-0.418,,,,
2025-10-18T09:27:54.484873+00:00,10.995,11.397,,6.559,-1.885,,,,
2025-10-18T09:27:55.097013+00:00,11.006,11.966,,2.829,-3.193,,,,
2025-10-18T09:27:55.704471+00:00,11.017,11.824,,-1.379,-4.198,,,,
2025-10-18T09:27:56.312237+00:00,11.028,11.030,,-5.344,-4.818,,,,
2025-10-18T09:27:56.915409+00:00,11.039,9.876,,-8.338,-4.998,,,,
2025-10-18T09:27:58.026903+00:00,11.061,8.156,,-9.814,-4.163,,,,
2025-10-18T09:27:58.633139+00:00,11.073,8.044,,-8.152,-3.147,,,,
2025-10-18T09:27:59.257662+00:00,11.085,8.656,,-4.934,-1.801,,,,
2025-10-18T09:27:59.867821+00:00,11.097,9.747,,-0.888,-0.317,,,,
2025-10-18T09:28:00.493645+00:00,11.110,10.957,,3.421,1.234,,,,
2025-10-18T09:28:01.096973+00:00,11.122,11.784,,6.972,2.618,,,,
2025-10-18T09:28:01.706974+00:00,11.134,11.980,,9.315,3.776,,,,
2025-10-18T09:28:02.313634+00:00,11.146,11.466,,9.986,4.583,,,,
2025-10-18T09:28:02.924393+00:00,11.158,10.421,,8.870,4.972,,,,
2025-10-18T09:28:03.661799+00:00,11.172,8.997,,5.436,4.828,,,,
2025-10-18T09:28:04.267483+00:00,11.183,8.190,,1.501,4.221,,,,
2025-10-18T09:28:04.872437+00:00,11.194,8.027,,-2.694,3.232,,,,
2025-10-18T09:28:05.982991+00:00,11.213,9.419,,-8.675,0.735,,,,
2025-10-18T09:28:06.590978+00:00,11.223,10.616,,-9.955,-0.779,,,,
2025-10-18T09:28:07.197902+00:00,11.232,11.591,,-9.461,-2.220,,,,
2025-10-18T09:28:07.800455+00:00,11.241,11.998,,-7.306,-3.449,,,,
2025-10-18T09:28:08.409225+00:00,11.249,11.694,,-3.830,-4.375,,,,
2025-10-18T09:28:09.021063+00:00,11.257,10.776,,0.352,-4.901,,,,
2025-10-18T09:28:09.626461+00:00,11.264,9.589,,4.430,-4.973,,,,
2025-10-18T09:28:10.229948+00:00,11.271,8.551,,7.716,-4.595,,,,
2025-10-18T09:28:10.840095+00:00,11.277,8.023,,9.658,-3.791,,,,
2025-10-18T09:28:11.449541+00:00,11.282,8.207,,9.865,-2.638,,,,
2025-10-18T09:28:12.059586+00:00,11.287,9.038,,8.302,-1.241,,,,
2025-10-18T09:28:12.664957+00:00,11.291,10.207,,5.275,0.259,,,,
2025-10-18T09:28:13.271426+00:00,11.294,11.304,,1.308,1.739,,,,
2025-10-18T09:28:14.378344+00:00,11.298,11.940,,-6.002,3.943,,,,
2025-10-18T09:28:14.984600+00:00,11.299,11.316,,-8.763,4.681,,,,
2025-10-18T09:28:15.593677+00:00,11.300,10.218,,-9.971,4.993,,,,
2025-10-18T09:28:16.204461+00:00,11.300,9.038,,-9.390,4.844,,,,
2025-10-18T09:28:16.808499+00:00,11.299,8.212,,-7.151,4.255,,,,
2025-10-18T09:28:17.420182+00:00,11.297,8.021,,-3.603,3.267,,,,
2025-10-18T09:28:18.027847+00:00,11.295,8.542,,0.567,1.985,,,,
2025-10-18T09:28:18.638425+00:00,11.291,9.591,,4.655,0.514,,,,
2025-10-18T09:28:19.245769+00:00,11.288,10.781,,7.891,-0.997,,,,
2025-10-18T09:28:19.849259+00:00,11.283,11.688,,9.716,-2.408,,,,
2025-10-18T09:28:20.466555+00:00,11.278,11.997,,9.814,-3.625,,,,
2025-10-18T09:28:21.073691+00:00,11.272,11.582,,8.150,-4.489,,,,
2025-10-18T09:28:21.676782+00:00,11.265,10.609,,5.060,-4.940,,,,
2025-10-18T09:28:22.781415+00:00,11.252,8.572,,-2.403,-4.610,,,,
2025-10-18T09:28:23.392469+00:00,11.244,8.027,,-6.213,-3.814,,,,
2025-10-18T09:28:24.003731+00:00,11.235,8.196,,-8.904,-2.664,,,,
2025-10-18T09:28:24.613670+00:00,11.226,9.017,,-9.990,-1.271,,,,
2025-10-18T09:28:25.226409+00:00,11.216,10.197,,-9.274,0.247,,,,
2025-10-18T09:28:25.837467+00:00,11.206,11.304,,-6.887,1.738,,,,
2025-10-18T09:28:26.443487+00:00,11.195,11.935,,-3.292,3.058,,,,
2025-10-18T09:28:27.051584+00:00,11.184,11.877,,0.901,4.102,,,,
2025-10-18T09:28:27.658832+00:00,11.173,11.146,,4.928,4.769,,,,
2025-10-18T09:28:28.273106+00:00,11.162,9.992,,8.107,5.000,,,,
2025-10-18T09:28:28.878975+00:00,11.150,8.855,,9.798,4.769,,,,
2025-10-18T09:28:29.484021+00:00,11.138,8.125,,9.754,4.106,,,,
2025-10-18T09:28:30.590015+00:00,11.116,8.537,,5.434,1.995,,,,
2025-10-18T09:28:31.197955+00:00,11.104,9.578,,1.484,0.531,,,,
2025-10-18T09:28:31.806011+00:00,11.092,10.770,,-2.732,-0.982,,,,
2025-10-18T09:28:32.408538+00:00,11.080,11.681,,-6.431,-2.392,,,,
2025-10-18T09:28:33.015603+00:00,11.068,11.999,,-9.016,-3.595,,,,
2025-10-18T09:28:33.629965+00:00,11.056,11.594,,-9.998,-4.478,,,,
2025-10-18T09:28:34.236304+00:00,11.044,10.622,,-9.183,-4.938,,,,
2025-10-18T09:28:34.839613+00:00,11.033,9.433,,-6.753,-4.948,,,,
2025-10-18T09:28:35.445892+00:00,11.021,8.441,,-3.117,-4.509,,,,
2025-10-18T09:28:36.058504+00:00,11.010,8.004,,1.116,-3.648,,,,
2025-10-18T09:28:36.674665+00:00,11.000,8.297,,5.169,-2.439,,,,
2025-10-18T09:28:37.279606+00:00,10.989,9.195,,8.230,-1.028,,,,
2025-10-18T09:28:37.882534+00:00,10.979,10.375,,9.835,0.471,,,,
2025-10-18T09:28:38.990339+00:00,10.963,11.925,,8.291,3.019,,,,
2025-10-18T09:28:39.596996+00:00,10.954,11.891,,5.251,4.072,,,,
2025-10-18T09:28:40.203078+00:00,10.946,11.182,,1.282,4.752,,,,
2025-10-18T09:28:40.814733+00:00,10.938,10.042,,-2.952,5.000,,,,
2025-10-18T09:28:41.419170+00:00,10.932,8.898,,-6.614,4.789,,,,
2025-10-18T09:28:42.034358+00:00,10.925,8.137,,-9.141,4.128,,,,
2025-10-18T09:28:42.637872+00:00,10.920,8.053,,-10.000,3.103,,,,
2025-10-18T09:28:43.253499+00:00,10.915,8.676,,-9.065,1.770,,,,
2025-10-18T09:28:43.860414+00:00,10.911,9.767,,-6.518,0.292,,,,
2025-10-18T09:28:44.465572+00:00,10.907,10.939,,-2.825,-1.209,,,,
2025-10-18T09:28:45.070190+00:00,10.904,11.776,,1.364,-2.599,,,,
2025-10-18T09:28:45.682039+00:00,10.902,11.982,,5.355,-3.765,,,,
2025-10-18T09:28:46.286750+00:00,10.901,11.478,,8.352,-4.574,,,,
2025-10-18T09:28:47.393548+00:00,10.900,9.457,,9.815,-4.953,,,,
2025-10-18T09:28:47.999802+00:00,10.901,8.457,,8.158,-4.523,,,,
2025-10-18T09:28:48.612114+00:00,10.902,8.006,,5.015,-3.670,,,,
2025-10-18T09:28:49.216671+00:00,10.904,8.272,,1.020,-2.492,,,,
2025-10-18T09:28:49.827267+00:00,10.907,9.161,,-3.195,-1.074,,,,
2025-10-18T09:28:50.431902+00:00,10.911,10.342,,-6.805,0.429,,,,
2025-10-18T09:28:51.055551+00:00,10.915,11.428,,-9.265,1.936,,,,
2025-10-18T09:28:51.660912+00:00,10.920,11.971,,-9.993,3.222,,,,
2025-10-18T09:28:52.266888+00:00,10.926,11.813,,-8.951,4.216,,,,
2025-10-18T09:28:52.875308+00:00,10.932,11.005,,-6.309,4.828,,,,
2025-10-18T09:28:53.486873+00:00,10.939,9.830,,-2.519,4.995,,,,
2025-10-18T09:28:54.112755+00:00,10.947,8.695,,1.824,4.687,,,,
2025-10-18T09:28:54.716050+00:00,10.955,8.065,,5.694,3.959,,,,
2025-10-18T09:28:55.318937+00:00,10.964,8.119,,8.562,2.874,,,,
2025-10-18T09:28:55.929580+00:00,10.973,8.848,,9.933,1.511,,,,
2025-10-18T09:28:57.039739+00:00,10.991,10.952,,7.890,-1.228,,,,
2025-10-18T09:28:57.647377+00:00,11.001,11.786,,4.652,-2.622,,,,
2025-10-18T09:28:58.257299+00:00,11.012,11.980,,0.569,-3.779,,,,
2025-10-18T09:28:58.862949+00:00,11.023,11.465,,-3.588,-4.584,,,,
2025-10-18T09:28:59.467068+00:00,11.034,10.433,,-7.103,-4.970,,,,
2025-10-18T09:29:00.080044+00:00,11.046,9.230,,-9.387,-4.903,,,,
2025-10-18T09:29:00.692199+00:00,11.058,8.309,,-9.971,-4.379,,,,
2025-10-18T09:29:01.302894+00:00,11.070,8.002,,-8.756,-3.451,,,,
2025-10-18T09:29:01.907379+00:00,11.082,8.410,,-6.000,-2.218,,,,
2025-10-18T09:29:02.511142+00:00,11.094,9.379,,-2.191,-0.785,,,,
2025-10-18T09:29:03.118800+00:00,11.106,10.576,,2.031,0.728,,,,
2025-10-18T09:29:03.726652+00:00,11.118,11.567,,5.892,2.175,,,,
2025-10-18T09:29:04.334463+00:00,11.130,11.996,,8.701,3.422,,,,
2025-10-18T09:29:05.442118+00:00,11.152,11.004,,9.664,4.828,,,,
2025-10-18T09:29:06.047605+00:00,11.163,9.841,,7.751,4.996,,,,
2025-10-18T09:29:06.653453+00:00,11.175,8.734,,4.465,4.709,,,,
2025-10-18T09:29:07.255915+00:00,11.186,8.080,,0.411,3.999,,,,
2025-10-18T09:29:07.865508+00:00,11.197,8.106,,-3.761,2.914,,,,
2025-10-18T09:29:08.478514+00:00,11.207,8.820,,-7.275,1.552,,,,
2025-10-18T09:29:09.084589+00:00,11.217,9.950,,-9.454,0.063,,,,
2025-10-18T09:29:09.692905+00:00,11.227,11.101,,-9.956,-1.437,,,,
2025-10-18T09:29:10.299041+00:00,11.236,11.856,,-8.687,-2.801,,,,
2025-10-18T09:29:10.907297+00:00,11.245,11.949,,-5.865,-3.913,,,,
2025-10-18T09:29:11.512857+00:00,11.253,11.346,,-2.014,-4.663,,,,
2025-10-18T09:29:12.118687+00:00,11.260,10.265,,2.194,-4.989,,,,
2025-10-18T09:29:13.230998+00:00,11.273,8.339,,8.414,-4.412,,,,
2025-10-18T09:29:13.839857+00:00,11.278,8.000,,9.895,-3.504,,,,
2025-10-18T09:29:14.445867+00:00,11.284,8.377,,9.612,-2.280,,,,
2025-10-18T09:29:15.047955+00:00,11.288,9.324,,7.642,-0.858,,,,
2025-10-18T09:29:15.650902+00:00,11.292,10.510,,4.330,0.643,,,,
2025-10-18T09:29:16.272217+00:00,11.295,11.540,,0.129,2.128,,,,
2025-10-18T09:29:16.883015+00:00,11.297,11.993,,-4.029,3.390,,,,
2025-10-18T09:29:17.490818+00:00,11.299,11.729,,-7.447,4.334,,,,
2025-10-18T09:29:18.095905+00:00,11.300,10.850,,-9.532,4.880,,,,
2025-10-18T09:29:18.703817+00:00,11.300,9.663,,-9.930,4.982,,,,
2025-10-18T09:29:19.309467+00:00,11.299,8.601,,-8.565,4.629,,,,
2025-10-18T09:29:19.915435+00:00,11.298,8.036,,-5.681,3.855,,,,
2025-10-18T09:29:20.523303+00:00,11.296,8.172,,-1.778,2.725,,,,
2025-10-18T09:29:21.633415+00:00,11.290,9.914,,5.633,0.107,,,,
2025-10-18T09:29:22.244099+00:00,11.286,11.076,,8.552,-1.401,,,,
2025-10-18T09:29:22.849848+00:00,11.282,11.844,,9.927,-2.769,,,,
2025-10-18T09:29:23.457102+00:00,11.276,11.956,,9.541,-3.887,,,,
2025-10-18T09:29:24.060993+00:00,11.270,11.373,,7.473,-4.646,,,,
2025-10-18T09:29:24.677719+00:00,11.263,10.279,,4.006,-4.988,,,,
2025-10-18T09:29:25.286102+00:00,11.256,9.097,,-0.137,-4.864,,,,
2025-10-18T09:29:25.898065+00:00,11.248,8.236,,-4.278,-4.288,,,,
2025-10-18T09:29:26.502743+00:00,11.240,8.013,,-7.613,-3.328,,,,
2025-10-18T09:29:27.108228+00:00,11.231,8.496,,-9.606,-2.064,,,,
2025-10-18T09:29:27.711725+00:00,11.222,9.510,,-9.901,-0.618,,,,
2025-10-18T09:29:28.320822+00:00,11.212,10.707,,-8.434,0.899,,,,
2025-10-18T09:29:28.927585+00:00,11.201,11.648,,-5.471,2.327,,,,
2025-10-18T09:29:30.042442+00:00,11.182,11.743,,2.001,4.316,,,,
2025-10-18T09:29:30.646475+00:00,11.170,10.878,,5.846,4.871,,,,
2025-10-18T09:29:31.257312+00:00,11.159,9.689,,8.684,4.985,,,,
2025-10-18T09:29:31.864113+00:00,11.147,8.618,,9.956,4.640,,,,
2025-10-18T09:29:32.473847+00:00,11.135,8.039,,9.452,3.868,,,,
2025-10-18T09:29:33.088240+00:00,11.123,8.171,,7.229,2.728,,,,
2025-10-18T09:29:33.701712+00:00,11.111,8.970,,3.696,1.336,,,,
2025-10-18T09:29:34.314142+00:00,11.099,10.143,,-0.501,-0.179,,,,
2025-10-18T09:29:34.918823+00:00,11.086,11.252,,-4.559,-1.659,,,,
2025-10-18T09:29:35.522515+00:00,11.074,11.916,,-7.808,-2.986,,,,
2025-10-18T09:29:36.130205+00:00,11.062,11.900,,-9.690,-4.049,,,,
2025-10-18T09:29:36.738866+00:00,11.051,11.203,,-9.844,-4.742,,,,
