ts_iso,batt_v,airspeed_ms,groundspeed_ms,roll_deg,pitch_deg,yaw_deg,lat,lon,alt_m
2025-10-18T10:17:29.288134+00:00,,,,,,,,,
2025-10-18T10:17:29.897749+00:00,,,,,,,,,
2025-10-18T10:17:30.499280+00:00,,,,,,,,,
2025-10-18T10:17:31.108673+00:00,,,,,,,,,
2025-10-18T10:17:32.143992+00:00,,,,,,,,,
2025-10-18T10:17:32.749558+00:00,,,,,,,,,
2025-10-18T10:17:33.352788+00:00,,,,,,,,,
2025-10-18T10:17:33.971240+00:00,11.112,11.160,,4.196,1.522,,,,
2025-10-18T10:17:34.574855+00:00,11.124,11.880,,7.549,2.869,,,,
2025-10-18T10:17:35.196005+00:00,11.137,11.926,,9.609,3.983,,,,
2025-10-18T10:17:35.812962+00:00,11.149,11.260,,9.886,4.713,,,,
2025-10-18T10:17:36.420166+00:00,11.160,10.148,,8.384,4.997,,,,
2025-10-18T10:17:37.038845+00:00,11.172,8.964,,5.323,4.816,,,,
2025-10-18T10:17:37.646175+00:00,11.183,8.173,,1.357,4.193,,,,
2025-10-18T10:17:38.248744+00:00,11.194,8.034,,-2.818,3.196,,,,
2025-10-18T10:17:38.855744+00:00,11.205,8.593,,-6.523,1.901,,,,
2025-10-18T10:17:39.470188+00:00,11.215,9.670,,-9.089,0.414,,,,
2025-10-18T10:17:40.076143+00:00,11.225,10.852,,-10.000,-1.092,,,,
2025-10-18T10:17:40.687378+00:00,11.234,11.736,,-9.123,-2.509,,,,
2025-10-18T10:17:41.293101+00:00,11.243,11.993,,-6.631,-3.685,,,,
2025-10-18T10:17:41.900609+00:00,11.251,11.537,,-2.952,-4.527,,,,
2025-10-18T10:17:42.506786+00:00,11.259,10.535,,1.244,-4.954,,,,
2025-10-18T10:17:43.115118+00:00,11.266,9.337,,5.231,-4.929,,,,
2025-10-18T10:17:43.723811+00:00,11.272,8.377,,8.286,-4.451,,,,
2025-10-18T10:17:44.336753+00:00,11.278,8.000,,9.864,-3.556,,,,
2025-10-18T10:17:44.944040+00:00,11.283,8.345,,9.664,-2.342,,,,
2025-10-18T10:17:45.547435+00:00,11.288,9.274,,7.761,-0.924,,,,
2025-10-18T10:17:46.150476+00:00,11.292,10.459,,4.496,0.577,,,,
2025-10-18T10:17:46.761143+00:00,11.295,11.492,,0.388,2.044,,,,
2025-10-18T10:17:47.374152+00:00,11.297,11.987,,-3.804,3.325,,,,
2025-10-18T10:17:47.982186+00:00,11.299,11.762,,-7.283,4.291,,,,
2025-10-18T10:17:48.585877+00:00,11.300,10.914,,-9.453,4.860,,,,
2025-10-18T10:17:49.195763+00:00,11.300,9.731,,-9.955,4.989,,,,
2025-10-18T10:17:49.801700+00:00,11.299,8.650,,-8.684,4.661,,,,
2025-10-18T10:17:50.408401+00:00,11.298,8.050,,-5.870,3.907,,,,
2025-10-18T10:17:51.019936+00:00,11.296,8.149,,-1.980,2.787,,,,
2025-10-18T10:17:51.627922+00:00,11.293,8.913,,2.244,1.416,,,,
2025-10-18T10:17:52.276522+00:00,11.290,10.148,,6.290,-0.186,,,,
2025-10-18T10:17:52.882571+00:00,11.286,11.258,,8.933,-1.668,,,,
2025-10-18T10:17:53.485849+00:00,11.281,11.918,,9.990,-2.993,,,,
2025-10-18T10:17:54.092392+00:00,11.275,11.899,,9.284,-4.053,,,,
2025-10-18T10:17:54.700857+00:00,11.269,11.199,,6.920,-4.744,,,,
2025-10-18T10:17:55.308027+00:00,11.262,10.072,,3.327,-4.999,,,,
2025-10-18T10:17:55.916007+00:00,11.255,8.917,,-0.863,-4.797,,,,
2025-10-18T10:17:56.522495+00:00,11.247,8.152,,-4.890,-4.157,,,,
2025-10-18T10:17:57.131471+00:00,11.238,8.047,,-8.059,-3.132,,,,
2025-10-18T10:17:57.734505+00:00,11.229,8.635,,-9.777,-1.833,,,,
2025-10-18T10:17:58.342169+00:00,11.220,9.714,,-9.772,-0.358,,,,
2025-10-18T10:17:58.956773+00:00,11.210,10.908,,-7.996,1.168,,,,
2025-10-18T10:17:59.561431+00:00,11.200,11.760,,-4.824,2.562,,,,
2025-10-18T10:18:00.168151+00:00,11.189,11.987,,-0.786,3.728,,,,
2025-10-18T10:18:00.772925+00:00,11.178,11.508,,3.378,4.551,,,,
2025-10-18T10:18:00.772925+00:00,11.178,11.508,,3.378,4.551,,,,
2025-10-18T10:18:02.722006+00:00,11.141,8.222,,9.905,4.269,,,,
2025-10-18T10:18:03.327641+00:00,11.129,8.017,,8.461,3.299,,,,
2025-10-18T10:18:03.940416+00:00,11.117,8.527,,5.478,2.012,,,,
2025-10-18T10:18:04.547880+00:00,11.104,9.562,,1.539,0.551,,,,
2025-10-18T10:18:05.156920+00:00,11.092,10.757,,-2.685,-0.965,,,,
2025-10-18T10:18:05.760145+00:00,11.080,11.674,,-6.397,-2.378,,,,
2025-10-18T10:18:06.366110+00:00,11.068,11.999,,-8.993,-3.582,,,,
2025-10-18T10:18:06.366110+00:00,11.068,11.999,,-8.993,-3.582,,,,
2025-10-18T10:18:08.218392+00:00,11.032,9.393,,-6.644,-4.941,,,,
2025-10-18T10:18:08.825471+00:00,11.021,8.415,,-2.972,-4.485,,,,
2025-10-18T10:18:09.436568+00:00,11.010,8.002,,1.256,-3.613,,,,
2025-10-18T10:18:10.042882+00:00,10.999,8.307,,5.230,-2.417,,,,
2025-10-18T10:18:10.647257+00:00,10.989,9.213,,8.268,-1.004,,,,
2025-10-18T10:18:11.253420+00:00,10.979,10.401,,9.851,0.503,,,,
2025-10-18T10:18:11.860939+00:00,10.970,11.447,,9.684,1.968,,,,
2025-10-18T10:18:12.468641+00:00,10.961,11.976,,7.791,3.253,,,,
2025-10-18T10:18:13.076175+00:00,10.952,11.798,,4.510,4.240,,,,
2025-10-18T10:18:13.687308+00:00,10.944,10.970,,0.401,4.841,,,,
2025-10-18T10:18:14.292310+00:00,10.937,9.802,,-3.741,4.994,,,,
2025-10-18T10:18:14.896601+00:00,10.930,8.707,,-7.218,4.694,,,,
2025-10-18T10:18:16.394472+00:00,10.916,8.384,,-9.599,2.266,,,,
2025-10-18T10:18:17.036408+00:00,10.912,9.412,,-7.429,0.744,,,,
2025-10-18T10:18:17.643215+00:00,10.908,10.607,,-4.010,-0.768,,,,
2025-10-18T10:18:18.255181+00:00,10.905,11.591,,0.158,-2.220,,,,
2025-10-18T10:18:18.883710+00:00,10.903,12.000,,4.402,-3.496,,,,
2025-10-18T10:18:19.498920+00:00,10.901,11.658,,7.748,-4.414,,,,
2025-10-18T10:18:20.110156+00:00,10.900,10.717,,9.673,-4.916,,,,
2025-10-18T10:18:20.731173+00:00,10.900,9.496,,9.842,-4.960,,,,
2025-10-18T10:18:21.346460+00:00,10.901,8.471,,8.203,-4.534,,,,
2025-10-18T10:18:21.988506+00:00,10.902,8.003,,4.903,-3.638,,,,
2025-10-18T10:18:22.604830+00:00,10.905,8.303,,0.809,-2.426,,,,
2025-10-18T10:18:23.217553+00:00,10.907,9.220,,-3.409,-0.995,,,,
2025-10-18T10:18:23.825916+00:00,10.911,10.413,,-6.988,0.518,,,,
2025-10-18T10:18:24.434842+00:00,10.915,11.458,,-9.320,1.985,,,,
2025-10-18T10:18:25.048128+00:00,10.921,11.980,,-9.983,3.278,,,,
2025-10-18T10:18:25.664605+00:00,10.926,11.778,,-8.823,4.269,,,,
2025-10-18T10:18:26.276021+00:00,10.933,10.930,,-6.074,4.854,,,,
2025-10-18T10:18:26.885323+00:00,10.940,9.750,,-2.244,4.990,,,,
2025-10-18T10:18:27.494118+00:00,10.947,8.660,,1.986,4.667,,,,
2025-10-18T10:18:28.104027+00:00,10.955,8.051,,5.866,3.912,,,,
2025-10-18T10:18:28.710972+00:00,10.964,8.143,,8.683,2.803,,,,
2025-10-18T10:18:29.332178+00:00,10.973,8.922,,9.965,1.404,,,,
2025-10-18T10:18:29.937734+00:00,10.983,10.073,,9.429,-0.091,,,,
2025-10-18T10:18:30.555770+00:00,10.993,11.217,,7.163,-1.607,,,,
2025-10-18T10:18:31.162861+00:00,11.004,11.905,,3.650,-2.949,,,,
2025-10-18T10:18:31.769106+00:00,11.015,11.912,,-0.508,-4.020,,,,
2025-10-18T10:18:32.382911+00:00,11.026,11.226,,-4.622,-4.730,,,,
2025-10-18T10:18:33.005665+00:00,11.037,10.075,,-7.934,-4.999,,,,
2025-10-18T10:18:33.617908+00:00,11.049,8.912,,-9.746,-4.795,,,,
2025-10-18T10:18:34.235847+00:00,11.061,8.141,,-9.787,-4.137,,,,
2025-10-18T10:18:34.841978+00:00,11.073,8.052,,-8.074,-3.110,,,,
2025-10-18T10:18:35.454831+00:00,11.085,8.667,,-4.889,-1.784,,,,
2025-10-18T10:18:36.061332+00:00,11.098,9.754,,-0.861,-0.308,,,,
2025-10-18T10:18:36.677549+00:00,11.110,10.947,,3.383,1.220,,,,
2025-10-18T10:18:37.288270+00:00,11.122,11.786,,6.980,2.621,,,,
2025-10-18T10:18:37.901124+00:00,11.134,11.979,,9.326,3.784,,,,
2025-10-18T10:18:38.523551+00:00,11.146,11.438,,9.978,4.603,,,,
2025-10-18T10:18:39.139114+00:00,11.158,10.372,,8.788,4.978,,,,
2025-10-18T10:18:39.746107+00:00,11.170,9.185,,6.040,4.890,,,,
2025-10-18T10:18:40.355629+00:00,11.181,8.286,,2.200,4.352,,,,
2025-10-18T10:18:40.965687+00:00,11.192,8.005,,-2.038,3.412,,,,
2025-10-18T10:18:41.586321+00:00,11.203,8.457,,-5.969,2.133,,,,
2025-10-18T10:18:42.195830+00:00,11.213,9.463,,-8.754,0.678,,,,
2025-10-18T10:18:42.808048+00:00,11.223,10.668,,-9.971,-0.847,,,,
2025-10-18T10:18:43.414351+00:00,11.232,11.623,,-9.399,-2.279,,,,
2025-10-18T10:18:44.030601+00:00,11.241,12.000,,-7.110,-3.522,,,,
2025-10-18T10:18:44.634731+00:00,11.250,11.655,,-3.598,-4.418,,,,
2025-10-18T10:18:45.246410+00:00,11.257,10.710,,0.601,-4.918,,,,
2025-10-18T10:18:45.855596+00:00,11.265,9.512,,4.676,-4.962,,,,
2025-10-18T10:18:46.472653+00:00,11.271,8.480,,7.947,-4.541,,,,
2025-10-18T10:18:47.079458+00:00,11.277,8.010,,9.742,-3.709,,,,
2025-10-18T10:18:47.689130+00:00,11.283,8.254,,9.802,-2.532,,,,
2025-10-18T10:18:48.297187+00:00,11.287,9.123,,8.110,-1.125,,,,
2025-10-18T10:18:48.915054+00:00,11.291,10.327,,4.912,0.410,,,,
2025-10-18T10:18:49.523966+00:00,11.294,11.397,,0.871,1.885,,,,
2025-10-18T10:18:50.136719+00:00,11.297,11.966,,-3.351,3.194,,,,
2025-10-18T10:18:50.750897+00:00,11.299,11.819,,-6.973,4.207,,,,
2025-10-18T10:18:51.364074+00:00,11.300,11.008,,-9.324,4.826,,,,
2025-10-18T10:18:51.967611+00:00,11.300,9.850,,-9.986,4.996,,,,
2025-10-18T10:18:52.583878+00:00,11.300,8.725,,-8.852,4.704,,,,
2025-10-18T10:18:53.206371+00:00,11.298,8.066,,-6.061,3.959,,,,
2025-10-18T10:18:53.816997+00:00,11.296,8.124,,-2.218,2.858,,,,
2025-10-18T10:18:54.430492+00:00,11.294,8.865,,2.043,1.486,,,,
2025-10-18T10:18:55.037951+00:00,11.290,10.008,,5.900,-0.010,,,,
2025-10-18T10:18:55.645759+00:00,11.286,11.148,,8.706,-1.505,,,,
2025-10-18T10:18:56.255623+00:00,11.281,11.879,,9.962,-2.867,,,,
2025-10-18T10:18:56.863579+00:00,11.276,11.933,,9.434,-3.962,,,,
2025-10-18T10:18:57.473071+00:00,11.270,11.292,,7.215,-4.695,,,,
2025-10-18T10:18:58.088737+00:00,11.263,10.174,,3.663,-4.995,,,,
2025-10-18T10:18:58.700519+00:00,11.255,8.998,,-0.532,-4.829,,,,
2025-10-18T10:18:59.306936+00:00,11.247,8.190,,-4.598,-4.221,,,,
2025-10-18T10:18:59.913684+00:00,11.239,8.028,,-7.848,-3.228,,,,
2025-10-18T10:19:00.532645+00:00,11.230,8.587,,-9.725,-1.912,,,,
2025-10-18T10:19:01.150655+00:00,11.220,9.668,,-9.806,-0.416,,,,
2025-10-18T10:19:01.756960+00:00,11.210,10.851,,-8.128,1.090,,,,
2025-10-18T10:19:02.365324+00:00,11.200,11.733,,-4.995,2.502,,,,
2025-10-18T10:19:02.978003+00:00,11.189,11.992,,-0.940,3.691,,,,
2025-10-18T10:19:03.585125+00:00,11.178,11.533,,3.249,4.530,,,,
2025-10-18T10:19:04.188736+00:00,11.167,10.534,,6.841,4.954,,,,
2025-10-18T10:19:04.800750+00:00,11.155,9.329,,9.253,4.927,,,,
2025-10-18T10:19:05.418433+00:00,11.143,8.362,,9.991,4.435,,,,
2025-10-18T10:19:06.037400+00:00,11.131,8.000,,8.885,3.522,,,,
2025-10-18T10:19:06.645700+00:00,11.119,8.368,,6.197,2.297,,,,
2025-10-18T10:19:07.255419+00:00,11.107,9.324,,2.392,0.858,,,,
2025-10-18T10:19:07.863429+00:00,11.095,10.520,,-1.830,-0.656,,,,
2025-10-18T10:19:08.480619+00:00,11.082,11.542,,-5.779,-2.130,,,,
2025-10-18T10:19:09.092919+00:00,11.070,11.994,,-8.648,-3.394,,,,
2025-10-18T10:19:09.698015+00:00,11.058,11.729,,-9.948,-4.334,,,,
2025-10-18T10:19:10.315120+00:00,11.046,10.828,,-9.462,-4.887,,,,
2025-10-18T10:19:10.932579+00:00,11.035,9.621,,-7.237,-4.977,,,,
2025-10-18T10:19:11.537648+00:00,11.023,8.572,,-3.761,-4.610,,,,
2025-10-18T10:19:12.142988+00:00,11.012,8.029,,0.382,-3.823,,,,
2025-10-18T10:19:12.757010+00:00,11.001,8.194,,4.511,-2.670,,,,
2025-10-18T10:19:13.371363+00:00,10.991,9.020,,7.821,-1.267,,,,
2025-10-18T10:19:13.979792+00:00,10.981,10.192,,9.697,0.240,,,,
2025-10-18T10:19:14.586792+00:00,10.971,11.293,,9.842,1.722,,,,
2025-10-18T10:19:15.200639+00:00,10.962,11.936,,8.210,3.060,,,,
2025-10-18T10:19:15.813350+00:00,10.954,11.873,,5.091,4.110,,,,
2025-10-18T10:19:16.420805+00:00,10.946,11.137,,1.087,4.773,,,,
2025-10-18T10:19:17.034563+00:00,10.938,9.981,,-3.152,5.000,,,,
2025-10-18T10:19:17.652265+00:00,10.931,8.827,,-6.839,4.756,,,,
2025-10-18T10:19:18.261507+00:00,10.925,8.111,,-9.244,4.075,,,,
2025-10-18T10:19:18.868761+00:00,10.919,8.074,,-9.994,3.022,,,,
2025-10-18T10:19:19.472692+00:00,10.915,8.721,,-8.976,1.701,,,,
2025-10-18T10:19:20.085347+00:00,10.910,9.837,,-6.329,0.204,,,,
2025-10-18T10:19:20.707028+00:00,10.907,11.029,,-2.476,-1.334,,,,
2025-10-18T10:19:21.312707+00:00,10.904,11.822,,1.729,-2.711,,,,
2025-10-18T10:19:21.919113+00:00,10.902,11.967,,5.632,-3.841,,,,
2025-10-18T10:19:22.532546+00:00,10.901,11.401,,8.561,-4.628,,,,
2025-10-18T10:19:23.147363+00:00,10.900,10.321,,9.937,-4.984,,,,
2025-10-18T10:19:23.754433+00:00,10.900,9.137,,9.517,-4.876,,,,
2025-10-18T10:19:24.361249+00:00,10.901,8.262,,7.405,-4.323,,,,
2025-10-18T10:19:24.970120+00:00,10.903,8.008,,3.964,-3.371,,,,
2025-10-18T10:19:25.581744+00:00,10.905,8.474,,-0.205,-2.103,,,,
2025-10-18T10:19:26.202885+00:00,10.908,9.511,,-4.397,-0.616,,,,
2025-10-18T10:19:26.808381+00:00,10.912,10.701,,-7.702,0.891,,,,
2025-10-18T10:19:27.428120+00:00,10.917,11.659,,-9.670,2.349,,,,
2025-10-18T10:19:28.039013+00:00,10.922,12.000,,-9.856,3.568,,,,
2025-10-18T10:19:28.644202+00:00,10.928,11.624,,-8.290,4.449,,,,
2025-10-18T10:19:29.250216+00:00,10.934,10.670,,-5.254,4.927,,,,
2025-10-18T10:19:29.865855+00:00,10.941,9.458,,-1.219,4.953,,,,
2025-10-18T10:19:30.482025+00:00,10.949,8.445,,3.042,4.513,,,,
2025-10-18T10:19:31.091195+00:00,10.958,8.005,,6.710,3.659,,,,
2025-10-18T10:19:31.695218+00:00,10.966,8.277,,9.161,2.480,,,,
2025-10-18T10:19:32.307729+00:00,10.976,9.174,,9.999,1.056,,,,
2025-10-18T10:19:32.919989+00:00,10.985,10.371,,9.026,-0.466,,,,
2025-10-18T10:19:33.530251+00:00,10.996,11.431,,6.432,-1.940,,,,
2025-10-18T10:19:34.142588+00:00,11.006,11.974,,2.668,-3.239,,,,
2025-10-18T10:19:34.756658+00:00,11.017,11.799,,-1.591,-4.239,,,,
2025-10-18T10:19:35.368259+00:00,11.029,10.970,,-5.546,-4.840,,,,
2025-10-18T10:19:35.976396+00:00,11.040,9.797,,-8.487,-4.994,,,,
2025-10-18T10:19:36.580956+00:00,11.052,8.702,,-9.910,-4.692,,,,
2025-10-18T10:19:37.189713+00:00,11.064,8.065,,-9.576,-3.958,,,,
2025-10-18T10:19:37.804580+00:00,11.076,8.127,,-7.501,-2.848,,,,
2025-10-18T10:19:38.418020+00:00,11.088,8.873,,-4.067,-1.474,,,,
2025-10-18T10:19:39.026470+00:00,11.100,10.020,,0.071,0.025,,,,
2025-10-18T10:19:39.647128+00:00,11.113,11.179,,4.273,1.551,,,,
2025-10-18T10:19:40.260411+00:00,11.125,11.894,,7.649,2.913,,,,
2025-10-18T10:19:40.866954+00:00,11.137,11.922,,9.623,3.994,,,,
2025-10-18T10:19:41.476489+00:00,11.149,11.260,,9.886,4.713,,,,
2025-10-18T10:19:42.092294+00:00,11.161,10.131,,8.352,4.997,,,,
2025-10-18T10:19:42.704046+00:00,11.172,8.961,,5.314,4.815,,,,
2025-10-18T10:19:43.309434+00:00,11.183,8.173,,1.360,4.194,,,,
2025-10-18T10:19:43.916156+00:00,11.194,8.035,,-2.843,3.189,,,,
2025-10-18T10:19:44.528771+00:00,11.205,8.607,,-6.572,1.880,,,,
2025-10-18T10:19:45.143727+00:00,11.215,9.690,,-9.118,0.389,,,,
2025-10-18T10:19:45.754807+00:00,11.225,10.879,,-10.000,-1.128,,,,
2025-10-18T10:19:46.360047+00:00,11.234,11.745,,-9.097,-2.529,,,,
2025-10-18T10:19:46.975749+00:00,11.243,11.989,,-6.531,-3.717,,,,
2025-10-18T10:19:47.587683+00:00,11.251,11.507,,-2.795,-4.552,,,,
2025-10-18T10:19:48.191387+00:00,11.259,10.494,,1.389,-4.961,,,,
2025-10-18T10:19:48.795859+00:00,11.266,9.305,,5.333,-4.922,,,,
2025-10-18T10:19:49.409164+00:00,11.272,8.353,,8.370,-4.426,,,,
2025-10-18T10:19:50.024669+00:00,11.278,8.000,,9.890,-3.513,,,,
2025-10-18T10:19:50.639564+00:00,11.284,8.381,,9.604,-2.272,,,,
2025-10-18T10:19:51.254837+00:00,11.288,9.356,,7.565,-0.816,,,,
2025-10-18T10:19:51.866672+00:00,11.292,10.560,,4.165,0.707,,,,
2025-10-18T10:19:52.471462+00:00,11.295,11.553,,0.062,2.149,,,,
2025-10-18T10:19:53.082689+00:00,11.297,11.995,,-4.092,3.408,,,,
2025-10-18T10:19:53.698285+00:00,11.299,11.711,,-7.530,4.356,,,,
2025-10-18T10:19:54.320428+00:00,11.300,10.786,,-9.603,4.898,,,,
2025-10-18T10:19:54.924891+00:00,11.300,9.602,,-9.902,4.975,,,,
2025-10-18T10:19:55.538150+00:00,11.299,8.546,,-8.421,4.592,,,,
2025-10-18T10:19:56.146106+00:00,11.298,8.022,,-5.443,3.789,,,,
2025-10-18T10:19:56.760434+00:00,11.296,8.213,,-1.450,2.625,,,,
2025-10-18T10:19:57.371199+00:00,11.293,9.050,,2.783,1.224,,,,
2025-10-18T10:19:57.978929+00:00,11.290,10.225,,6.499,-0.282,,,,
2025-10-18T10:19:58.592141+00:00,11.285,11.328,,9.072,-1.776,,,,
2025-10-18T10:19:59.206513+00:00,11.280,11.947,,10.000,-3.106,,,,
2025-10-18T10:19:59.811635+00:00,11.275,11.861,,9.133,-4.132,,,,
2025-10-18T10:20:00.418929+00:00,11.268,11.110,,6.640,-4.785,,,,
2025-10-18T10:20:01.034017+00:00,11.261,9.947,,2.913,-5.000,,,,
2025-10-18T10:20:01.650157+00:00,11.254,8.801,,-1.353,-4.744,,,,
2025-10-18T10:20:02.264756+00:00,11.246,8.098,,-5.362,-4.044,,,,
2025-10-18T10:20:02.874716+00:00,11.237,8.087,,-8.376,-2.975,,,,
2025-10-18T10:20:03.481977+00:00,11.228,8.762,,-9.883,-1.637,,,,
2025-10-18T10:20:04.091970+00:00,11.218,9.886,,-9.627,-0.143,,,,
2025-10-18T10:20:04.697437+00:00,11.209,11.042,,-7.661,1.354,,,,
2025-10-18T10:20:05.309555+00:00,11.198,11.834,,-4.299,2.741,,,,
2025-10-18T10:20:05.920191+00:00,11.187,11.960,,-0.169,3.871,,,,
2025-10-18T10:20:06.542259+00:00,11.176,11.361,,4.064,4.654,,,,
2025-10-18T10:20:07.151939+00:00,11.164,10.277,,7.482,4.988,,,,
2025-10-18T10:20:07.761206+00:00,11.153,9.093,,9.556,4.862,,,,
2025-10-18T10:20:08.367163+00:00,11.141,8.239,,9.922,4.293,,,,
2025-10-18T10:20:08.979659+00:00,11.129,8.014,,8.505,3.321,,,,
2025-10-18T10:20:09.588578+00:00,11.117,8.506,,5.569,2.047,,,,
2025-10-18T10:20:10.200764+00:00,11.105,9.541,,1.614,0.578,,,,
2025-10-18T10:20:10.808434+00:00,11.092,10.735,,-2.603,-0.935,,,,
2025-10-18T10:20:11.426185+00:00,11.080,11.676,,-6.409,-2.384,,,,
2025-10-18T10:20:12.264236+00:00,11.064,11.932,,-9.587,-3.966,,,,
2025-10-18T10:20:12.924940+00:00,11.051,11.209,,-9.849,-4.739,,,,
2025-10-18T10:20:13.704467+00:00,11.036,9.740,,-7.520,-4.989,,,,
2025-10-18T10:20:14.412043+00:00,11.022,8.513,,-3.483,-4.567,,,,
2025-10-18T10:20:15.068289+00:00,11.011,8.006,,1.034,-3.668,,,,
2025-10-18T10:20:15.672232+00:00,11.000,8.272,,5.024,-2.491,,,,
2025-10-18T10:20:16.276303+00:00,10.990,9.150,,8.129,-1.089,,,,
2025-10-18T10:20:16.888362+00:00,10.980,10.344,,9.814,0.432,,,,
2025-10-18T10:20:17.504735+00:00,10.970,11.420,,9.717,1.922,,,,
2025-10-18T10:20:18.448358+00:00,10.956,11.974,,6.225,3.810,,,,
2025-10-18T10:20:19.056835+00:00,10.948,11.435,,2.435,4.605,,,,
2025-10-18T10:20:19.672871+00:00,10.940,10.366,,-1.841,4.979,,,,
2025-10-18T10:20:20.299447+00:00,10.933,9.144,,-5.841,4.878,,,,
2025-10-18T10:20:20.914535+00:00,10.927,8.258,,-8.696,4.317,,,,
2025-10-18T10:20:21.571637+00:00,10.921,8.021,,-9.984,3.273,,,,
2025-10-18T10:20:22.205472+00:00,10.915,8.575,,-9.260,1.931,,,,
2025-10-18T10:20:22.826130+00:00,10.911,9.657,,-6.810,0.431,,,,
2025-10-18T10:20:23.438675+00:00,10.907,10.852,,-3.149,-1.091,,,,
2025-10-18T10:20:24.045271+00:00,10.904,11.731,,1.041,-2.499,,,,
2025-10-18T10:20:24.657844+00:00,10.902,11.992,,5.082,-3.688,,,,
2025-10-18T10:20:25.267368+00:00,10.901,11.532,,8.191,-4.531,,,,
2025-10-18T10:20:25.872091+00:00,10.900,10.530,,9.824,-4.955,,,,
2025-10-18T10:20:26.479417+00:00,10.900,9.335,,9.720,-4.928,,,,
2025-10-18T10:20:27.092989+00:00,10.901,8.370,,7.857,-4.443,,,,
2025-10-18T10:20:27.702113+00:00,10.902,8.000,,4.596,-3.551,,,,
2025-10-18T10:20:28.312216+00:00,10.905,8.351,,0.504,-2.330,,,,
2025-10-18T10:20:28.920427+00:00,10.908,9.293,,-3.666,-0.899,,,,
2025-10-18T10:20:29.533999+00:00,10.911,10.499,,-7.207,0.629,,,,
2025-10-18T10:20:30.145333+00:00,10.916,11.520,,-9.434,2.092,,,,
2025-10-18T10:20:30.755017+00:00,10.921,11.990,,-9.961,3.359,,,,
2025-10-18T10:20:31.366024+00:00,10.927,11.742,,-8.696,4.317,,,,
2025-10-18T10:20:31.981432+00:00,10.933,10.856,,-5.839,4.878,,,,
2025-10-18T10:20:32.599821+00:00,10.940,9.649,,-1.896,4.981,,,,
2025-10-18T10:20:33.203610+00:00,10.948,8.593,,2.299,4.624,,,,
2025-10-18T10:20:33.807550+00:00,10.956,8.035,,6.089,3.850,,,,
2025-10-18T10:20:34.441331+00:00,10.965,8.197,,8.905,2.664,,,,
2025-10-18T10:20:35.057454+00:00,10.974,9.028,,9.992,1.255,,,,
2025-10-18T10:20:35.670505+00:00,10.984,10.211,,9.257,-0.264,,,,
2025-10-18T10:20:36.274531+00:00,10.994,11.303,,6.889,-1.737,,,,
2025-10-18T10:20:36.885346+00:00,11.005,11.938,,3.263,-3.066,,,,
2025-10-18T10:20:37.496917+00:00,11.016,11.871,,-0.955,-4.113,,,,
2025-10-18T10:20:38.111814+00:00,11.027,11.121,,-5.022,-4.780,,,,
2025-10-18T10:20:38.727447+00:00,11.039,9.958,,-8.175,-5.000,,,,
2025-10-18T10:20:39.342147+00:00,11.050,8.813,,-9.832,-4.750,,,,
2025-10-18T10:20:39.952661+00:00,11.062,8.105,,-9.704,-4.061,,,,
2025-10-18T10:20:40.559065+00:00,11.074,8.079,,-7.848,-3.004,,,,
2025-10-18T10:20:41.166137+00:00,11.086,8.739,,-4.595,-1.672,,,,
2025-10-18T10:20:41.775987+00:00,11.099,9.856,,-0.506,-0.181,,,,
2025-10-18T10:20:42.387947+00:00,11.111,11.028,,3.689,1.333,,,,
2025-10-18T10:20:43.003019+00:00,11.123,11.829,,7.231,2.729,,,,
2025-10-18T10:20:43.618396+00:00,11.135,11.960,,9.455,3.870,,,,
2025-10-18T10:20:44.235273+00:00,11.147,11.370,,9.950,4.648,,,,
2025-10-18T10:20:44.846106+00:00,11.159,10.286,,8.640,4.987,,,,
2025-10-18T10:20:45.456481+00:00,11.171,9.100,,5.776,4.865,,,,
2025-10-18T10:20:46.067266+00:00,11.182,8.239,,1.872,4.292,,,,
2025-10-18T10:20:46.684242+00:00,11.193,8.015,,-2.412,3.310,,,,
2025-10-18T10:20:47.301058+00:00,11.204,8.524,,-6.252,2.017,,,,
2025-10-18T10:20:47.904914+00:00,11.214,9.551,,-8.903,0.565,,,,
2025-10-18T10:20:48.513494+00:00,11.224,10.746,,-9.989,-0.949,,,,
2025-10-18T10:20:49.128944+00:00,11.233,11.680,,-9.271,-2.392,,,,
2025-10-18T10:20:49.741084+00:00,11.242,11.998,,-6.876,-3.604,,,,
2025-10-18T10:20:50.352962+00:00,11.250,11.591,,-3.239,-4.480,,,,
2025-10-18T10:20:50.956898+00:00,11.258,10.622,,0.927,-4.938,,,,
2025-10-18T10:20:51.574351+00:00,11.265,9.406,,5.013,-4.943,,,,
2025-10-18T10:20:52.185827+00:00,11.272,8.418,,8.152,-4.488,,,,
2025-10-18T10:20:52.793062+00:00,11.278,8.003,,9.815,-3.624,,,,
2025-10-18T10:20:53.402599+00:00,11.283,8.304,,9.727,-2.423,,,,
2025-10-18T10:20:54.017437+00:00,11.288,9.226,,7.873,-0.986,,,,
2025-10-18T10:20:54.648018+00:00,11.292,10.463,,4.484,0.582,,,,
2025-10-18T10:20:55.261209+00:00,11.295,11.498,,0.357,2.054,,,,
2025-10-18T10:20:55.867442+00:00,11.297,11.986,,-3.789,3.321,,,,
2025-10-18T10:20:56.475935+00:00,11.299,11.764,,-7.275,4.288,,,,
2025-10-18T10:20:57.082105+00:00,11.300,10.913,,-9.454,4.860,,,,
2025-10-18T10:20:57.689535+00:00,11.300,9.734,,-9.956,4.989,,,,
2025-10-18T10:20:58.304085+00:00,11.299,8.640,,-8.661,4.654,,,,
2025-10-18T10:20:58.920863+00:00,11.298,8.042,,-5.774,3.881,,,,
2025-10-18T10:20:59.532694+00:00,11.296,8.162,,-1.862,2.751,,,,
2025-10-18T10:21:00.140525+00:00,11.293,8.942,,2.360,1.375,,,,
2025-10-18T10:21:00.744502+00:00,11.290,10.093,,6.139,-0.117,,,,
2025-10-18T10:21:01.360519+00:00,11.286,11.231,,8.876,-1.627,,,,
2025-10-18T10:21:01.973750+00:00,11.281,11.914,,9.988,-2.978,,,,
2025-10-18T10:21:02.580012+00:00,11.275,11.904,,9.305,-4.041,,,,
2025-10-18T10:21:03.193355+00:00,11.269,11.204,,6.936,-4.741,,,,
2025-10-18T10:21:03.810981+00:00,11.262,10.057,,3.279,-4.999,,,,
2025-10-18T10:21:04.420257+00:00,11.255,8.903,,-0.923,-4.791,,,,
2025-10-18T10:21:05.026278+00:00,11.247,8.146,,-4.940,-4.145,,,,
2025-10-18T10:21:05.636715+00:00,11.238,8.051,,-8.099,-3.113,,,,
2025-10-18T10:21:06.249734+00:00,11.229,8.664,,-9.805,-1.788,,,,
2025-10-18T10:21:06.867603+00:00,11.219,9.774,,-9.726,-0.283,,,,
2025-10-18T10:21:07.475438+00:00,11.209,10.949,,-7.898,1.224,,,,
2025-10-18T10:21:08.085997+00:00,11.199,11.787,,-4.646,2.624,,,,
2025-10-18T10:21:08.696199+00:00,11.188,11.979,,-0.560,3.781,,,,
2025-10-18T10:21:09.318062+00:00,11.177,11.441,,3.703,4.601,,,,
2025-10-18T10:21:09.928411+00:00,11.165,10.386,,7.219,4.976,,,,
2025-10-18T10:21:10.536879+00:00,11.154,9.195,,9.433,4.893,,,,
2025-10-18T10:21:11.150052+00:00,11.142,8.288,,9.959,4.355,,,,
2025-10-18T10:21:11.758152+00:00,11.130,8.004,,8.695,3.419,,,,
2025-10-18T10:21:12.364193+00:00,11.118,8.433,,5.891,2.175,,,,
2025-10-18T10:21:12.973332+00:00,11.106,9.426,,2.022,0.725,,,,
2025-10-18T10:21:13.598819+00:00,11.093,10.657,,-2.321,-0.833,,,,
2025-10-18T10:21:14.204851+00:00,11.081,11.616,,-6.119,-2.266,,,,
2025-10-18T10:21:14.822615+00:00,11.069,12.000,,-8.870,-3.514,,,,
2025-10-18T10:21:15.429516+00:00,11.057,11.657,,-9.985,-4.416,,,,
2025-10-18T10:21:16.037142+00:00,11.045,10.721,,-9.322,-4.915,,,,
2025-10-18T10:21:16.646056+00:00,11.034,9.524,,-6.992,-4.964,,,,
2025-10-18T10:21:17.253451+00:00,11.022,8.500,,-3.420,-4.558,,,,
2025-10-18T10:21:17.863897+00:00,11.011,8.013,,0.781,-3.729,,,,
2025-10-18T10:21:18.488872+00:00,11.000,8.257,,4.931,-2.524,,,,
2025-10-18T10:21:19.097440+00:00,10.990,9.130,,8.086,-1.115,,,,
2025-10-18T10:21:19.704104+00:00,10.980,10.312,,9.792,0.391,,,,
2025-10-18T10:21:20.309990+00:00,10.970,11.382,,9.760,1.861,,,,
2025-10-18T10:21:20.928952+00:00,10.961,11.964,,7.943,3.186,,,,
2025-10-18T10:21:21.546173+00:00,10.953,11.820,,4.669,4.206,,,,
2025-10-18T10:21:22.155534+00:00,10.945,11.017,,0.592,4.823,,,,
2025-10-18T10:21:22.762430+00:00,10.937,9.853,,-3.575,4.997,,,,
2025-10-18T10:21:23.374130+00:00,10.931,8.734,,-7.130,4.709,,,,
2025-10-18T10:21:23.984476+00:00,10.924,8.075,,-9.395,3.987,,,,
2025-10-18T10:21:24.595017+00:00,10.919,8.111,,-9.970,2.896,,,,
2025-10-18T10:21:25.204011+00:00,10.914,8.827,,-8.757,1.541,,,,
2025-10-18T10:21:25.815840+00:00,10.910,9.971,,-5.961,0.037,,,,
2025-10-18T10:21:26.430195+00:00,10.906,11.129,,-2.071,-1.477,,,,
2025-10-18T10:21:27.035964+00:00,10.904,11.868,,2.138,-2.834,,,,
2025-10-18T10:21:27.642988+00:00,10.902,11.942,,5.975,-3.936,,,,
2025-10-18T10:21:28.253531+00:00,10.901,11.317,,8.761,-4.681,,,,
2025-10-18T10:21:28.866226+00:00,10.900,10.211,,9.973,-4.993,,,,
2025-10-18T10:21:29.476305+00:00,10.900,9.034,,9.384,-4.842,,,,
2025-10-18T10:21:30.090360+00:00,10.901,8.201,,7.090,-4.239,,,,
2025-10-18T10:21:30.709790+00:00,10.903,8.028,,3.471,-3.229,,,,
2025-10-18T10:21:31.324233+00:00,10.906,8.580,,-0.756,-1.923,,,,
2025-10-18T10:21:31.928699+00:00,10.909,9.632,,-4.784,-0.462,,,,
2025-10-18T10:21:32.535525+00:00,10.913,10.819,,-7.978,1.047,,,,
2025-10-18T10:21:33.149916+00:00,10.917,11.721,,-9.765,2.476,,,,
2025-10-18T10:21:33.764678+00:00,10.923,11.994,,-9.774,3.674,,,,
2025-10-18T10:21:34.370211+00:00,10.928,11.548,,-8.038,4.518,,,,
2025-10-18T10:21:34.976516+00:00,10.935,10.550,,-4.876,4.951,,,,
2025-10-18T10:21:35.585160+00:00,10.942,9.352,,-0.832,4.932,,,,
2025-10-18T10:21:36.200146+00:00,10.950,8.379,,3.403,4.452,,,,
2025-10-18T10:21:36.814572+00:00,10.958,8.000,,7.014,3.556,,,,
2025-10-18T10:21:37.419643+00:00,10.967,8.342,,9.324,2.347,,,,
2025-10-18T10:21:38.035146+00:00,10.977,9.292,,9.981,0.899,,,,
2025-10-18T10:21:38.646572+00:00,10.987,10.494,,8.828,-0.623,,,,
2025-10-18T10:21:39.251990+00:00,10.997,11.509,,6.116,-2.073,,,,
2025-10-18T10:21:39.855445+00:00,11.007,11.987,,2.335,-3.332,,,,
2025-10-18T10:21:40.466908+00:00,11.018,11.756,,-1.912,-4.299,,,,
2025-10-18T10:21:41.079905+00:00,11.030,10.885,,-5.822,-4.869,,,,
2025-10-18T10:21:41.690075+00:00,11.041,9.698,,-8.667,-4.986,,,,
2025-10-18T10:21:42.296002+00:00,11.053,8.626,,-9.952,-4.646,,,,
2025-10-18T10:21:42.905090+00:00,11.065,8.042,,-9.466,-3.877,,,,
2025-10-18T10:21:43.515007+00:00,11.077,8.162,,-7.281,-2.751,,,,
2025-10-18T10:21:44.127606+00:00,11.089,8.950,,-3.772,-1.364,,,,
2025-10-18T10:21:44.738324+00:00,11.101,10.116,,0.407,0.146,,,,
2025-10-18T10:21:45.352255+00:00,11.113,11.245,,4.533,1.649,,,,
2025-10-18T10:21:45.962424+00:00,11.126,11.917,,7.819,2.991,,,,
2025-10-18T10:21:46.570043+00:00,11.138,11.899,,9.694,4.052,,,,
2025-10-18T10:21:47.177539+00:00,11.149,11.201,,9.843,4.743,,,,
2025-10-18T10:21:47.789764+00:00,11.161,10.064,,8.219,4.999,,,,
2025-10-18T10:21:48.407770+00:00,11.173,8.894,,5.075,4.787,,,,
2025-10-18T10:21:49.017015+00:00,11.184,8.139,,1.056,4.133,,,,
2025-10-18T10:21:49.627492+00:00,11.195,8.055,,-3.161,3.097,,,,
2025-10-18T10:21:50.243633+00:00,11.206,8.682,,-6.837,1.761,,,,
2025-10-18T10:21:50.851475+00:00,11.216,9.777,,-9.240,0.279,,,,
2025-10-18T10:21:51.456342+00:00,11.225,10.947,,-9.995,-1.220,,,,
2025-10-18T10:21:52.062531+00:00,11.235,11.782,,-8.981,-2.612,,,,
2025-10-18T10:21:52.685297+00:00,11.244,11.977,,-6.284,-3.792,,,,
2025-10-18T10:21:53.298095+00:00,11.252,11.444,,-2.480,-4.599,,,,
2025-10-18T10:21:53.904683+00:00,11.259,10.398,,1.731,-4.975,,,,
2025-10-18T10:21:54.508461+00:00,11.266,9.215,,5.619,-4.899,,,,
2025-10-18T10:21:55.117800+00:00,11.273,8.303,,8.538,-4.372,,,,
2025-10-18T10:21:55.736396+00:00,11.279,8.004,,9.934,-3.427,,,,
2025-10-18T10:21:56.349484+00:00,11.284,8.437,,9.509,-2.168,,,,
2025-10-18T10:21:56.956000+00:00,11.288,9.427,,7.390,-0.724,,,,
2025-10-18T10:21:57.571520+00:00,11.292,10.639,,3.901,0.809,,,,
2025-10-18T10:21:58.183647+00:00,11.295,11.612,,-0.277,2.258,,,,
2025-10-18T10:21:58.787948+00:00,11.297,11.999,,-4.356,3.483,,,,
2025-10-18T10:21:59.392324+00:00,11.299,11.678,,-7.667,4.393,,,,
2025-10-18T10:22:00.008216+00:00,11.300,10.742,,-9.649,4.910,,,,
2025-10-18T10:22:00.628855+00:00,11.300,9.523,,-9.858,4.964,,,,
2025-10-18T10:22:01.248631+00:00,11.299,8.484,,-8.240,4.544,,,,
2025-10-18T10:22:01.855483+00:00,11.298,8.011,,-5.172,3.713,,,,
2025-10-18T10:22:02.468348+00:00,11.296,8.254,,-1.143,2.530,,,,
2025-10-18T10:22:03.073972+00:00,11.293,9.120,,3.044,1.129,,,,
2025-10-18T10:22:03.684493+00:00,11.289,10.308,,6.718,-0.387,,,,
2025-10-18T10:22:04.298538+00:00,11.285,11.391,,9.194,-1.875,,,,
2025-10-18T10:22:04.909142+00:00,11.280,11.964,,9.997,-3.182,,,,
2025-10-18T10:22:05.520072+00:00,11.274,11.826,,9.001,-4.194,,,,
2025-10-18T10:22:06.130572+00:00,11.268,11.029,,6.386,-4.818,,,,
2025-10-18T10:22:06.738363+00:00,11.261,9.866,,2.640,-4.997,,,,
2025-10-18T10:22:07.349133+00:00,11.253,8.746,,-1.597,-4.716,,,,
2025-10-18T10:22:07.959541+00:00,11.245,8.079,,-5.544,-3.998,,,,
2025-10-18T10:22:08.572177+00:00,11.237,8.108,,-8.503,-2.907,,,,
2025-10-18T10:22:09.188069+00:00,11.227,8.830,,-9.924,-1.537,,,,
2025-10-18T10:22:09.802668+00:00,11.218,9.980,,-9.532,-0.025,,,,
2025-10-18T10:22:10.409048+00:00,11.208,11.123,,-7.442,1.469,,,,
2025-10-18T10:22:11.019978+00:00,11.197,11.869,,-4.001,2.838,,,,
2025-10-18T10:22:11.624977+00:00,11.186,11.942,,0.119,3.935,,,,
2025-10-18T10:22:12.237178+00:00,11.175,11.315,,4.263,4.682,,,,
2025-10-18T10:22:12.855699+00:00,11.164,10.197,,7.665,4.994,,,,
2025-10-18T10:22:13.470131+00:00,11.152,9.014,,9.645,4.835,,,,
2025-10-18T10:22:14.079912+00:00,11.140,8.195,,9.873,4.229,,,,
2025-10-18T10:22:14.708298+00:00,11.128,8.033,,8.257,3.198,,,,
2025-10-18T10:22:15.330090+00:00,11.115,8.614,,5.108,1.868,,,,
2025-10-18T10:22:15.949655+00:00,11.103,9.708,,1.023,0.366,,,,
2025-10-18T10:22:16.563957+00:00,11.091,10.902,,-3.217,-1.159,,,,
2025-10-18T10:22:17.216249+00:00,11.078,11.800,,-7.062,-2.656,,,,
2025-10-18T10:22:17.836227+00:00,11.065,11.971,,-9.385,-3.822,,,,
2025-10-18T10:22:18.449738+00:00,11.053,11.418,,-9.971,-4.617,,,,
2025-10-18T10:22:19.053168+00:00,11.042,10.367,,-8.780,-4.979,,,,
2025-10-18T10:22:19.660606+00:00,11.030,9.179,,-6.023,-4.889,,,,
2025-10-18T10:22:20.275902+00:00,11.019,8.277,,-2.140,-4.341,,,,
2025-10-18T10:22:20.890517+00:00,11.008,8.007,,2.129,-3.387,,,,
2025-10-18T10:22:21.502842+00:00,10.997,8.463,,5.997,-2.121,,,,
2025-10-18T10:22:22.128361+00:00,10.987,9.504,,8.824,-0.625,,,,
2025-10-18T10:22:22.737877+00:00,10.977,10.702,,9.980,0.892,,,,
2025-10-18T10:22:23.344901+00:00,10.967,11.645,,9.353,2.322,,,,
2025-10-18T10:22:23.956934+00:00,10.958,12.000,,7.037,3.548,,,,
2025-10-18T10:22:24.567850+00:00,10.950,11.630,,3.456,4.443,,,,
2025-10-18T10:22:25.187844+00:00,10.942,10.654,,-0.810,4.931,,,,
2025-10-18T10:22:25.801010+00:00,10.935,9.447,,-4.885,4.951,,,,
2025-10-18T10:22:26.422492+00:00,10.928,8.431,,-8.107,4.500,,,,
2025-10-18T10:22:27.028529+00:00,10.922,8.004,,-9.798,3.645,,,,
2025-10-18T10:22:27.645960+00:00,10.917,8.300,,-9.734,2.433,,,,
2025-10-18T10:22:28.261269+00:00,10.912,9.219,,-7.890,0.996,,,,
2025-10-18T10:22:28.873519+00:00,10.909,10.419,,-4.622,-0.527,,,,
2025-10-18T10:22:29.493926+00:00,10.905,11.478,,-0.462,-2.019,,,,
2025-10-18T10:22:30.101247+00:00,10.903,11.983,,3.699,-3.295,,,,
2025-10-18T10:22:30.714524+00:00,10.901,11.773,,7.230,-4.276,,,,
2025-10-18T10:22:31.332869+00:00,10.900,10.908,,9.461,-4.862,,,,
2025-10-18T10:22:31.951816+00:00,10.900,9.705,,9.947,-4.986,,,,
2025-10-18T10:22:32.556156+00:00,10.901,8.634,,8.646,-4.651,,,,
2025-10-18T10:22:33.189839+00:00,10.902,8.034,,5.652,-3.847,,,,
2025-10-18T10:22:33.807451+00:00,10.904,8.184,,1.676,-2.694,,,,
2025-10-18T10:22:34.411718+00:00,10.907,8.982,,-2.519,-1.319,,,,
2025-10-18T10:22:35.015945+00:00,10.910,10.141,,-6.269,0.176,,,,
2025-10-18T10:22:35.630106+00:00,10.914,11.265,,-8.946,1.678,,,,
2025-10-18T10:22:36.242446+00:00,10.919,11.925,,-9.994,3.020,,,,
2025-10-18T10:22:36.866841+00:00,10.925,11.878,,-9.201,4.098,,,,
2025-10-18T10:22:37.470960+00:00,10.931,11.156,,-6.783,4.765,,,,
2025-10-18T10:22:38.086720+00:00,10.938,10.001,,-3.093,5.000,,,,
2025-10-18T10:22:38.703366+00:00,10.946,8.844,,1.169,4.765,,,,
2025-10-18T10:22:39.333104+00:00,10.954,8.105,,5.295,4.061,,,,
2025-10-18T10:22:39.974275+00:00,10.963,8.099,,8.451,2.935,,,,
2025-10-18T10:22:40.590621+00:00,10.972,8.809,,9.912,1.568,,,,
2025-10-18T10:22:41.202430+00:00,10.982,9.947,,9.566,0.066,,,,
2025-10-18T10:22:41.819519+00:00,10.992,11.114,,7.467,-1.455,,,,
2025-10-18T10:22:42.426101+00:00,11.003,11.862,,4.064,-2.818,,,,
2025-10-18T10:22:43.041853+00:00,11.014,11.942,,-0.125,-3.937,,,,
2025-10-18T10:22:43.651557+00:00,11.025,11.317,,-4.253,-4.681,,,,
2025-10-18T10:22:44.263520+00:00,11.036,10.213,,-7.628,-4.993,,,,
2025-10-18T10:22:44.875986+00:00,11.048,9.031,,-9.626,-4.841,,,,
2025-10-18T10:22:45.494162+00:00,11.060,8.196,,-9.875,-4.231,,,,
2025-10-18T10:22:46.106396+00:00,11.072,8.027,,-8.327,-3.232,,,,
2025-10-18T10:22:46.712482+00:00,11.084,8.566,,-5.309,-1.946,,,,
2025-10-18T10:22:47.316746+00:00,11.096,9.612,,-1.362,-0.487,,,,
2025-10-18T10:22:47.928869+00:00,11.108,10.810,,2.877,1.035,,,,
2025-10-18T10:22:48.540805+00:00,11.121,11.713,,6.595,2.460,,,,
2025-10-18T10:22:49.154129+00:00,11.133,11.995,,9.126,3.659,,,,
2025-10-18T10:22:49.758963+00:00,11.145,11.560,,10.000,4.508,,,,
2025-10-18T10:22:50.368674+00:00,11.156,10.562,,9.094,4.949,,,,
2025-10-18T10:22:50.977724+00:00,11.168,9.363,,6.560,4.934,,,,
2025-10-18T10:22:51.585050+00:00,11.179,8.395,,2.864,4.467,,,,
2025-10-18T10:22:52.199164+00:00,11.190,8.001,,-1.390,3.580,,,,
2025-10-18T10:22:52.817959+00:00,11.201,8.342,,-5.418,2.347,,,,
2025-10-18T10:22:53.432519+00:00,11.212,9.291,,-8.430,0.902,,,,
2025-10-18T10:22:54.040846+00:00,11.221,10.487,,-9.899,-0.613,,,,
2025-10-18T10:22:54.646865+00:00,11.231,11.505,,-9.605,-2.066,,,,
2025-10-18T10:22:55.258644+00:00,11.240,11.988,,-7.582,-3.341,,,,
2025-10-18T10:22:55.874827+00:00,11.248,11.747,,-4.161,-4.312,,,,
2025-10-18T10:22:56.487821+00:00,11.256,10.868,,-0.001,-4.875,,,,
2025-10-18T10:22:57.102293+00:00,11.264,9.670,,4.169,-4.983,,,,
2025-10-18T10:22:57.717985+00:00,11.270,8.592,,7.585,-4.623,,,,
2025-10-18T10:22:58.324833+00:00,11.277,8.033,,9.597,-3.843,,,,
2025-10-18T10:22:58.929025+00:00,11.282,8.175,,9.905,-2.718,,,,
2025-10-18T10:22:59.537809+00:00,11.287,8.971,,8.451,-1.335,,,,
2025-10-18T10:23:00.166265+00:00,11.291,10.176,,5.369,0.220,,,,
2025-10-18T10:23:00.777503+00:00,11.294,11.287,,1.384,1.713,,,,
2025-10-18T10:23:01.389187+00:00,11.297,11.933,,-2.853,3.048,,,,
2025-10-18T10:23:01.998018+00:00,11.299,11.879,,-6.560,4.096,,,,
2025-10-18T10:23:02.611407+00:00,11.300,11.143,,-9.106,4.770,,,,
2025-10-18T10:23:03.222035+00:00,11.300,9.996,,-10.000,5.000,,,,
2025-10-18T10:23:03.840479+00:00,11.300,8.837,,-9.071,4.761,,,,
2025-10-18T10:23:04.450525+00:00,11.298,8.115,,-6.514,4.083,,,,
2025-10-18T10:23:05.065305+00:00,11.297,8.075,,-2.754,3.018,,,,
2025-10-18T10:23:05.671607+00:00,11.294,8.727,,1.449,1.691,,,,
2025-10-18T10:23:06.278938+00:00,11.291,9.835,,5.401,0.206,,,,
2025-10-18T10:23:06.883171+00:00,11.287,10.997,,8.379,-1.289,,,,
2025-10-18T10:23:07.505107+00:00,11.282,11.820,,9.899,-2.706,,,,
2025-10-18T10:23:08.115668+00:00,11.277,11.966,,9.596,-3.844,,,,
2025-10-18T10:23:08.733735+00:00,11.270,11.391,,7.531,-4.635,,,,
2025-10-18T10:23:09.338837+00:00,11.264,10.327,,4.161,-4.983,,,,
2025-10-18T10:23:09.965082+00:00,11.256,9.109,,-0.092,-4.867,,,,
2025-10-18T10:23:10.569168+00:00,11.248,8.249,,-4.188,-4.306,,,,
2025-10-18T10:23:11.182228+00:00,11.240,8.012,,-7.586,-3.339,,,,
2025-10-18T10:23:11.799715+00:00,11.231,8.504,,-9.618,-2.050,,,,
2025-10-18T10:23:12.424246+00:00,11.221,9.563,,-9.873,-0.550,,,,
2025-10-18T10:23:13.036820+00:00,11.211,10.764,,-8.317,0.974,,,,
2025-10-18T10:23:13.648950+00:00,11.201,11.688,,-5.258,2.406,,,,
2025-10-18T10:23:14.254835+00:00,11.190,11.998,,-1.292,3.604,,,,
2025-10-18T10:23:14.863124+00:00,11.179,11.595,,2.920,4.477,,,,
2025-10-18T10:23:15.470489+00:00,11.168,10.621,,6.605,4.938,,,,
2025-10-18T10:23:16.086387+00:00,11.156,9.409,,9.138,4.944,,,,
2025-10-18T10:23:16.695720+00:00,11.144,8.422,,10.000,4.492,,,,
2025-10-18T10:23:17.311370+00:00,11.132,8.002,,9.051,3.615,,,,
2025-10-18T10:23:17.918145+00:00,11.120,8.307,,6.494,2.418,,,,
2025-10-18T10:23:18.527716+00:00,11.108,9.221,,2.765,0.994,,,,
2025-10-18T10:23:19.132541+00:00,11.096,10.406,,-1.428,-0.511,,,,
2025-10-18T10:23:19.747730+00:00,11.084,11.462,,-5.429,-1.993,,,,
2025-10-18T10:23:20.361018+00:00,11.071,11.981,,-8.432,-3.284,,,,
2025-10-18T10:23:20.979230+00:00,11.059,11.773,,-9.909,-4.275,,,,
2025-10-18T10:23:21.591202+00:00,11.047,10.920,,-9.572,-4.858,,,,
2025-10-18T10:23:22.200551+00:00,11.036,9.739,,-7.518,-4.989,,,,
2025-10-18T10:23:22.804588+00:00,11.024,8.659,,-4.150,-4.666,,,,
2025-10-18T10:23:23.416398+00:00,11.013,8.050,,0.004,-3.908,,,,
2025-10-18T10:23:24.027637+00:00,11.002,8.148,,4.153,-2.789,,,,
2025-10-18T10:23:24.640713+00:00,10.992,8.920,,7.561,-1.407,,,,
2025-10-18T10:23:25.244358+00:00,10.982,10.067,,9.580,0.083,,,,
2025-10-18T10:23:25.856121+00:00,10.972,11.202,,9.906,1.585,,,,
2025-10-18T10:23:26.462028+00:00,10.963,11.899,,8.464,2.927,,,,
2025-10-18T10:23:27.072757+00:00,10.955,11.916,,5.495,4.011,,,,
2025-10-18T10:23:27.687808+00:00,10.946,11.234,,1.507,4.726,,,,
2025-10-18T10:23:28.299483+00:00,10.939,10.106,,-2.734,4.998,,,,
2025-10-18T10:23:28.914247+00:00,10.932,8.935,,-6.498,4.804,,,,
2025-10-18T10:23:29.528097+00:00,10.926,8.154,,-9.074,4.161,,,,
2025-10-18T10:23:30.131971+00:00,10.920,8.043,,-9.999,3.148,,,,
2025-10-18T10:23:30.742116+00:00,10.915,8.634,,-9.147,1.836,,,,
2025-10-18T10:23:31.349556+00:00,10.911,9.712,,-6.666,0.361,,,,
2025-10-18T10:23:31.967286+00:00,10.907,10.911,,-2.928,-1.172,,,,
2025-10-18T10:23:32.582807+00:00,10.904,11.772,,1.333,-2.589,,,,
2025-10-18T10:23:33.194337+00:00,10.902,11.983,,5.327,-3.757,,,,
2025-10-18T10:23:33.805182+00:00,10.901,11.477,,8.357,-4.575,,,,
2025-10-18T10:23:34.416322+00:00,10.900,10.436,,9.882,-4.970,,,,
2025-10-18T10:23:35.023875+00:00,10.900,9.243,,9.633,-4.906,,,,
2025-10-18T10:23:35.635345+00:00,10.901,8.318,,7.651,-4.389,,,,
2025-10-18T10:23:36.250054+00:00,10.903,8.002,,4.267,-3.458,,,,
2025-10-18T10:23:36.873556+00:00,10.905,8.429,,0.044,-2.184,,,,
2025-10-18T10:23:37.478628+00:00,10.908,9.411,,-4.070,-0.744,,,,
2025-10-18T10:23:38.091823+00:00,10.912,10.618,,-7.502,0.783,,,,
2025-10-18T10:23:38.695691+00:00,10.916,11.589,,-9.554,2.216,,,,
2025-10-18T10:23:39.318024+00:00,10.922,11.999,,-9.908,3.482,,,,
2025-10-18T10:23:39.930357+00:00,10.927,11.671,,-8.448,4.401,,,,
2025-10-18T10:23:40.543710+00:00,10.934,10.733,,-5.454,4.912,,,,
2025-10-18T10:23:41.155452+00:00,10.941,9.532,,-1.481,4.965,,,,
2025-10-18T10:23:41.765972+00:00,10.949,8.501,,2.751,4.558,,,,
2025-10-18T10:23:42.375351+00:00,10.957,8.013,,6.482,3.732,,,,
2025-10-18T10:23:42.993048+00:00,10.966,8.248,,9.077,2.544,,,,
2025-10-18T10:23:43.603868+00:00,10.975,9.118,,10.000,1.132,,,,
2025-10-18T10:23:44.207805+00:00,10.985,10.293,,9.142,-0.368,,,,
2025-10-18T10:23:44.823168+00:00,10.995,11.382,,6.615,-1.860,,,,
2025-10-18T10:23:45.442405+00:00,11.006,11.964,,2.854,-3.186,,,,
2025-10-18T10:23:46.055843+00:00,11.017,11.823,,-1.396,-4.201,,,,
2025-10-18T10:23:46.661988+00:00,11.028,11.029,,-5.348,-4.819,,,,
2025-10-18T10:23:47.269210+00:00,11.039,9.866,,-8.357,-4.997,,,,
2025-10-18T10:23:47.876349+00:00,11.051,8.752,,-9.878,-4.719,,,,
2025-10-18T10:23:48.484670+00:00,11.063,8.083,,-9.639,-4.007,,,,
2025-10-18T10:23:49.094922+00:00,11.075,8.103,,-7.670,-2.923,,,,
2025-10-18T10:23:49.714778+00:00,11.087,8.823,,-4.262,-1.547,,,,
2025-10-18T10:23:50.323892+00:00,11.100,9.960,,-0.139,-0.050,,,,
2025-10-18T10:23:50.932598+00:00,11.112,11.111,,4.006,1.451,,,,
2025-10-18T10:23:51.537024+00:00,11.124,11.859,,7.415,2.809,,,,
2025-10-18T10:23:52.145433+00:00,11.136,11.947,,9.524,3.919,,,,
2025-10-18T10:23:52.755654+00:00,11.148,11.333,,9.931,4.671,,,,
2025-10-18T10:23:53.365011+00:00,11.160,10.240,,8.556,4.991,,,,
2025-10-18T10:23:53.984949+00:00,11.171,9.042,,5.587,4.845,,,,
2025-10-18T10:23:54.596067+00:00,11.183,8.208,,1.643,4.249,,,,
2025-10-18T10:23:55.211010+00:00,11.194,8.024,,-2.623,3.252,,,,
2025-10-18T10:23:55.815667+00:00,11.204,8.550,,-6.355,1.973,,,,
2025-10-18T10:23:56.425251+00:00,11.214,9.599,,-8.981,0.504,,,,
2025-10-18T10:23:57.040641+00:00,11.224,10.804,,-9.997,-1.027,,,,
2025-10-18T10:23:57.649805+00:00,11.233,11.707,,-9.204,-2.447,,,,
2025-10-18T10:23:58.259784+00:00,11.242,11.996,,-6.758,-3.643,,,,
2025-10-18T10:23:58.865621+00:00,11.251,11.570,,-3.126,-4.499,,,,
2025-10-18T10:23:59.474014+00:00,11.258,10.581,,1.078,-4.946,,,,
2025-10-18T10:24:00.084076+00:00,11.265,9.379,,5.098,-4.938,,,,
2025-10-18T10:24:00.692406+00:00,11.272,8.404,,8.196,-4.476,,,,
2025-10-18T10:24:01.302310+00:00,11.278,8.001,,9.833,-3.600,,,,
2025-10-18T10:24:01.915555+00:00,11.283,8.323,,9.698,-2.385,,,,
2025-10-18T10:24:02.522179+00:00,11.288,9.243,,7.833,-0.964,,,,
2025-10-18T10:24:03.135934+00:00,11.292,10.448,,4.531,0.563,,,,
2025-10-18T10:24:03.740902+00:00,11.295,11.477,,0.468,2.018,,,,
2025-10-18T10:24:04.354094+00:00,11.297,11.984,,-3.732,3.304,,,,
2025-10-18T10:24:04.964921+00:00,11.299,11.770,,-7.243,4.280,,,,
2025-10-18T10:24:05.578251+00:00,11.300,10.912,,-9.456,4.861,,,,
2025-10-18T10:24:06.190710+00:00,11.300,9.723,,-9.953,4.988,,,,
2025-10-18T10:24:06.804148+00:00,11.299,8.633,,-8.645,4.650,,,,
2025-10-18T10:24:07.407999+00:00,11.298,8.046,,-5.822,3.894,,,,
2025-10-18T10:24:08.021798+00:00,11.296,8.157,,-1.906,2.764,,,,
2025-10-18T10:24:08.635654+00:00,11.293,8.941,,2.357,1.376,,,,
2025-10-18T10:24:09.250279+00:00,11.290,10.114,,6.195,-0.142,,,,
2025-10-18T10:24:09.860127+00:00,11.286,11.237,,8.890,-1.636,,,,
2025-10-18T10:24:10.470097+00:00,11.281,11.914,,9.988,-2.979,,,,
2025-10-18T10:24:11.078465+00:00,11.275,11.902,,9.297,-4.045,,,,
2025-10-18T10:24:11.685986+00:00,11.269,11.209,,6.950,-4.739,,,,
2025-10-18T10:24:12.294883+00:00,11.262,10.080,,3.356,-4.999,,,,
2025-10-18T10:24:12.911762+00:00,11.255,8.909,,-0.895,-4.793,,,,
2025-10-18T10:24:13.519729+00:00,11.247,8.147,,-4.927,-4.148,,,,
2025-10-18T10:24:14.134637+00:00,11.238,8.052,,-8.109,-3.109,,,,
2025-10-18T10:24:14.747761+00:00,11.229,8.668,,-9.809,-1.782,,,,
2025-10-18T10:24:15.356743+00:00,11.219,9.761,,-9.736,-0.299,,,,
2025-10-18T10:24:15.962166+00:00,11.210,10.934,,-7.936,1.202,,,,
2025-10-18T10:24:16.569798+00:00,11.199,11.776,,-4.718,2.599,,,,
2025-10-18T10:24:17.186606+00:00,11.188,11.981,,-0.596,3.773,,,,
2025-10-18T10:24:17.810650+00:00,11.177,11.445,,3.684,4.598,,,,
2025-10-18T10:24:18.415807+00:00,11.166,10.402,,7.180,4.974,,,,
2025-10-18T10:24:19.026157+00:00,11.154,9.206,,9.418,4.896,,,,
2025-10-18T10:24:19.635647+00:00,11.142,8.298,,9.965,4.367,,,,
2025-10-18T10:24:20.246008+00:00,11.130,8.003,,8.722,3.433,,,,
2025-10-18T10:24:20.855314+00:00,11.118,8.428,,5.916,2.185,,,,
2025-10-18T10:24:21.459731+00:00,11.106,9.409,,2.085,0.747,,,,
2025-10-18T10:24:22.075536+00:00,11.094,10.621,,-2.193,-0.786,,,,
2025-10-18T10:24:22.686159+00:00,11.081,11.599,,-6.040,-2.234,,,,
2025-10-18T10:24:23.290977+00:00,11.069,11.998,,-8.781,-3.465,,,,
2025-10-18T10:24:23.898130+00:00,11.058,11.686,,-9.973,-4.384,,,,
2025-10-18T10:24:24.517488+00:00,11.046,10.749,,-9.360,-4.908,,,,
2025-10-18T10:24:25.134690+00:00,11.034,9.538,,-7.027,-4.966,,,,
2025-10-18T10:24:25.755906+00:00,11.022,8.491,,-3.375,-4.551,,,,
2025-10-18T10:24:26.360353+00:00,11.011,8.012,,0.788,-3.728,,,,
2025-10-18T10:24:26.973114+00:00,11.000,8.246,,4.862,-2.549,,,,
2025-10-18T10:24:27.580331+00:00,10.990,9.107,,8.033,-1.146,,,,
2025-10-18T10:24:28.185149+00:00,10.980,10.284,,9.771,0.355,,,,
2025-10-18T10:24:28.793489+00:00,10.971,11.364,,9.778,1.833,,,,
2025-10-18T10:24:29.409542+00:00,10.961,11.958,,8.006,3.157,,,,
2025-10-18T10:24:30.031315+00:00,10.953,11.828,,4.733,4.192,,,,
2025-10-18T10:24:30.638175+00:00,10.945,11.039,,0.682,4.815,,,,
2025-10-18T10:24:31.250370+00:00,10.937,9.868,,-3.525,4.997,,,,
2025-10-18T10:24:31.861162+00:00,10.931,8.748,,-7.088,4.717,,,,
2025-10-18T10:24:32.473445+00:00,10.924,8.079,,-9.379,3.997,,,,
2025-10-18T10:24:33.082319+00:00,10.919,8.106,,-9.974,2.913,,,,
2025-10-18T10:24:33.691920+00:00,10.914,8.815,,-8.783,1.559,,,,
2025-10-18T10:24:34.305334+00:00,10.910,9.958,,-5.995,0.052,,,,
2025-10-18T10:24:34.916271+00:00,10.906,11.113,,-2.135,-1.454,,,,
2025-10-18T10:24:35.520685+00:00,10.904,11.860,,2.064,-2.812,,,,
2025-10-18T10:24:36.124470+00:00,10.902,11.948,,5.896,-3.914,,,,
2025-10-18T10:24:36.740626+00:00,10.901,11.329,,8.732,-4.673,,,,
2025-10-18T10:24:37.357006+00:00,10.900,10.221,,9.970,-4.992,,,,
2025-10-18T10:24:37.970305+00:00,10.900,9.037,,9.387,-4.843,,,,
2025-10-18T10:24:38.576381+00:00,10.901,8.210,,7.137,-4.251,,,,
2025-10-18T10:24:39.185903+00:00,10.903,8.022,,3.598,-3.266,,,,
2025-10-18T10:24:39.801472+00:00,10.905,8.554,,-0.628,-1.965,,,,
2025-10-18T10:24:40.409530+00:00,10.909,9.603,,-4.693,-0.499,,,,
2025-10-18T10:24:41.023555+00:00,10.913,10.805,,-7.946,1.028,,,,
2025-10-18T10:24:41.641534+00:00,10.917,11.717,,-9.759,2.468,,,,
2025-10-18T10:24:42.251674+00:00,10.922,11.995,,-9.786,3.660,,,,
2025-10-18T10:24:42.860400+00:00,10.928,11.555,,-8.061,4.513,,,,
2025-10-18T10:24:43.464389+00:00,10.935,10.565,,-4.923,4.949,,,,
2025-10-18T10:24:44.077494+00:00,10.942,9.358,,-0.854,4.933,,,,
2025-10-18T10:24:44.695095+00:00,10.950,8.380,,3.399,4.453,,,,
2025-10-18T10:24:45.300540+00:00,10.958,8.000,,6.966,3.573,,,,
2025-10-18T10:24:45.911636+00:00,10.967,8.338,,9.314,2.355,,,,
2025-10-18T10:24:46.529482+00:00,10.977,9.290,,9.982,0.902,,,,
2025-10-18T10:24:47.134455+00:00,10.986,10.479,,8.854,-0.603,,,,
2025-10-18T10:24:47.748479+00:00,10.997,11.510,,6.111,-2.075,,,,
2025-10-18T10:24:48.352024+00:00,11.007,11.988,,2.328,-3.334,,,,
2025-10-18T10:24:48.957429+00:00,11.018,11.761,,-1.877,-4.293,,,,
2025-10-18T10:24:49.568702+00:00,11.029,10.897,,-5.784,-4.865,,,,
2025-10-18T10:24:50.182839+00:00,11.041,9.704,,-8.657,-4.986,,,,
2025-10-18T10:24:50.796577+00:00,11.053,8.619,,-9.955,-4.641,,,,
2025-10-18T10:24:51.401354+00:00,11.065,8.041,,-9.464,-3.876,,,,
2025-10-18T10:24:52.015290+00:00,11.077,8.166,,-7.258,-2.741,,,,
2025-10-18T10:24:52.622044+00:00,11.089,8.948,,-3.779,-1.366,,,,
2025-10-18T10:24:53.229395+00:00,11.101,10.107,,0.376,0.134,,,,
2025-10-18T10:24:53.841197+00:00,11.113,11.235,,4.492,1.633,,,,
2025-10-18T10:24:54.451303+00:00,11.125,11.914,,7.789,2.977,,,,
2025-10-18T10:24:55.065631+00:00,11.138,11.899,,9.694,4.052,,,,
2025-10-18T10:24:55.672507+00:00,11.149,11.202,,9.844,4.742,,,,
2025-10-18T10:24:56.283592+00:00,11.161,10.067,,8.226,4.999,,,,
2025-10-18T10:24:56.894199+00:00,11.173,8.909,,5.129,4.793,,,,
2025-10-18T10:24:57.508366+00:00,11.184,8.142,,1.085,4.139,,,,
2025-10-18T10:24:58.120182+00:00,11.195,8.054,,-3.142,3.102,,,,
2025-10-18T10:24:58.737643+00:00,11.206,8.679,,-6.829,1.764,,,,
2025-10-18T10:24:59.345299+00:00,11.216,9.773,,-9.235,0.284,,,,
2025-10-18T10:24:59.959431+00:00,11.226,10.960,,-9.993,-1.238,,,,
2025-10-18T10:25:00.563082+00:00,11.235,11.786,,-8.966,-2.622,,,,
2025-10-18T10:25:01.170792+00:00,11.243,11.980,,-6.339,-3.776,,,,
2025-10-18T10:25:01.788719+00:00,11.252,11.451,,-2.513,-4.594,,,,
2025-10-18T10:25:02.398319+00:00,11.259,10.401,,1.718,-4.974,,,,
2025-10-18T10:25:03.010391+00:00,11.266,9.203,,5.656,-4.895,,,,
2025-10-18T10:25:03.618341+00:00,11.273,8.298,,8.556,-4.366,,,,
2025-10-18T10:25:04.227902+00:00,11.279,8.003,,9.931,-3.434,,,,
2025-10-18T10:25:04.841009+00:00,11.284,8.432,,9.518,-2.177,,,,
2025-10-18T10:25:05.448390+00:00,11.288,9.421,,7.405,-0.731,,,,
2025-10-18T10:25:06.059163+00:00,11.292,10.624,,3.952,0.790,,,,
2025-10-18T10:25:06.669150+00:00,11.295,11.600,,-0.207,2.236,,,,
2025-10-18T10:25:07.285377+00:00,11.297,11.999,,-4.368,3.487,,,,
2025-10-18T10:25:07.895414+00:00,11.299,11.670,,-7.701,4.402,,,,
2025-10-18T10:25:08.499616+00:00,11.300,10.749,,-9.641,4.908,,,,
2025-10-18T10:25:09.114093+00:00,11.300,9.543,,-9.870,4.967,,,,
2025-10-18T10:25:09.729035+00:00,11.299,8.504,,-8.299,4.560,,,,
2025-10-18T10:25:10.346113+00:00,11.298,8.012,,-5.202,3.722,,,,
2025-10-18T10:25:10.961244+00:00,11.296,8.251,,-1.162,2.536,,,,
2025-10-18T10:25:11.574932+00:00,11.293,9.130,,3.080,1.116,,,,
2025-10-18T10:25:12.183823+00:00,11.289,10.316,,6.738,-0.396,,,,
2025-10-18T10:25:12.787307+00:00,11.285,11.381,,9.175,-1.859,,,,
2025-10-18T10:25:13.395775+00:00,11.280,11.960,,9.999,-3.164,,,,
2025-10-18T10:25:14.018125+00:00,11.274,11.824,,8.993,-4.198,,,,
2025-10-18T10:25:14.637430+00:00,11.268,11.010,,6.325,-4.826,,,,
2025-10-18T10:25:15.246356+00:00,11.261,9.841,,2.556,-4.996,,,,
2025-10-18T10:25:15.861313+00:00,11.253,8.720,,-1.711,-4.702,,,,
2025-10-18T10:25:16.469539+00:00,11.245,8.071,,-5.628,-3.976,,,,
2025-10-18T10:25:17.079491+00:00,11.237,8.116,,-8.546,-2.883,,,,
2025-10-18T10:25:17.689544+00:00,11.227,8.840,,-9.929,-1.523,,,,
2025-10-18T10:25:18.299654+00:00,11.218,9.983,,-9.529,-0.022,,,,
2025-10-18T10:25:18.923762+00:00,11.207,11.155,,-7.351,1.514,,,,
2025-10-18T10:25:19.533441+00:00,11.197,11.882,,-3.886,2.875,,,,
2025-10-18T10:25:20.141158+00:00,11.186,11.932,,0.263,3.967,,,,
2025-10-18T10:25:20.745311+00:00,11.175,11.296,,4.342,4.693,,,,
2025-10-18T10:25:21.362134+00:00,11.163,10.175,,7.714,4.995,,,,
2025-10-18T10:25:21.975924+00:00,11.152,8.996,,9.663,4.828,,,,
2025-10-18T10:25:22.591065+00:00,11.140,8.182,,9.855,4.208,,,,
2025-10-18T10:25:23.195908+00:00,11.128,8.031,,8.288,3.213,,,,
2025-10-18T10:25:23.810531+00:00,11.116,8.592,,5.199,1.903,,,,
2025-10-18T10:25:24.422041+00:00,11.103,9.663,,1.184,0.423,,,,
2025-10-18T10:25:25.030356+00:00,11.091,10.850,,-3.023,-1.088,,,,
2025-10-18T10:25:25.635591+00:00,11.079,11.729,,-6.675,-2.493,,,,
2025-10-18T10:25:26.255409+00:00,11.067,11.991,,-9.187,-3.696,,,,
2025-10-18T10:25:26.869574+00:00,11.055,11.520,,-9.997,-4.541,,,,
2025-10-18T10:25:27.474891+00:00,11.043,10.511,,-9.015,-4.958,,,,
2025-10-18T10:25:28.089027+00:00,11.031,9.303,,-6.392,-4.921,,,,
2025-10-18T10:25:28.698568+00:00,11.020,8.355,,-2.636,-4.429,,,,
2025-10-18T10:25:29.318485+00:00,11.009,8.000,,1.665,-3.510,,,,
2025-10-18T10:25:29.932883+00:00,10.998,8.383,,5.624,-2.269,,,,
2025-10-18T10:25:30.536750+00:00,10.988,9.337,,8.521,-0.841,,,,
2025-10-18T10:25:31.164428+00:00,10.978,10.571,,9.938,0.722,,,,
2025-10-18T10:25:31.777568+00:00,10.968,11.570,,9.499,2.181,,,,
2025-10-18T10:25:32.382043+00:00,10.959,11.996,,7.378,3.421,,,,
2025-10-18T10:25:32.989415+00:00,10.951,11.711,,3.937,4.355,,,,
2025-10-18T10:25:33.606182+00:00,10.943,10.798,,-0.270,4.895,,,,
2025-10-18T10:25:34.224320+00:00,10.936,9.587,,-4.437,4.973,,,,
2025-10-18T10:25:34.838234+00:00,10.929,8.535,,-7.767,4.584,,,,
2025-10-18T10:25:35.446174+00:00,10.923,8.020,,-9.675,3.776,,,,
2025-10-18T10:25:36.055336+00:00,10.918,8.215,,-9.855,2.619,,,,
2025-10-18T10:25:36.665112+00:00,10.913,9.054,,-8.267,1.220,,,,
2025-10-18T10:25:37.274199+00:00,10.909,10.232,,-5.201,-0.290,,,,
2025-10-18T10:25:37.886502+00:00,10.906,11.332,,-1.181,-1.781,,,,
2025-10-18T10:25:38.503811+00:00,10.903,11.950,,3.087,-3.116,,,,
2025-10-18T10:25:39.116095+00:00,10.901,11.852,,6.760,-4.150,,,,
2025-10-18T10:25:39.724316+00:00,10.900,11.088,,9.200,-4.795,,,,
2025-10-18T10:25:40.330985+00:00,10.900,9.937,,9.998,-4.999,,,,
2025-10-18T10:25:40.940838+00:00,10.900,8.804,,9.009,-4.745,,,,
2025-10-18T10:25:41.549406+00:00,10.902,8.102,,6.411,-4.055,,,,
2025-10-18T10:25:42.167293+00:00,10.903,8.088,,2.603,-2.974,,,,
2025-10-18T10:25:42.778067+00:00,10.906,8.769,,-1.634,-1.627,,,,
2025-10-18T10:25:43.389511+00:00,10.909,9.897,,-5.582,-0.129,,,,
2025-10-18T10:25:43.996238+00:00,10.914,11.054,,-8.505,1.370,,,,
2025-10-18T10:25:44.605450+00:00,10.918,11.837,,-9.919,2.749,,,,
2025-10-18T10:25:45.213410+00:00,10.924,11.960,,-9.559,3.873,,,,
2025-10-18T10:25:45.834654+00:00,10.930,11.360,,-7.432,4.654,,,,
2025-10-18T10:25:46.442262+00:00,10.937,10.280,,-4.009,4.988,,,,
2025-10-18T10:25:47.049136+00:00,10.944,9.101,,0.123,4.865,,,,
2025-10-18T10:25:47.658648+00:00,10.952,8.240,,4.250,4.294,,,,
2025-10-18T10:25:48.266613+00:00,10.960,8.013,,7.608,3.330,,,,
2025-10-18T10:25:48.874090+00:00,10.969,8.497,,9.608,2.062,,,,
2025-10-18T10:25:49.488615+00:00,10.979,9.533,,9.889,0.588,,,,
2025-10-18T10:25:50.098150+00:00,10.989,10.730,,8.387,-0.929,,,,
2025-10-18T10:25:50.708637+00:00,10.999,11.666,,5.376,-2.363,,,,
2025-10-18T10:25:51.315675+00:00,11.010,12.000,,1.422,-3.572,,,,
2025-10-18T10:25:51.920762+00:00,11.021,11.621,,-2.772,-4.452,,,,
2025-10-18T10:25:52.539619+00:00,11.032,10.641,,-6.549,-4.934,,,,
2025-10-18T10:25:53.146104+00:00,11.044,9.447,,-9.080,-4.951,,,,
2025-10-18T10:25:53.752932+00:00,11.055,8.450,,-10.000,-4.516,,,,
2025-10-18T10:25:54.363348+00:00,11.067,8.005,,-9.131,-3.663,,,,
2025-10-18T10:25:54.978712+00:00,11.079,8.287,,-6.595,-2.460,,,,
2025-10-18T10:25:55.590123+00:00,11.092,9.189,,-2.880,-1.036,,,,
2025-10-18T10:25:56.200322+00:00,11.104,10.383,,1.345,0.481,,,,
2025-10-18T10:25:56.817740+00:00,11.116,11.449,,5.372,1.971,,,,
2025-10-18T10:25:57.432912+00:00,11.128,11.979,,8.403,3.269,,,,
2025-10-18T10:25:58.039620+00:00,11.140,11.791,,9.890,4.250,,,,
2025-10-18T10:25:58.650587+00:00,11.152,10.956,,9.612,4.845,,,,
2025-10-18T10:25:59.270197+00:00,11.164,9.758,,7.563,4.991,,,,
2025-10-18T10:25:59.881813+00:00,11.176,8.662,,4.165,4.668,,,,
2025-10-18T10:26:00.492298+00:00,11.187,8.052,,0.022,3.914,,,,
2025-10-18T10:26:01.101231+00:00,11.198,8.144,,-4.114,2.802,,,,
2025-10-18T10:26:01.715300+00:00,11.208,8.912,,-7.538,1.419,,,,
2025-10-18T10:26:02.327324+00:00,11.218,10.073,,-9.587,-0.092,,,,
2025-10-18T10:26:02.941708+00:00,11.228,11.212,,-9.900,-1.599,,,,
2025-10-18T10:26:03.549055+00:00,11.237,11.903,,-8.437,-2.942,,,,
2025-10-18T10:26:04.164328+00:00,11.246,11.909,,-5.425,-4.028,,,,
2025-10-18T10:26:04.777899+00:00,11.254,11.217,,-1.434,-4.735,,,,
2025-10-18T10:26:05.381432+00:00,11.261,10.102,,2.750,-4.998,,,,
2025-10-18T10:26:05.987815+00:00,11.268,8.945,,6.465,-4.808,,,,
2025-10-18T10:26:06.604643+00:00,11.274,8.157,,9.064,-4.165,,,,
2025-10-18T10:26:07.230481+00:00,11.280,8.051,,10.000,-3.112,,,,
2025-10-18T10:26:08.366519+00:00,11.289,9.588,,6.986,-0.517,,,,
2025-10-18T10:26:08.983645+00:00,11.293,10.797,,3.349,1.017,,,,
2025-10-18T10:26:09.587360+00:00,11.295,11.697,,-0.810,2.427,,,,
2025-10-18T10:26:10.191981+00:00,11.298,11.998,,-4.832,3.618,,,,
2025-10-18T10:26:10.794569+00:00,11.299,11.592,,-7.993,4.479,,,,
2025-10-18T10:26:11.402362+00:00,11.300,10.616,,-9.761,4.939,,,,
2025-10-18T10:26:12.011084+00:00,11.300,9.417,,-9.787,4.945,,,,
2025-10-18T10:26:12.622468+00:00,11.299,8.425,,-8.051,4.495,,,,
2025-10-18T10:26:13.227866+00:00,11.298,8.003,,-4.900,3.637,,,,
2025-10-18T10:26:13.835833+00:00,11.296,8.294,,-0.864,2.444,,,,
2025-10-18T10:26:14.438655+00:00,11.293,9.187,,3.292,1.038,,,,
2025-10-18T10:26:15.048381+00:00,11.289,10.380,,6.905,-0.478,,,,
2025-10-18T10:26:15.657087+00:00,11.285,11.435,,9.277,-1.947,,,,
2025-10-18T10:26:16.269550+00:00,11.280,11.975,,9.989,-3.245,,,,
2025-10-18T10:26:16.873081+00:00,11.274,11.805,,8.921,-4.229,,,,
2025-10-18T10:26:17.481388+00:00,11.268,10.989,,6.259,-4.834,,,,
2025-10-18T10:26:18.084512+00:00,11.261,9.828,,2.513,-4.995,,,,
2025-10-18T10:26:18.695259+00:00,11.253,8.717,,-1.726,-4.700,,,,
2025-10-18T10:26:19.303397+00:00,11.245,8.070,,-5.639,-3.973,,,,
2025-10-18T10:26:19.909769+00:00,11.237,8.115,,-8.540,-2.886,,,,
2025-10-18T10:26:20.519894+00:00,11.227,8.837,,-9.928,-1.526,,,,
2025-10-18T10:26:21.129674+00:00,11.218,9.979,,-9.533,-0.027,,,,
2025-10-18T10:26:21.732739+00:00,11.208,11.117,,-7.459,1.460,,,,
2025-10-18T10:26:22.339159+00:00,11.197,11.863,,-4.054,2.821,,,,
2025-10-18T10:26:22.945965+00:00,11.187,11.945,,0.074,3.926,,,,
2025-10-18T10:26:23.559006+00:00,11.175,11.323,,4.228,4.677,,,,
2025-10-18T10:26:24.167167+00:00,11.164,10.229,,7.593,4.992,,,,
2025-10-18T10:26:24.775820+00:00,11.152,9.052,,9.604,4.848,,,,
2025-10-18T10:26:25.379010+00:00,11.141,8.220,,9.903,4.266,,,,
2025-10-18T10:26:25.986179+00:00,11.129,8.018,,8.447,3.292,,,,
2025-10-18T10:26:26.592677+00:00,11.117,8.523,,5.493,2.018,,,,
2025-10-18T10:26:27.204759+00:00,11.104,9.566,,1.525,0.546,,,,
2025-10-18T10:26:27.812549+00:00,11.092,10.759,,-2.690,-0.967,,,,
2025-10-18T10:26:28.420949+00:00,11.080,11.680,,-6.429,-2.392,,,,
2025-10-18T10:26:29.026186+00:00,11.068,11.999,,-9.009,-3.592,,,,
2025-10-18T10:26:29.632090+00:00,11.056,11.607,,-9.997,-4.466,,,,
2025-10-18T10:26:30.239153+00:00,11.044,10.640,,-9.210,-4.934,,,,
2025-10-18T10:26:30.851393+00:00,11.033,9.435,,-6.758,-4.949,,,,
2025-10-18T10:26:31.454652+00:00,11.022,8.446,,-3.143,-4.513,,,,
2025-10-18T10:26:32.067754+00:00,11.010,8.005,,1.092,-3.654,,,,
2025-10-18T10:26:32.672783+00:00,11.000,8.281,,5.081,-2.471,,,,
2025-10-18T10:26:33.280566+00:00,10.989,9.173,,8.183,-1.057,,,,
2025-10-18T10:26:33.883323+00:00,10.980,10.352,,9.819,0.441,,,,
2025-10-18T10:26:34.492840+00:00,10.970,11.415,,9.722,1.915,,,,
2025-10-18T10:26:35.101776+00:00,10.961,11.969,,7.885,3.212,,,,
2025-10-18T10:26:35.713909+00:00,10.953,11.812,,4.616,4.217,,,,
2025-10-18T10:26:36.319190+00:00,10.945,11.009,,0.561,4.826,,,,
2025-10-18T10:26:36.925211+00:00,10.937,9.846,,-3.598,4.996,,,,
2025-10-18T10:26:37.528073+00:00,10.931,8.743,,-7.104,4.714,,,,
2025-10-18T10:26:38.139961+00:00,10.924,8.077,,-9.385,3.993,,,,
2025-10-18T10:26:38.748163+00:00,10.919,8.107,,-9.973,2.909,,,,
2025-10-18T10:26:39.359475+00:00,10.914,8.821,,-8.770,1.550,,,,
2025-10-18T10:26:39.963146+00:00,10.910,9.947,,-6.028,0.067,,,,
2025-10-18T10:26:40.572650+00:00,10.907,11.101,,-2.185,-1.437,,,,
2025-10-18T10:26:41.175777+00:00,10.904,11.854,,2.005,-2.794,,,,
2025-10-18T10:26:41.785319+00:00,10.902,11.950,,5.880,-3.910,,,,
2025-10-18T10:26:42.393791+00:00,10.901,11.345,,8.696,-4.664,,,,
2025-10-18T10:26:43.002102+00:00,10.900,10.258,,9.959,-4.990,,,,
2025-10-18T10:26:43.609969+00:00,10.900,9.079,,9.444,-4.858,,,,
2025-10-18T10:26:44.218590+00:00,10.901,8.229,,7.241,-4.279,,,,
2025-10-18T10:26:44.821757+00:00,10.903,8.014,,3.779,-3.318,,,,
2025-10-18T10:26:45.429451+00:00,10.905,8.506,,-0.378,-2.047,,,,
2025-10-18T10:26:46.035807+00:00,10.908,9.530,,-4.460,-0.592,,,,
2025-10-18T10:26:46.648916+00:00,10.912,10.734,,-7.780,0.934,,,,
2025-10-18T10:26:47.257005+00:00,10.917,11.665,,-9.680,2.362,,,,
2025-10-18T10:26:47.866924+00:00,10.922,11.999,,-9.850,3.576,,,,
2025-10-18T10:26:48.469873+00:00,10.928,11.621,,-8.280,4.452,,,,
2025-10-18T10:26:49.075888+00:00,10.934,10.665,,-5.237,4.928,,,,
2025-10-18T10:26:49.682765+00:00,10.941,9.470,,-1.261,4.955,,,,
2025-10-18T10:26:50.295355+00:00,10.949,8.458,,2.978,4.523,,,,
2025-10-18T10:26:50.903298+00:00,10.957,8.007,,6.653,3.678,,,,
2025-10-18T10:26:51.509891+00:00,10.966,8.269,,9.138,2.498,,,,
2025-10-18T10:26:52.115088+00:00,10.975,9.146,,10.000,1.094,,,,
2025-10-18T10:26:52.723118+00:00,10.985,10.332,,9.085,-0.417,,,,
2025-10-18T10:26:53.329446+00:00,10.995,11.397,,6.559,-1.885,,,,
