ts_iso,batt_v,airspeed_ms,groundspeed_ms,roll_deg,pitch_deg,yaw_deg,lat,lon,alt_m
2025-10-14T07:09:34.302681+00:00,,,,,,,,,
2025-10-14T07:09:34.932673+00:00,,,,,,,,,
2025-10-14T07:09:35.534838+00:00,,,,,,,,,
2025-10-14T07:09:50.923093+00:00,,,,,,,,,
2025-10-14T07:09:52.111088+00:00,,,,,,,,,
2025-10-14T07:09:52.729598+00:00,,,,,,,,,
2025-10-14T07:09:52.932089+00:00,11.112,11.162,,4.204,1.525,,,,
2025-10-14T07:09:53.556411+00:00,11.125,11.894,,7.650,2.914,,,,
2025-10-14T07:09:54.186676+00:00,11.137,11.908,,9.667,4.030,,,,
2025-10-14T07:09:55.499028+00:00,11.163,9.909,,7.900,4.999,,,,
2025-10-14T07:09:56.104627+00:00,11.174,8.788,,4.678,4.738,,,,
2025-10-14T07:09:56.710258+00:00,11.185,8.098,,0.629,4.045,,,,
2025-10-14T07:09:57.313479+00:00,11.196,8.083,,-3.517,2.990,,,,
2025-10-14T07:09:57.923293+00:00,11.206,8.755,,-7.077,1.649,,,,
2025-10-14T07:09:58.535029+00:00,11.217,9.879,,-9.372,0.151,,,,
2025-10-14T07:09:59.139622+00:00,11.226,11.036,,-9.978,-1.344,,,,
2025-10-14T07:09:59.742280+00:00,11.235,11.823,,-8.829,-2.713,,,,
2025-10-14T07:10:00.351105+00:00,11.244,11.966,,-6.099,-3.847,,,,
2025-10-14T07:10:00.960099+00:00,11.252,11.402,,-2.276,-4.628,,,,
2025-10-14T07:10:01.564151+00:00,11.260,10.344,,1.920,-4.981,,,,
2025-10-14T07:10:02.166623+00:00,11.267,9.167,,5.769,-4.885,,,,
2025-10-14T07:10:02.772061+00:00,11.273,8.280,,8.618,-4.345,,,,
2025-10-14T07:10:03.379208+00:00,11.279,8.005,,9.943,-3.407,,,,
2025-10-14T07:10:03.985933+00:00,11.284,8.443,,9.500,-2.158,,,,
2025-10-14T07:10:04.593178+00:00,11.288,9.437,,7.366,-0.711,,,,
2025-10-14T07:10:05.197744+00:00,11.292,10.628,,3.939,0.795,,,,
2025-10-14T07:10:05.803061+00:00,11.295,11.597,,-0.189,2.230,,,,
2025-10-14T07:10:06.409335+00:00,11.297,11.998,,-4.289,3.464,,,,
2025-10-14T07:10:07.016537+00:00,11.299,11.687,,-7.632,4.384,,,,
2025-10-14T07:10:07.620508+00:00,11.300,10.778,,-9.611,4.901,,,,
2025-10-14T07:10:08.222869+00:00,11.300,9.597,,-9.899,4.974,,,,
2025-10-14T07:10:08.831742+00:00,11.299,8.549,,-8.429,4.594,,,,
2025-10-14T07:10:09.439425+00:00,11.298,8.023,,-5.457,3.793,,,,
2025-10-14T07:10:10.045349+00:00,11.296,8.203,,-1.525,2.648,,,,
2025-10-14T07:10:10.648413+00:00,11.293,9.018,,2.658,1.269,,,,
2025-10-14T07:10:11.259484+00:00,11.290,10.195,,6.417,-0.244,,,,
2025-10-14T07:10:11.871166+00:00,11.285,11.303,,9.022,-1.737,,,,
2025-10-14T07:10:12.476247+00:00,11.280,11.935,,9.998,-3.055,,,,
2025-10-14T07:10:13.079096+00:00,11.275,11.881,,9.212,-4.092,,,,
2025-10-14T07:10:13.690313+00:00,11.269,11.151,,6.767,-4.767,,,,
2025-10-14T07:10:14.303908+00:00,11.262,9.999,,3.086,-5.000,,,,
2025-10-14T07:10:14.909003+00:00,11.254,8.861,,-1.096,-4.772,,,,
2025-10-14T07:10:15.512369+00:00,11.246,8.129,,-5.074,-4.114,,,,
2025-10-14T07:10:16.119956+00:00,11.238,8.060,,-8.178,-3.075,,,,
2025-10-14T07:10:16.891000+00:00,11.226,8.948,,-9.973,-1.367,,,,
2025-10-14T07:10:17.496786+00:00,11.217,10.104,,-9.392,0.130,,,,
2025-10-14T07:10:18.102903+00:00,11.207,11.223,,-7.146,1.615,,,,
2025-10-14T07:10:18.708062+00:00,11.196,11.906,,-3.639,2.952,,,,
2025-10-14T07:10:19.315863+00:00,11.185,11.911,,0.530,4.024,,,,
2025-10-14T07:10:19.922923+00:00,11.174,11.232,,4.600,4.727,,,,
2025-10-14T07:10:20.542432+00:00,11.163,10.088,,7.905,4.999,,,,
2025-10-14T07:10:21.148797+00:00,11.151,8.934,,9.726,4.804,,,,
2025-10-14T07:10:21.754541+00:00,11.139,8.160,,9.821,4.171,,,,
2025-10-14T07:10:22.361075+00:00,11.127,8.041,,8.174,3.158,,,,
2025-10-14T07:10:22.361075+00:00,11.127,8.041,,8.174,3.158,,,,
2025-10-14T07:10:31.717643+00:00,10.957,11.982,,6.369,3.767,,,,
2025-10-14T07:10:32.577263+00:00,10.945,11.089,,0.886,4.794,,,,
2025-10-14T07:10:33.180572+00:00,10.938,9.945,,-3.274,5.000,,,,
2025-10-14T07:10:35.208846+00:00,10.918,8.231,,-9.834,2.583,,,,
2025-10-14T07:10:36.122990+00:00,10.911,9.659,,-6.804,0.428,,,,
2025-10-14T07:10:37.373556+00:00,10.904,11.763,,1.267,-2.569,,,,
2025-10-14T07:10:38.794382+00:00,10.900,11.197,,9.008,-4.745,,,,
2025-10-14T07:10:39.431164+00:00,10.900,10.010,,10.000,-5.000,,,,
2025-10-14T07:10:40.047963+00:00,10.900,8.851,,9.097,-4.768,,,,
2025-10-14T07:10:40.655387+00:00,10.901,8.122,,6.573,-4.099,,,,
2025-10-14T07:10:41.282486+00:00,10.903,8.075,,2.747,-3.016,,,,
2025-10-14T07:10:41.894984+00:00,10.906,8.738,,-1.499,-1.674,,,,
2025-10-14T07:10:42.500204+00:00,10.909,9.845,,-5.431,-0.194,,,,
2025-10-14T07:10:43.121675+00:00,10.913,11.035,,-8.464,1.343,,,,
2025-10-14T07:10:43.731959+00:00,10.918,11.829,,-9.910,2.728,,,,
2025-10-14T07:10:44.342106+00:00,10.924,11.963,,-9.575,3.861,,,,
2025-10-14T07:10:44.947694+00:00,10.930,11.394,,-7.541,4.633,,,,
2025-10-14T07:10:45.556427+00:00,10.936,10.324,,-4.152,4.983,,,,
2025-10-14T07:10:46.166897+00:00,10.944,9.134,,-0.008,4.875,,,,
2025-10-14T07:10:46.776386+00:00,10.952,8.258,,4.131,4.318,,,,
2025-10-14T07:10:47.386712+00:00,10.960,8.009,,7.533,3.361,,,,
2025-10-14T07:10:47.993537+00:00,10.969,8.475,,9.574,2.101,,,,
2025-10-14T07:10:48.597033+00:00,10.978,9.479,,9.916,0.658,,,,
2025-10-14T07:10:49.205240+00:00,10.988,10.675,,8.498,-0.857,,,,
2025-10-14T07:10:49.818784+00:00,10.998,11.636,,5.531,-2.304,,,,
2025-10-14T07:10:50.428603+00:00,11.009,12.000,,1.585,-3.530,,,,
2025-10-14T07:10:51.032740+00:00,11.020,11.649,,-2.607,-4.424,,,,
2025-10-14T07:10:51.639931+00:00,11.031,10.709,,-6.356,-4.918,,,,
2025-10-14T07:10:52.253915+00:00,11.043,9.502,,-8.995,-4.961,,,,
2025-10-14T07:10:52.863645+00:00,11.055,8.483,,-9.997,-4.544,,,,
2025-10-14T07:10:53.466967+00:00,11.067,8.011,,-9.223,-3.718,,,,
2025-10-14T07:10:54.074299+00:00,11.079,8.246,,-6.808,-2.549,,,,
2025-10-14T07:10:54.686256+00:00,11.091,9.116,,-3.150,-1.134,,,,
2025-10-14T07:10:55.291616+00:00,11.103,10.294,,1.031,0.369,,,,
2025-10-14T07:10:55.895008+00:00,11.115,11.365,,5.018,1.834,,,,
2025-10-14T07:10:56.502440+00:00,11.127,11.955,,8.139,3.141,,,,
2025-10-14T07:10:57.111943+00:00,11.139,11.844,,9.814,4.163,,,,
2025-10-14T07:10:57.720987+00:00,11.151,11.070,,9.730,4.802,,,,
2025-10-14T07:10:58.326210+00:00,11.163,9.919,,7.920,4.999,,,,
2025-10-14T07:10:58.936829+00:00,11.174,8.788,,4.676,4.737,,,,
2025-10-14T07:10:59.543488+00:00,11.185,8.097,,0.619,4.043,,,,
2025-10-14T07:11:00.156309+00:00,11.196,8.089,,-3.588,2.968,,,,
2025-10-14T07:11:00.768760+00:00,11.207,8.776,,-7.144,1.617,,,,
2025-10-14T07:11:01.381186+00:00,11.217,9.908,,-9.406,0.115,,,,
2025-10-14T07:11:01.991787+00:00,11.227,11.070,,-9.967,-1.393,,,,
2025-10-14T07:11:02.595892+00:00,11.236,11.840,,-8.757,-2.758,,,,
2025-10-14T07:11:03.200441+00:00,11.244,11.959,,-6.001,-3.875,,,,
2025-10-14T07:11:03.811664+00:00,11.252,11.374,,-2.142,-4.646,,,,
2025-10-14T07:11:04.420087+00:00,11.260,10.296,,2.085,-4.986,,,,
2025-10-14T07:11:05.029518+00:00,11.267,9.111,,5.945,-4.868,,,,
2025-10-14T07:11:05.636270+00:00,11.273,8.248,,8.730,-4.305,,,,
2025-10-14T07:11:06.245085+00:00,11.279,8.011,,9.965,-3.344,,,,
2025-10-14T07:11:06.853351+00:00,11.284,8.488,,9.419,-2.078,,,,
2025-10-14T07:11:07.461240+00:00,11.289,9.507,,7.193,-0.621,,,,
2025-10-14T07:11:08.070493+00:00,11.292,10.705,,3.674,0.895,,,,
2025-10-14T07:11:08.679013+00:00,11.295,11.648,,-0.497,2.328,,,,
2025-10-14T07:11:09.285544+00:00,11.298,12.000,,-4.567,3.543,,,,
2025-10-14T07:11:09.892569+00:00,11.299,11.638,,-7.828,4.436,,,,
2025-10-14T07:11:10.496889+00:00,11.300,10.695,,-9.693,4.921,,,,
2025-10-14T07:11:11.103729+00:00,11.300,9.502,,-9.845,4.960,,,,
2025-10-14T07:11:11.718164+00:00,11.299,8.476,,-8.218,4.539,,,,
2025-10-14T07:11:12.328111+00:00,11.298,8.009,,-5.120,3.699,,,,
2025-10-14T07:11:12.931715+00:00,11.296,8.253,,-1.147,2.532,,,,
2025-10-14T07:11:13.536027+00:00,11.293,9.117,,3.032,1.134,,,,
2025-10-14T07:11:14.148115+00:00,11.289,10.308,,6.717,-0.386,,,,
2025-10-14T07:11:14.763837+00:00,11.285,11.393,,9.198,-1.878,,,,
2025-10-14T07:11:15.369975+00:00,11.280,11.962,,9.998,-3.176,,,,
2025-10-14T07:11:15.973193+00:00,11.274,11.835,,9.034,-4.180,,,,
2025-10-14T07:11:16.582145+00:00,11.268,11.051,,6.452,-4.810,,,,
2025-10-14T07:11:17.190263+00:00,11.261,9.890,,2.721,-4.998,,,,
2025-10-14T07:11:17.805405+00:00,11.254,8.758,,-1.544,-4.722,,,,
2025-10-14T07:11:18.412741+00:00,11.246,8.085,,-5.481,-4.014,,,,
2025-10-14T07:11:19.016265+00:00,11.237,8.096,,-8.429,-2.947,,,,
2025-10-14T07:11:19.625723+00:00,11.228,8.788,,-9.900,-1.599,,,,
2025-10-14T07:11:20.238947+00:00,11.218,9.924,,-9.589,-0.094,,,,
2025-10-14T07:11:20.847910+00:00,11.208,11.081,,-7.558,1.409,,,,
2025-10-14T07:11:21.452674+00:00,11.198,11.846,,-4.202,2.773,,,,
2025-10-14T07:11:22.057007+00:00,11.187,11.956,,-0.105,3.886,,,,
2025-10-14T07:11:22.668545+00:00,11.176,11.363,,4.056,4.653,,,,
2025-10-14T07:11:23.279666+00:00,11.164,10.276,,7.482,4.988,,,,
2025-10-14T07:11:23.888928+00:00,11.153,9.093,,9.557,4.862,,,,
2025-10-14T07:11:24.492465+00:00,11.141,8.242,,9.924,4.296,,,,
2025-10-14T07:11:25.101234+00:00,11.129,8.013,,8.527,3.332,,,,
2025-10-14T07:11:25.713631+00:00,11.117,8.502,,5.584,2.053,,,,
2025-10-14T07:11:26.325950+00:00,11.105,9.536,,1.631,0.584,,,,
2025-10-14T07:11:26.932729+00:00,11.093,10.728,,-2.580,-0.927,,,,
2025-10-14T07:11:27.542447+00:00,11.080,11.664,,-6.348,-2.359,,,,
2025-10-14T07:11:28.146698+00:00,11.068,12.000,,-8.960,-3.564,,,,
2025-10-14T07:11:28.762519+00:00,11.056,11.614,,-9.996,-4.459,,,,
2025-10-14T07:11:29.366901+00:00,11.045,10.657,,-9.234,-4.930,,,,
2025-10-14T07:11:29.978241+00:00,11.033,9.454,,-6.807,-4.952,,,,
2025-10-14T07:11:30.582155+00:00,11.022,8.458,,-3.203,-4.523,,,,
2025-10-14T07:11:31.192909+00:00,11.011,8.006,,1.013,-3.673,,,,
2025-10-14T07:11:31.802550+00:00,11.000,8.275,,5.040,-2.486,,,,
2025-10-14T07:11:32.412039+00:00,10.990,9.164,,8.162,-1.069,,,,
2025-10-14T07:11:33.018679+00:00,10.980,10.349,,9.818,0.438,,,,
2025-10-14T07:11:33.622232+00:00,10.970,11.405,,9.734,1.899,,,,
2025-10-14T07:11:34.225845+00:00,10.961,11.965,,7.938,3.188,,,,
2025-10-14T07:11:34.835448+00:00,10.953,11.825,,4.709,4.197,,,,
2025-10-14T07:11:35.442348+00:00,10.945,11.032,,0.655,4.817,,,,
2025-10-14T07:11:36.053300+00:00,10.937,9.863,,-3.543,4.997,,,,
2025-10-14T07:11:36.659544+00:00,10.931,8.750,,-7.079,4.718,,,,
2025-10-14T07:11:37.268933+00:00,10.924,8.082,,-9.367,4.004,,,,
2025-10-14T07:11:37.876220+00:00,10.919,8.102,,-9.977,2.926,,,,
2025-10-14T07:11:38.488325+00:00,10.914,8.809,,-8.795,1.568,,,,
2025-10-14T07:11:39.094135+00:00,10.910,9.935,,-6.059,0.081,,,,
2025-10-14T07:11:39.703089+00:00,10.907,11.091,,-2.227,-1.422,,,,
2025-10-14T07:11:40.309576+00:00,10.904,11.852,,1.986,-2.789,,,,
2025-10-14T07:11:40.916702+00:00,10.902,11.952,,5.851,-3.902,,,,
2025-10-14T07:11:41.520613+00:00,10.901,11.359,,8.663,-4.655,,,,
2025-10-14T07:11:42.134903+00:00,10.900,10.265,,9.957,-4.989,,,,
2025-10-14T07:11:42.745045+00:00,10.900,9.081,,9.447,-4.858,,,,
2025-10-14T07:11:43.350517+00:00,10.901,8.234,,7.263,-4.285,,,,
2025-10-14T07:11:43.954288+00:00,10.903,8.013,,3.805,-3.325,,,,
2025-10-14T07:11:44.565518+00:00,10.905,8.505,,-0.375,-2.048,,,,
2025-10-14T07:11:45.173783+00:00,10.908,9.533,,-4.469,-0.588,,,,
2025-10-14T07:11:45.785860+00:00,10.912,10.735,,-7.782,0.935,,,,
2025-10-14T07:11:46.389779+00:00,10.917,11.661,,-9.673,2.354,,,,
2025-10-14T07:11:47.003625+00:00,10.922,11.999,,-9.850,3.577,,,,
2025-10-14T07:11:47.607795+00:00,10.928,11.619,,-8.274,4.454,,,,
2025-10-14T07:11:48.214438+00:00,10.934,10.661,,-5.225,4.929,,,,
2025-10-14T07:11:48.821634+00:00,10.941,9.465,,-1.245,4.954,,,,
2025-10-14T07:11:49.430509+00:00,10.949,8.459,,2.969,4.524,,,,
2025-10-14T07:11:50.040201+00:00,10.957,8.007,,6.655,3.677,,,,
2025-10-14T07:11:50.644059+00:00,10.966,8.267,,9.131,2.503,,,,
2025-10-14T07:11:51.253150+00:00,10.975,9.149,,10.000,1.090,,,,
2025-10-14T07:11:51.856803+00:00,10.985,10.327,,9.094,-0.410,,,,
2025-10-14T07:11:52.470026+00:00,10.995,11.403,,6.537,-1.895,,,,
2025-10-14T07:11:53.080614+00:00,11.006,11.967,,2.812,-3.198,,,,
2025-10-14T07:11:53.684237+00:00,11.017,11.826,,-1.370,-4.196,,,,
2025-10-14T07:11:54.291127+00:00,11.028,11.034,,-5.331,-4.817,,,,
2025-10-14T07:11:54.894625+00:00,11.039,9.879,,-8.331,-4.998,,,,
2025-10-14T07:11:55.498911+00:00,11.051,8.766,,-9.867,-4.726,,,,
2025-10-14T07:11:56.110164+00:00,11.063,8.086,,-9.651,-4.017,,,,
2025-10-14T07:11:56.713900+00:00,11.075,8.095,,-7.729,-2.950,,,,
2025-10-14T07:11:57.323979+00:00,11.087,8.787,,-4.406,-1.601,,,,
2025-10-14T07:11:57.927921+00:00,11.099,9.904,,-0.336,-0.120,,,,
2025-10-14T07:11:58.539808+00:00,11.111,11.069,,3.846,1.391,,,,
2025-10-14T07:11:59.149140+00:00,11.123,11.844,,7.320,2.768,,,,
2025-10-14T07:11:59.752176+00:00,11.135,11.958,,9.469,3.880,,,,
2025-10-14T07:12:00.355917+00:00,11.147,11.380,,9.955,4.642,,,,
2025-10-14T07:12:00.965206+00:00,11.159,10.303,,8.669,4.986,,,,
2025-10-14T07:12:01.568803+00:00,11.170,9.128,,5.863,4.873,,,,
2025-10-14T07:12:02.176319+00:00,11.182,8.256,,1.999,4.315,,,,
2025-10-14T07:12:02.790495+00:00,11.193,8.010,,-2.267,3.350,,,,
2025-10-14T07:12:03.397608+00:00,11.203,8.482,,-6.081,2.088,,,,
2025-10-14T07:12:04.005234+00:00,11.213,9.498,,-8.815,0.633,,,,
2025-10-14T07:12:04.608640+00:00,11.223,10.685,,-9.976,-0.870,,,,
2025-10-14T07:12:05.218424+00:00,11.233,11.638,,-9.368,-2.308,,,,
2025-10-14T07:12:05.829489+00:00,11.241,12.000,,-7.073,-3.535,,,,
2025-10-14T07:12:06.439967+00:00,11.250,11.639,,-3.507,-4.434,,,,
2025-10-14T07:12:07.044005+00:00,11.258,10.698,,0.645,-4.921,,,,
2025-10-14T07:12:07.655662+00:00,11.265,9.495,,4.730,-4.959,,,,
2025-10-14T07:12:08.262935+00:00,11.271,8.481,,7.942,-4.542,,,,
2025-10-14T07:12:08.871999+00:00,11.277,8.010,,9.744,-3.707,,,,
2025-10-14T07:12:09.480476+00:00,11.283,8.254,,9.802,-2.531,,,,
2025-10-14T07:12:10.091639+00:00,11.287,9.129,,8.098,-1.117,,,,
2025-10-14T07:12:10.698591+00:00,11.291,10.311,,4.959,0.390,,,,
2025-10-14T07:12:11.303662+00:00,11.294,11.380,,0.952,1.858,,,,
2025-10-14T07:12:11.911417+00:00,11.297,11.959,,-3.241,3.162,,,,
2025-10-14T07:12:12.525803+00:00,11.299,11.832,,-6.890,4.185,,,,
2025-10-14T07:12:13.132767+00:00,11.300,11.047,,-9.265,4.811,,,,
2025-10-14T07:12:13.736896+00:00,11.300,9.894,,-9.993,4.998,,,,
2025-10-14T07:12:14.343184+00:00,11.300,8.775,,-8.954,4.731,,,,
2025-10-14T07:12:14.950924+00:00,11.298,8.092,,-6.318,4.030,,,,
2025-10-14T07:12:15.560303+00:00,11.296,8.093,,-2.544,2.956,,,,
2025-10-14T07:12:16.169936+00:00,11.294,8.781,,1.687,1.610,,,,
2025-10-14T07:12:16.773899+00:00,11.291,9.897,,5.582,0.129,,,,
2025-10-14T07:12:17.384287+00:00,11.286,11.060,,8.519,-1.379,,,,
2025-10-14T07:12:17.988428+00:00,11.282,11.836,,9.918,-2.746,,,,
2025-10-14T07:12:18.596468+00:00,11.276,11.960,,9.561,-3.871,,,,
2025-10-14T07:12:19.205339+00:00,11.270,11.380,,7.495,-4.642,,,,
2025-10-14T07:12:19.814856+00:00,11.264,10.303,,4.084,-4.986,,,,
2025-10-14T07:12:20.423820+00:00,11.256,9.118,,-0.056,-4.870,,,,
2025-10-14T07:12:21.031103+00:00,11.248,8.251,,-4.175,-4.309,,,,
2025-10-14T07:12:21.634496+00:00,11.240,8.009,,-7.533,-3.361,,,,
2025-10-14T07:12:22.294545+00:00,11.230,8.546,,-9.675,-1.979,,,,
2025-10-14T07:12:22.905028+00:00,11.221,9.596,,-9.853,-0.508,,,,
2025-10-14T07:12:23.510781+00:00,11.211,10.783,,-8.278,0.999,,,,
2025-10-14T07:12:24.121597+00:00,11.201,11.697,,-5.206,2.426,,,,
2025-10-14T07:12:24.729534+00:00,11.190,11.997,,-1.217,3.623,,,,
2025-10-14T07:12:25.352855+00:00,11.179,11.563,,3.092,4.505,,,,
2025-10-14T07:12:25.963713+00:00,11.167,10.565,,6.757,4.949,,,,
2025-10-14T07:12:26.574121+00:00,11.156,9.364,,9.204,4.935,,,,
2025-10-14T07:12:27.178505+00:00,11.144,8.399,,9.998,4.471,,,,
2025-10-14T07:12:27.788692+00:00,11.132,8.001,,9.011,3.592,,,,
2025-10-14T07:12:28.403553+00:00,11.120,8.330,,6.379,2.371,,,,
2025-10-14T07:12:29.013469+00:00,11.108,9.261,,2.617,0.940,,,,
2025-10-14T07:12:29.620529+00:00,11.095,10.454,,-1.594,-0.571,,,,
2025-10-14T07:12:30.225752+00:00,11.083,11.481,,-5.512,-2.025,,,,
2025-10-14T07:12:30.831966+00:00,11.071,11.983,,-8.458,-3.297,,,,
2025-10-14T07:12:31.450319+00:00,11.059,11.767,,-9.916,-4.285,,,,
2025-10-14T07:12:32.056867+00:00,11.047,10.917,,-9.569,-4.859,,,,
2025-10-14T07:12:32.660368+00:00,11.036,9.747,,-7.537,-4.990,,,,
2025-10-14T07:12:33.269960+00:00,11.024,8.656,,-4.140,-4.665,,,,
2025-10-14T07:12:33.882539+00:00,11.013,8.049,,0.019,-3.905,,,,
2025-10-14T07:12:34.491112+00:00,11.002,8.148,,4.150,-2.790,,,,
2025-10-14T07:12:35.094678+00:00,10.992,8.903,,7.516,-1.430,,,,
2025-10-14T07:12:35.703275+00:00,10.982,10.057,,9.570,0.071,,,,
2025-10-14T07:12:36.309816+00:00,10.972,11.186,,9.915,1.561,,,,
2025-10-14T07:12:36.919127+00:00,10.963,11.894,,8.490,2.914,,,,
2025-10-14T07:12:37.523803+00:00,10.955,11.923,,5.570,3.991,,,,
2025-10-14T07:12:38.132098+00:00,10.947,11.265,,1.642,4.710,,,,
2025-10-14T07:12:38.741821+00:00,10.939,10.149,,-2.589,4.997,,,,
2025-10-14T07:12:39.355225+00:00,10.932,8.974,,-6.375,4.820,,,,
2025-10-14T07:12:39.959494+00:00,10.926,8.180,,-8.976,4.206,,,,
2025-10-14T07:12:40.570760+00:00,10.920,8.034,,-9.996,3.197,,,,
2025-10-14T07:12:41.181371+00:00,10.915,8.598,,-9.216,1.894,,,,
2025-10-14T07:12:41.790393+00:00,10.911,9.666,,-6.785,0.419,,,,
2025-10-14T07:12:42.400762+00:00,10.907,10.857,,-3.132,-1.097,,,,
2025-10-14T07:12:43.014675+00:00,10.904,11.741,,1.110,-2.520,,,,
2025-10-14T07:12:43.622221+00:00,10.902,11.991,,5.112,-3.697,,,,
2025-10-14T07:12:44.225893+00:00,10.901,11.534,,8.187,-4.530,,,,
2025-10-14T07:12:44.834537+00:00,10.900,10.524,,9.828,-4.956,,,,
2025-10-14T07:12:45.449865+00:00,10.900,9.314,,9.701,-4.924,,,,
2025-10-14T07:12:46.053724+00:00,10.901,8.369,,7.852,-4.442,,,,
2025-10-14T07:12:46.662159+00:00,10.902,8.000,,4.592,-3.550,,,,
2025-10-14T07:12:47.268617+00:00,10.905,8.347,,0.526,-2.337,,,,
2025-10-14T07:12:47.882138+00:00,10.908,9.295,,-3.675,-0.895,,,,
2025-10-14T07:12:48.491057+00:00,10.911,10.494,,-7.195,0.623,,,,
2025-10-14T07:12:49.100634+00:00,10.916,11.515,,-9.424,2.083,,,,
2025-10-14T07:12:49.704814+00:00,10.921,11.988,,-9.966,3.341,,,,
2025-10-14T07:12:50.315221+00:00,10.927,11.752,,-8.731,4.304,,,,
2025-10-14T07:12:50.919375+00:00,10.933,10.894,,-5.961,4.866,,,,
2025-10-14T07:12:51.531512+00:00,10.940,9.704,,-2.086,4.986,,,,
2025-10-14T07:12:52.140997+00:00,10.948,8.625,,2.148,4.645,,,,
2025-10-14T07:12:52.754163+00:00,10.956,8.040,,6.018,3.870,,,,
2025-10-14T07:12:53.357295+00:00,10.964,8.161,,8.762,2.755,,,,
2025-10-14T07:12:53.961328+00:00,10.974,8.932,,9.968,1.390,,,,
2025-10-14T07:12:54.570466+00:00,10.983,10.092,,9.406,-0.115,,,,
2025-10-14T07:12:55.174426+00:00,10.993,11.210,,7.186,-1.596,,,,
2025-10-14T07:12:55.780735+00:00,11.004,11.902,,3.684,-2.938,,,,
2025-10-14T07:12:56.384229+00:00,11.014,11.917,,-0.451,-4.008,,,,
2025-10-14T07:12:56.988095+00:00,11.025,11.255,,-4.510,-4.715,,,,
2025-10-14T07:12:57.595873+00:00,11.037,10.140,,-7.791,-4.997,,,,
2025-10-14T07:12:58.199539+00:00,11.048,8.983,,-9.677,-4.823,,,,
2025-10-14T07:12:58.811702+00:00,11.060,8.178,,-9.850,-4.202,,,,
2025-10-14T07:12:59.415484+00:00,11.072,8.032,,-8.275,-3.206,,,,
2025-10-14T07:13:00.021144+00:00,11.084,8.584,,-5.232,-1.916,,,,
2025-10-14T07:13:00.633251+00:00,11.097,9.653,,-1.218,-0.436,,,,
2025-10-14T07:13:01.237004+00:00,11.109,10.832,,2.960,1.065,,,,
2025-10-14T07:13:01.844748+00:00,11.121,11.722,,6.638,2.478,,,,
2025-10-14T07:13:02.456346+00:00,11.133,11.994,,9.144,3.670,,,,
2025-10-14T07:13:03.067290+00:00,11.145,11.544,,9.999,4.522,,,,
2025-10-14T07:13:03.673580+00:00,11.157,10.545,,9.067,4.953,,,,
2025-10-14T07:13:04.280409+00:00,11.168,9.350,,6.524,4.932,,,,
2025-10-14T07:13:04.884079+00:00,11.179,8.391,,2.842,4.464,,,,
2025-10-14T07:13:05.492283+00:00,11.190,8.001,,-1.372,3.584,,,,
2025-10-14T07:13:06.106579+00:00,11.201,8.334,,-5.376,2.363,,,,
2025-10-14T07:13:06.713355+00:00,11.211,9.263,,-8.373,0.938,,,,
2025-10-14T07:13:07.322328+00:00,11.221,10.459,,-9.884,-0.577,,,,
2025-10-14T07:13:07.925960+00:00,11.231,11.483,,-9.637,-2.028,,,,
2025-10-14T07:13:08.542169+00:00,11.240,11.986,,-7.637,-3.318,,,,
2025-10-14T07:13:09.157610+00:00,11.248,11.759,,-4.244,-4.295,,,,
2025-10-14T07:13:09.761419+00:00,11.256,10.908,,-0.156,-4.862,,,,
2025-10-14T07:13:10.367402+00:00,11.263,9.731,,3.973,-4.989,,,,
2025-10-14T07:13:10.975672+00:00,11.270,8.647,,7.409,-4.659,,,,
2025-10-14T07:13:11.579437+00:00,11.276,8.050,,9.512,-3.908,,,,
2025-10-14T07:13:12.187428+00:00,11.282,8.146,,9.938,-2.796,,,,
2025-10-14T07:13:12.799844+00:00,11.286,8.914,,8.574,-1.416,,,,
2025-10-14T07:13:13.406534+00:00,11.290,10.065,,5.693,0.081,,,,
2025-10-14T07:13:14.010480+00:00,11.294,11.189,,1.818,1.564,,,,
2025-10-14T07:13:14.623483+00:00,11.296,11.898,,-2.438,2.924,,,,
2025-10-14T07:13:15.237090+00:00,11.298,11.915,,-6.255,4.013,,,,
2025-10-14T07:13:15.840803+00:00,11.300,11.250,,-8.905,4.718,,,,
2025-10-14T07:13:16.451646+00:00,11.300,10.128,,-9.990,4.997,,,,
2025-10-14T07:13:17.056147+00:00,11.300,8.971,,-9.293,4.819,,,,
2025-10-14T07:13:17.668131+00:00,11.299,8.172,,-6.919,4.193,,,,
2025-10-14T07:13:18.272042+00:00,11.297,8.034,,-3.348,3.193,,,,
2025-10-14T07:13:18.881904+00:00,11.294,8.600,,0.855,1.890,,,,
2025-10-14T07:13:19.493820+00:00,11.291,9.675,,4.916,0.408,,,,
2025-10-14T07:13:20.104076+00:00,11.287,10.864,,8.082,-1.108,,,,
2025-10-14T07:13:20.707503+00:00,11.283,11.735,,9.786,-2.507,,,,
2025-10-14T07:13:21.311375+00:00,11.277,11.993,,9.769,-3.680,,,,
2025-10-14T07:13:21.923801+00:00,11.271,11.535,,7.996,-4.529,,,,
2025-10-14T07:13:22.536225+00:00,11.265,10.519,,4.777,-4.957,,,,
2025-10-14T07:13:23.142004+00:00,11.258,9.327,,0.739,-4.927,,,,
2025-10-14T07:13:23.751186+00:00,11.250,8.370,,-3.452,-4.444,,,,
2025-10-14T07:13:24.360619+00:00,11.242,8.000,,-7.026,-3.551,,,,
2025-10-14T07:13:24.968394+00:00,11.233,8.348,,-9.337,-2.336,,,,
2025-10-14T07:13:25.577395+00:00,11.223,9.290,,-9.982,-0.903,,,,
2025-10-14T07:13:26.190605+00:00,11.213,10.495,,-8.827,0.624,,,,
2025-10-14T07:13:26.798649+00:00,11.203,11.513,,-6.099,2.080,,,,
2025-10-14T07:13:27.403650+00:00,11.193,11.988,,-2.303,3.340,,,,
2025-10-14T07:13:28.011363+00:00,11.182,11.755,,1.918,4.300,,,,
2025-10-14T07:13:28.626512+00:00,11.170,10.880,,5.840,4.871,,,,
2025-10-14T07:13:29.232762+00:00,11.159,9.700,,8.664,4.986,,,,
2025-10-14T07:13:29.837590+00:00,11.147,8.629,,9.951,4.647,,,,
2025-10-14T07:13:30.443282+00:00,11.135,8.044,,9.478,3.886,,,,
2025-10-14T07:13:31.055727+00:00,11.123,8.160,,7.295,2.757,,,,
2025-10-14T07:13:31.663342+00:00,11.111,8.937,,3.822,1.382,,,,
2025-10-14T07:13:32.266592+00:00,11.099,10.086,,-0.301,-0.107,,,,
2025-10-14T07:13:32.881502+00:00,11.087,11.223,,-4.444,-1.615,,,,
2025-10-14T07:13:33.485580+00:00,11.075,11.905,,-7.729,-2.950,,,,
2025-10-14T07:13:34.089320+00:00,11.063,11.914,,-9.651,-4.017,,,,
2025-10-14T07:13:34.698934+00:00,11.051,11.236,,-9.869,-4.725,,,,
2025-10-14T07:13:35.305375+00:00,11.039,10.120,,-8.329,-4.998,,,,
2025-10-14T07:13:35.908768+00:00,11.028,8.966,,-5.329,-4.816,,,,
2025-10-14T07:13:36.513084+00:00,11.017,8.176,,-1.385,-4.199,,,,
2025-10-14T07:13:37.120884+00:00,11.006,8.034,,2.826,-3.194,,,,
2025-10-14T07:13:37.724699+00:00,10.995,8.590,,6.512,-1.906,,,,
2025-10-14T07:13:38.351112+00:00,10.985,9.690,,9.118,-0.389,,,,
2025-10-14T07:13:38.989223+00:00,10.975,10.928,,9.997,1.194,,,,
2025-10-14T07:13:39.593090+00:00,10.966,11.770,,9.021,2.584,,,,
2025-10-14T07:13:40.232556+00:00,10.956,11.976,,6.264,3.799,,,,
2025-10-14T07:13:40.866917+00:00,10.948,11.409,,2.308,4.623,,,,
2025-10-14T07:13:41.474862+00:00,10.940,10.345,,-1.915,4.981,,,,
2025-10-14T07:13:42.098499+00:00,10.933,9.130,,-5.885,4.874,,,,
2025-10-14T07:13:42.749204+00:00,10.926,8.217,,-8.842,4.262,,,,
2025-10-14T07:13:43.357921+00:00,10.921,8.019,,-9.982,3.282,,,,
2025-10-14T07:13:43.961811+00:00,10.916,8.527,,-9.349,2.012,,,,
2025-10-14T07:13:44.568447+00:00,10.911,9.560,,-7.057,0.553,,,,
2025-10-14T07:13:45.172668+00:00,10.908,10.747,,-3.527,-0.951,,,,
2025-10-14T07:13:45.781667+00:00,10.905,11.674,,0.658,-2.379,,,,
2025-10-14T07:13:46.391829+00:00,10.902,11.999,,4.732,-3.590,,,,
2025-10-14T07:13:46.999206+00:00,10.901,11.606,,7.945,-4.466,,,,
2025-10-14T07:13:47.603403+00:00,10.900,10.645,,9.737,-4.933,,,,
2025-10-14T07:13:48.207646+00:00,10.900,9.455,,9.814,-4.952,,,,
2025-10-14T07:13:48.816464+00:00,10.901,8.452,,8.142,-4.519,,,,
2025-10-14T07:13:49.423128+00:00,10.902,8.006,,5.027,-3.673,,,,
2025-10-14T07:13:50.029227+00:00,10.904,8.271,,1.023,-2.493,,,,
2025-10-14T07:13:50.658617+00:00,10.907,9.194,,-3.317,-1.029,,,,
2025-10-14T07:13:51.267543+00:00,10.911,10.386,,-6.921,0.485,,,,
2025-10-14T07:13:51.874495+00:00,10.915,11.437,,-9.281,1.950,,,,
2025-10-14T07:13:52.482223+00:00,10.920,11.974,,-9.990,3.238,,,,
2025-10-14T07:13:53.094201+00:00,10.926,11.801,,-8.906,4.235,,,,
2025-10-14T07:13:53.710141+00:00,10.932,10.967,,-6.190,4.842,,,,
2025-10-14T07:13:54.317403+00:00,10.939,9.795,,-2.400,4.993,,,,
2025-10-14T07:13:54.921011+00:00,10.947,8.702,,1.792,4.692,,,,
2025-10-14T07:13:55.530587+00:00,10.955,8.065,,5.703,3.956,,,,
2025-10-14T07:13:56.143278+00:00,10.964,8.127,,8.603,2.850,,,,
2025-10-14T07:13:56.752782+00:00,10.973,8.865,,9.941,1.486,,,,
2025-10-14T07:13:57.358991+00:00,10.982,10.005,,9.505,-0.007,,,,
2025-10-14T07:13:57.970213+00:00,10.993,11.152,,7.359,-1.511,,,,
2025-10-14T07:13:58.578609+00:00,11.003,11.880,,3.904,-2.869,,,,
2025-10-14T07:13:59.192203+00:00,11.014,11.930,,-0.284,-3.972,,,,
2025-10-14T07:13:59.798015+00:00,11.025,11.288,,-4.372,-4.697,,,,
2025-10-14T07:14:00.404145+00:00,11.036,10.187,,-7.687,-4.994,,,,
2025-10-14T07:14:01.013172+00:00,11.048,9.015,,-9.644,-4.835,,,,
2025-10-14T07:14:01.623255+00:00,11.060,8.195,,-9.873,-4.229,,,,
2025-10-14T07:14:02.226846+00:00,11.072,8.025,,-8.354,-3.245,,,,
2025-10-14T07:14:02.837164+00:00,11.084,8.562,,-5.326,-1.953,,,,
2025-10-14T07:14:03.444843+00:00,11.096,9.613,,-1.359,-0.486,,,,
2025-10-14T07:14:04.051136+00:00,11.108,10.800,,2.841,1.022,,,,
2025-10-14T07:14:04.657927+00:00,11.120,11.702,,6.540,2.437,,,,
2025-10-14T07:14:05.266407+00:00,11.132,11.997,,9.081,3.633,,,,
2025-10-14T07:14:05.876101+00:00,11.144,11.573,,10.000,4.497,,,,
2025-10-14T07:14:06.479508+00:00,11.156,10.594,,9.142,4.943,,,,
2025-10-14T07:14:07.087967+00:00,11.168,9.396,,6.652,4.941,,,,
2025-10-14T07:14:07.691936+00:00,11.179,8.420,,3.002,4.490,,,,
2025-10-14T07:14:08.308030+00:00,11.190,8.002,,-1.260,3.612,,,,
2025-10-14T07:14:08.911921+00:00,11.201,8.305,,-5.219,2.421,,,,
2025-10-14T07:14:09.518296+00:00,11.211,9.213,,-8.269,1.004,,,,
2025-10-14T07:14:10.122102+00:00,11.221,10.396,,-9.848,-0.497,,,,
2025-10-14T07:14:10.727329+00:00,11.230,11.441,,-9.691,-1.958,,,,
2025-10-14T07:14:11.335823+00:00,11.239,11.975,,-7.807,-3.246,,,,
2025-10-14T07:14:11.943552+00:00,11.248,11.801,,-4.532,-4.235,,,,
2025-10-14T07:14:12.547372+00:00,11.256,10.989,,-0.477,-4.834,,,,
2025-10-14T07:14:13.151175+00:00,11.263,9.827,,3.662,-4.995,,,,
2025-10-14T07:14:13.760905+00:00,11.270,8.717,,7.186,-4.700,,,,
2025-10-14T07:14:14.373813+00:00,11.276,8.068,,9.428,-3.966,,,,
2025-10-14T07:14:14.977847+00:00,11.281,8.116,,9.966,-2.881,,,,
2025-10-14T07:14:15.581737+00:00,11.286,8.831,,8.749,-1.535,,,,
2025-10-14T07:14:16.193195+00:00,11.290,9.975,,5.950,-0.032,,,,
2025-10-14T07:14:16.801058+00:00,11.294,11.121,,2.102,1.466,,,,
2025-10-14T07:14:17.408958+00:00,11.296,11.866,,-2.122,2.829,,,,
2025-10-14T07:14:18.015183+00:00,11.298,11.943,,-5.957,3.931,,,,
2025-10-14T07:14:18.647616+00:00,11.300,11.288,,-8.824,4.697,,,,
2025-10-14T07:14:19.261142+00:00,11.300,10.173,,-9.982,4.995,,,,
2025-10-14T07:14:19.868367+00:00,11.300,9.005,,-9.343,4.831,,,,
2025-10-14T07:14:20.472385+00:00,11.299,8.196,,-7.057,4.230,,,,
2025-10-14T07:14:21.080048+00:00,11.297,8.026,,-3.504,3.238,,,,
2025-10-14T07:14:21.696433+00:00,11.295,8.575,,0.734,1.930,,,,
2025-10-14T07:14:22.309560+00:00,11.291,9.643,,4.817,0.448,,,,
2025-10-14T07:14:22.913013+00:00,11.287,10.823,,7.986,-1.052,,,,
2025-10-14T07:14:23.521344+00:00,11.283,11.717,,9.759,-2.467,,,,
2025-10-14T07:14:24.130576+00:00,11.278,11.995,,9.787,-3.658,,,,
2025-10-14T07:14:24.734466+00:00,11.272,11.562,,8.085,-4.506,,,,
2025-10-14T07:14:25.339376+00:00,11.265,10.574,,4.952,-4.947,,,,
2025-10-14T07:14:25.950484+00:00,11.258,9.371,,0.902,-4.936,,,,
2025-10-14T07:14:26.565992+00:00,11.250,8.390,,-3.340,-4.463,,,,
2025-10-14T07:14:27.173441+00:00,11.242,8.001,,-6.931,-3.585,,,,
2025-10-14T07:14:27.776956+00:00,11.233,8.322,,-9.277,-2.387,,,,
2025-10-14T07:14:28.389114+00:00,11.224,9.252,,-9.989,-0.952,,,,
2025-10-14T07:14:29.002894+00:00,11.214,10.457,,-8.890,0.575,,,,
2025-10-14T07:14:29.608904+00:00,11.204,11.485,,-6.218,2.031,,,,
2025-10-14T07:14:30.212710+00:00,11.193,11.983,,-2.458,3.298,,,,
2025-10-14T07:14:30.820946+00:00,11.182,11.776,,1.765,4.272,,,,
2025-10-14T07:14:31.432529+00:00,11.171,10.926,,5.692,4.856,,,,
2025-10-14T07:14:32.041640+00:00,11.159,9.745,,8.583,4.990,,,,
2025-10-14T07:14:32.647293+00:00,11.148,8.661,,9.934,4.668,,,,
2025-10-14T07:14:33.256162+00:00,11.136,8.052,,9.519,3.916,,,,
2025-10-14T07:14:33.860581+00:00,11.124,8.140,,7.423,2.813,,,,
2025-10-14T07:14:34.479094+00:00,11.112,8.910,,3.926,1.421,,,,
2025-10-14T07:14:35.083654+00:00,11.099,10.056,,-0.197,-0.070,,,,
2025-10-14T07:14:35.689257+00:00,11.087,11.184,,-4.292,-1.558,,,,
2025-10-14T07:14:36.298008+00:00,11.075,11.893,,-7.642,-2.910,,,,
2025-10-14T07:14:36.908245+00:00,11.063,11.921,,-9.627,-3.997,,,,
2025-10-14T07:14:37.512189+00:00,11.051,11.265,,-9.889,-4.710,,,,
2025-10-14T07:14:38.116556+00:00,11.040,10.161,,-8.408,-4.996,,,,
2025-10-14T07:14:38.724837+00:00,11.028,8.993,,-5.422,-4.827,,,,
2025-10-14T07:14:39.330540+00:00,11.017,8.188,,-1.485,-4.218,,,,
2025-10-14T07:14:39.934524+00:00,11.006,8.028,,2.703,-3.229,,,,
2025-10-14T07:14:40.537891+00:00,10.996,8.564,,6.412,-1.949,,,,
2025-10-14T07:14:41.141931+00:00,10.986,9.609,,8.996,-0.491,,,,
2025-10-14T07:14:41.747190+00:00,10.976,10.794,,9.996,1.014,,,,
2025-10-14T07:14:42.357810+00:00,10.967,11.703,,9.214,2.439,,,,
2025-10-14T07:14:42.962747+00:00,10.958,11.997,,6.803,3.628,,,,
2025-10-14T07:14:43.568369+00:00,10.950,11.581,,3.185,4.489,,,,
2025-10-14T07:14:44.172051+00:00,10.942,10.607,,-0.982,4.941,,,,
2025-10-14T07:14:44.779714+00:00,10.935,9.410,,-5.001,4.944,,,,
2025-10-14T07:14:45.383327+00:00,10.928,8.430,,-8.113,4.499,,,,
2025-10-14T07:14:45.993714+00:00,10.922,8.003,,-9.806,3.635,,,,
2025-10-14T07:14:46.598460+00:00,10.917,8.292,,-9.745,2.448,,,,
2025-10-14T07:14:47.203191+00:00,10.913,9.187,,-7.964,1.039,,,,
2025-10-14T07:14:47.814991+00:00,10.909,10.384,,-4.734,-0.482,,,,
2025-10-14T07:14:48.424283+00:00,10.905,11.438,,-0.666,-1.953,,,,
2025-10-14T07:14:49.028582+00:00,10.903,11.973,,3.489,-3.234,,,,
2025-10-14T07:14:49.632612+00:00,10.901,11.810,,7.027,-4.222,,,,
2025-10-14T07:14:50.239432+00:00,10.900,11.001,,9.335,-4.829,,,,
2025-10-14T07:14:50.870808+00:00,10.900,9.786,,9.972,-4.993,,,,
2025-10-14T07:14:51.477764+00:00,10.901,8.690,,8.776,-4.684,,,,
2025-10-14T07:14:52.107763+00:00,10.902,8.051,,5.890,-3.912,,,,
2025-10-14T07:14:52.714237+00:00,10.904,8.143,,2.038,-2.804,,,,
2025-10-14T07:14:53.328985+00:00,10.907,8.911,,-2.232,-1.420,,,,
2025-10-14T07:14:53.937504+00:00,10.910,10.065,,-6.060,0.081,,,,
2025-10-14T07:14:54.546240+00:00,10.914,11.196,,-8.806,1.576,,,,
2025-10-14T07:14:55.153823+00:00,10.919,11.897,,-9.977,2.923,,,,
2025-10-14T07:14:55.784558+00:00,10.925,11.905,,-9.312,4.037,,,,
2025-10-14T07:14:56.389043+00:00,10.931,11.222,,-6.993,4.732,,,,
2025-10-14T07:14:56.992708+00:00,10.938,10.108,,-3.447,4.998,,,,
2025-10-14T07:14:57.600112+00:00,10.945,8.949,,0.732,4.810,,,,
2025-10-14T07:14:58.203643+00:00,10.953,8.169,,4.757,4.186,,,,
2025-10-14T07:14:58.807718+00:00,10.961,8.036,,7.947,3.184,,,,
2025-10-14T07:14:59.419448+00:00,10.970,8.609,,9.750,1.875,,,,
2025-10-14T07:15:00.022530+00:00,10.980,9.670,,9.804,0.414,,,,
2025-10-14T07:15:00.627967+00:00,10.990,10.851,,8.127,-1.090,,,,
2025-10-14T07:15:01.237244+00:00,11.000,11.734,,4.989,-2.504,,,,
2025-10-14T07:15:01.845954+00:00,11.011,11.992,,0.961,-3.686,,,,
2025-10-14T07:15:02.450096+00:00,11.022,11.541,,-3.208,-4.524,,,,
2025-10-14T07:15:03.061545+00:00,11.033,10.530,,-6.851,-4.955,,,,
2025-10-14T07:15:03.669681+00:00,11.045,9.333,,-9.247,-4.928,,,,
2025-10-14T07:15:04.301785+00:00,11.057,8.348,,-9.986,-4.421,,,,
2025-10-14T07:15:04.912014+00:00,11.069,8.000,,-8.874,-3.515,,,,
2025-10-14T07:15:05.520877+00:00,11.081,8.373,,-6.174,-2.288,,,,
2025-10-14T07:15:06.127075+00:00,11.093,9.325,,-2.387,-0.857,,,,
2025-10-14T07:15:06.732428+00:00,11.105,10.516,,1.817,0.651,,,,
2025-10-14T07:15:07.339514+00:00,11.117,11.526,,5.710,2.103,,,,
2025-10-14T07:15:07.946646+00:00,11.129,11.991,,8.587,3.363,,,,
2025-10-14T07:15:08.561686+00:00,11.142,11.736,,9.942,4.325,,,,
2025-10-14T07:15:09.168595+00:00,11.153,10.860,,9.501,4.877,,,,
2025-10-14T07:15:09.775194+00:00,11.165,9.677,,7.372,4.984,,,,
2025-10-14T07:15:10.379061+00:00,11.176,8.613,,3.952,4.638,,,,
2025-10-14T07:15:10.992357+00:00,11.187,8.037,,-0.231,3.857,,,,
2025-10-14T07:15:11.602821+00:00,11.198,8.173,,-4.353,2.723,,,,
2025-10-14T07:15:12.210326+00:00,11.209,8.964,,-7.679,1.344,,,,
2025-10-14T07:15:12.815967+00:00,11.219,10.123,,-9.634,-0.153,,,,
2025-10-14T07:15:13.424181+00:00,11.228,11.241,,-9.881,-1.643,,,,
2025-10-14T07:15:14.033369+00:00,11.237,11.915,,-8.359,-2.983,,,,
2025-10-14T07:15:14.640246+00:00,11.246,11.902,,-5.354,-4.046,,,,
2025-10-14T07:15:15.249585+00:00,11.254,11.205,,-1.381,-4.741,,,,
2025-10-14T07:15:15.857819+00:00,11.261,10.077,,2.834,-4.999,,,,
2025-10-14T07:15:16.461773+00:00,11.268,8.928,,6.519,-4.801,,,,
2025-10-14T07:15:17.068791+00:00,11.274,8.156,,9.065,-4.165,,,,
2025-10-14T07:15:17.672627+00:00,11.280,8.042,,9.999,-3.154,,,,
2025-10-14T07:15:18.283749+00:00,11.285,8.630,,9.154,-1.842,,,,
2025-10-14T07:15:18.887851+00:00,11.289,9.701,,6.693,-0.374,,,,
2025-10-14T07:15:19.491026+00:00,11.293,10.876,,3.061,1.123,,,,
2025-10-14T07:15:20.100227+00:00,11.296,11.747,,-1.151,2.533,,,,
2025-10-14T07:15:20.704258+00:00,11.298,11.991,,-5.126,3.701,,,,
2025-10-14T07:15:21.314915+00:00,11.299,11.521,,-8.224,4.540,,,,
2025-10-14T07:15:21.922212+00:00,11.300,10.509,,-9.838,4.959,,,,
2025-10-14T07:15:22.525735+00:00,11.300,9.321,,-9.708,4.925,,,,
2025-10-14T07:15:23.137486+00:00,11.299,8.364,,-7.834,4.437,,,,
2025-10-14T07:15:23.741536+00:00,11.298,8.000,,-4.594,3.551,,,,
2025-10-14T07:15:24.347604+00:00,11.295,8.346,,-0.530,2.339,,,,
2025-10-14T07:15:24.951465+00:00,11.292,9.278,,3.613,0.919,,,,
2025-10-14T07:15:25.560640+00:00,11.289,10.475,,7.146,-0.598,,,,
2025-10-14T07:15:26.165000+00:00,11.284,11.495,,9.388,-2.048,,,,
2025-10-14T07:15:26.773304+00:00,11.279,11.986,,9.973,-3.320,,,,
2025-10-14T07:15:27.376860+00:00,11.274,11.769,,8.792,-4.281,,,,
2025-10-14T07:15:27.980597+00:00,11.267,10.927,,6.064,-4.856,,,,
2025-10-14T07:15:28.592912+00:00,11.260,9.740,,2.211,-4.989,,,,
2025-10-14T07:15:29.196613+00:00,11.253,8.660,,-1.983,-4.667,,,,
2025-10-14T07:15:29.809598+00:00,11.245,8.050,,-5.881,-3.908,,,,
2025-10-14T07:15:30.413481+00:00,11.236,8.143,,-8.682,-2.804,,,,
2025-10-14T07:15:31.024427+00:00,11.227,8.904,,-9.958,-1.429,,,,
2025-10-14T07:15:31.628450+00:00,11.217,10.049,,-9.457,0.061,,,,
2025-10-14T07:15:32.232728+00:00,11.207,11.176,,-7.289,1.546,,,,
2025-10-14T07:15:32.845338+00:00,11.197,11.892,,-3.782,2.908,,,,
2025-10-14T07:15:33.455019+00:00,11.186,11.922,,0.389,3.994,,,,
2025-10-14T07:15:34.061035+00:00,11.175,11.265,,4.468,4.710,,,,
2025-10-14T07:15:34.670645+00:00,11.163,10.150,,7.770,4.996,,,,
2025-10-14T07:15:35.277564+00:00,11.152,8.986,,9.674,4.824,,,,
2025-10-14T07:15:35.884861+00:00,11.140,8.183,,9.857,4.211,,,,
2025-10-14T07:15:36.488994+00:00,11.128,8.030,,8.299,3.218,,,,
2025-10-14T07:15:37.104545+00:00,11.116,8.589,,5.210,1.907,,,,
2025-10-14T07:15:37.711616+00:00,11.104,9.650,,1.227,0.439,,,,
2025-10-14T07:15:38.315544+00:00,11.091,10.830,,-2.953,-1.062,,,,
2025-10-14T07:15:38.921752+00:00,11.079,11.719,,-6.625,-2.472,,,,
2025-10-14T07:15:39.528189+00:00,11.067,11.995,,-9.122,-3.657,,,,
2025-10-14T07:15:40.132390+00:00,11.055,11.562,,-10.000,-4.506,,,,
2025-10-14T07:15:40.740773+00:00,11.044,10.568,,-9.104,-4.948,,,,
2025-10-14T07:15:41.344699+00:00,11.032,9.379,,-6.605,-4.938,,,,
2025-10-14T07:15:41.948295+00:00,11.021,8.410,,-2.945,-4.481,,,,
2025-10-14T07:15:42.552593+00:00,11.010,8.002,,1.238,-3.618,,,,
2025-10-14T07:15:43.156897+00:00,10.999,8.302,,5.202,-2.427,,,,
2025-10-14T07:15:43.764964+00:00,10.989,9.211,,8.264,-1.007,,,,
2025-10-14T07:15:44.371619+00:00,10.979,10.399,,9.850,0.502,,,,
2025-10-14T07:15:44.980334+00:00,10.970,11.448,,9.682,1.970,,,,
2025-10-14T07:15:45.589047+00:00,10.961,11.977,,7.783,3.256,,,,
2025-10-14T07:15:46.193308+00:00,10.952,11.799,,4.520,4.238,,,,
2025-10-14T07:15:46.800268+00:00,10.944,10.980,,0.441,4.837,,,,
2025-10-14T07:15:47.404099+00:00,10.937,9.816,,-3.696,4.995,,,,
2025-10-14T07:15:48.008042+00:00,10.930,8.718,,-7.183,4.700,,,,
2025-10-14T07:15:48.616421+00:00,10.924,8.071,,-9.415,3.974,,,,
2025-10-14T07:15:49.223497+00:00,10.919,8.115,,-9.967,2.885,,,,
2025-10-14T07:15:49.827617+00:00,10.914,8.828,,-8.756,1.540,,,,
2025-10-14T07:15:50.433949+00:00,10.910,9.960,,-5.989,0.049,,,,
2025-10-14T07:15:51.044494+00:00,10.906,11.114,,-2.131,-1.456,,,,
2025-10-14T07:15:51.658650+00:00,10.904,11.868,,2.135,-2.833,,,,
2025-10-14T07:15:52.264357+00:00,10.902,11.943,,5.965,-3.933,,,,
2025-10-14T07:15:52.872361+00:00,10.901,11.323,,8.747,-4.677,,,,
2025-10-14T07:15:53.504570+00:00,10.900,10.181,,9.980,-4.995,,,,
2025-10-14T07:15:54.108392+00:00,10.900,9.018,,9.362,-4.836,,,,
2025-10-14T07:15:54.719629+00:00,10.901,8.196,,7.060,-4.231,,,,
2025-10-14T07:15:55.323392+00:00,10.903,8.025,,3.533,-3.247,,,,
2025-10-14T07:15:55.934605+00:00,10.905,8.562,,-0.667,-1.952,,,,
2025-10-14T07:15:56.541593+00:00,10.909,9.612,,-4.720,-0.487,,,,
2025-10-14T07:15:57.154994+00:00,10.913,10.812,,-7.962,1.038,,,,
2025-10-14T07:15:57.759439+00:00,10.917,11.707,,-9.744,2.446,,,,
2025-10-14T07:15:58.369292+00:00,10.922,11.996,,-9.800,3.643,,,,
2025-10-14T07:15:58.972990+00:00,10.928,11.573,,-8.123,4.496,,,,
2025-10-14T07:15:59.583903+00:00,10.935,10.581,,-4.972,4.946,,,,
2025-10-14T07:16:00.196195+00:00,10.942,9.375,,-0.916,4.937,,,,
2025-10-14T07:16:00.804462+00:00,10.950,8.402,,3.278,4.474,,,,
2025-10-14T07:16:01.407985+00:00,10.958,8.002,,6.864,3.608,,,,
2025-10-14T07:16:02.014316+00:00,10.967,8.311,,9.250,2.410,,,,
2025-10-14T07:16:02.618556+00:00,10.976,9.218,,9.995,0.997,,,,
2025-10-14T07:16:03.225371+00:00,10.986,10.408,,8.970,-0.512,,,,
2025-10-14T07:16:03.829960+00:00,10.996,11.448,,6.363,-1.970,,,,
2025-10-14T07:16:04.433953+00:00,11.006,11.975,,2.638,-3.248,,,,
2025-10-14T07:16:05.037558+00:00,11.017,11.804,,-1.550,-4.231,,,,
2025-10-14T07:16:05.642660+00:00,11.028,10.992,,-5.473,-4.833,,,,
2025-10-14T07:16:06.247417+00:00,11.040,9.829,,-8.428,-4.995,,,,
2025-10-14T07:16:06.854309+00:00,11.052,8.723,,-9.897,-4.703,,,,
2025-10-14T07:16:07.464166+00:00,11.063,8.072,,-9.601,-3.977,,,,
2025-10-14T07:16:08.075157+00:00,11.075,8.116,,-7.576,-2.881,,,,
2025-10-14T07:16:08.679356+00:00,11.088,8.832,,-4.230,-1.535,,,,
2025-10-14T07:16:09.283530+00:00,11.100,9.960,,-0.138,-0.049,,,,
2025-10-14T07:16:09.891009+00:00,11.112,11.109,,3.999,1.448,,,,
2025-10-14T07:16:10.500329+00:00,11.124,11.862,,7.433,2.817,,,,
2025-10-14T07:16:11.103846+00:00,11.136,11.947,,9.522,3.918,,,,
2025-10-14T07:16:11.708039+00:00,11.148,11.344,,9.937,4.664,,,,
2025-10-14T07:16:12.312298+00:00,11.159,10.264,,8.600,4.989,,,,
2025-10-14T07:16:12.919639+00:00,11.171,9.086,,5.730,4.860,,,,
2025-10-14T07:16:13.525527+00:00,11.182,8.235,,1.849,4.288,,,,
2025-10-14T07:16:14.135103+00:00,11.193,8.014,,-2.384,3.318,,,,
2025-10-14T07:16:14.739874+00:00,11.203,8.502,,-6.163,2.054,,,,
2025-10-14T07:16:15.355579+00:00,11.214,9.542,,-8.889,0.576,,,,
2025-10-14T07:16:15.960801+00:00,11.224,10.731,,-9.986,-0.930,,,,
2025-10-14T07:16:16.569067+00:00,11.233,11.664,,-9.310,-2.359,,,,
2025-10-14T07:16:17.173153+00:00,11.242,12.000,,-6.992,-3.564,,,,
2025-10-14T07:16:17.800166+00:00,11.250,11.601,,-3.291,-4.471,,,,
2025-10-14T07:16:18.407634+00:00,11.258,10.630,,0.897,-4.936,,,,
2025-10-14T07:16:19.017806+00:00,11.265,9.429,,4.943,-4.948,,,,
2025-10-14T07:16:19.625002+00:00,11.272,8.437,,8.088,-4.506,,,,
2025-10-14T07:16:20.230927+00:00,11.278,8.005,,9.791,-3.654,,,,
2025-10-14T07:16:20.834690+00:00,11.283,8.280,,9.763,-2.473,,,,
2025-10-14T07:16:21.443427+00:00,11.287,9.173,,7.996,-1.058,,,,
2025-10-14T07:16:22.053505+00:00,11.291,10.366,,4.791,0.459,,,,
2025-10-14T07:16:22.666696+00:00,11.295,11.431,,0.703,1.940,,,,
2025-10-14T07:16:23.272184+00:00,11.297,11.972,,-3.461,3.226,,,,
2025-10-14T07:16:23.883286+00:00,11.299,11.807,,-7.042,4.226,,,,
2025-10-14T07:16:24.486784+00:00,11.300,11.001,,-9.334,4.829,,,,
2025-10-14T07:16:25.090670+00:00,11.300,9.841,,-9.985,4.996,,,,
2025-10-14T07:16:25.697214+00:00,11.300,8.733,,-8.869,4.709,,,,
2025-10-14T07:16:26.301114+00:00,11.298,8.078,,-6.193,3.996,,,,
2025-10-14T07:16:26.911784+00:00,11.296,8.108,,-2.381,2.907,,,,
2025-10-14T07:16:27.514433+00:00,11.294,8.808,,1.804,1.569,,,,
2025-10-14T07:16:28.117642+00:00,11.290,9.930,,5.677,0.088,,,,
2025-10-14T07:16:28.723334+00:00,11.286,11.080,,8.561,-1.407,,,,
2025-10-14T07:16:29.327255+00:00,11.282,11.845,,9.928,-2.770,,,,
2025-10-14T07:16:29.931033+00:00,11.276,11.957,,9.547,-3.883,,,,
2025-10-14T07:16:30.534151+00:00,11.270,11.378,,7.489,-4.643,,,,
2025-10-14T07:16:31.139531+00:00,11.264,10.309,,4.101,-4.985,,,,
2025-10-14T07:16:31.743640+00:00,11.256,9.131,,-0.003,-4.874,,,,
2025-10-14T07:16:32.346883+00:00,11.249,8.263,,-4.101,-4.324,,,,
2025-10-14T07:16:32.955121+00:00,11.240,8.008,,-7.502,-3.373,,,,
2025-10-14T07:16:33.558992+00:00,11.231,8.462,,-9.554,-2.123,,,,
2025-10-14T07:16:34.183282+00:00,11.222,9.500,,-9.906,-0.630,,,,
2025-10-14T07:16:34.792889+00:00,11.212,10.699,,-8.451,0.887,,,,
2025-10-14T07:16:35.396955+00:00,11.201,11.639,,-5.514,2.311,,,,
2025-10-14T07:16:36.007385+00:00,11.191,12.000,,-1.560,3.537,,,,
2025-10-14T07:16:36.611579+00:00,11.180,11.645,,2.631,4.428,,,,
2025-10-14T07:16:37.214862+00:00,11.169,10.710,,6.354,4.918,,,,
2025-10-14T07:16:37.821507+00:00,11.157,9.517,,8.971,4.963,,,,
2025-10-14T07:16:38.425491+00:00,11.145,8.500,,9.994,4.557,,,,
2025-10-14T07:16:39.033866+00:00,11.134,8.013,,9.245,3.732,,,,
2025-10-14T07:16:39.636976+00:00,11.122,8.234,,6.871,2.575,,,,
2025-10-14T07:16:40.243262+00:00,11.110,9.084,,3.270,1.179,,,,
2025-10-14T07:16:40.847382+00:00,11.097,10.256,,-0.896,-0.320,,,,
2025-10-14T07:16:41.451517+00:00,11.085,11.337,,-4.905,-1.790,,,,
2025-10-14T07:16:42.061752+00:00,11.073,11.948,,-8.074,-3.110,,,,
2025-10-14T07:16:42.667381+00:00,11.061,11.859,,-9.786,-4.136,,,,
2025-10-14T07:16:43.273426+00:00,11.049,11.108,,-9.765,-4.786,,,,
2025-10-14T07:16:43.876598+00:00,11.038,9.968,,-8.025,-5.000,,,,
2025-10-14T07:16:44.485412+00:00,11.026,8.830,,-4.840,-4.758,,,,
2025-10-14T07:16:45.089318+00:00,11.015,8.116,,-0.824,-4.086,,,,
2025-10-14T07:16:45.696848+00:00,11.005,8.070,,3.361,-3.037,,,,
2025-10-14T07:16:46.302471+00:00,10.994,8.712,,6.938,-1.714,,,,
2025-10-14T07:16:46.905668+00:00,10.984,9.807,,9.280,-0.242,,,,
2025-10-14T07:16:47.518636+00:00,10.974,10.987,,9.989,1.276,,,,
2025-10-14T07:16:48.124101+00:00,10.965,11.802,,8.911,2.660,,,,
2025-10-14T07:16:48.727686+00:00,10.956,11.976,,6.267,3.798,,,,
2025-10-14T07:16:49.331791+00:00,10.948,11.452,,2.516,4.593,,,,
2025-10-14T07:16:49.935925+00:00,10.941,10.413,,-1.677,4.973,,,,
2025-10-14T07:16:50.542577+00:00,10.934,9.224,,-5.590,4.901,,,,
2025-10-14T07:16:51.146728+00:00,10.927,8.314,,-8.501,4.385,,,,
2025-10-14T07:16:51.759305+00:00,10.921,8.002,,-9.921,3.456,,,,
2025-10-14T07:16:52.391637+00:00,10.916,8.441,,-9.503,2.161,,,,
2025-10-14T07:16:53.000412+00:00,10.912,9.437,,-7.365,0.710,,,,
2025-10-14T07:16:53.608463+00:00,10.908,10.635,,-3.915,-0.804,,,,
2025-10-14T07:16:54.212351+00:00,10.905,11.599,,0.204,-2.235,,,,
2025-10-14T07:16:54.824850+00:00,10.903,11.999,,4.342,-3.479,,,,
2025-10-14T07:16:55.428973+00:00,10.901,11.681,,7.657,-4.390,,,,
2025-10-14T07:16:56.033354+00:00,10.900,10.767,,9.622,-4.903,,,,
2025-10-14T07:16:56.636718+00:00,10.900,9.584,,9.893,-4.973,,,,
2025-10-14T07:16:57.243213+00:00,10.901,8.543,,8.412,-4.590,,,,
2025-10-14T07:16:57.847338+00:00,10.902,8.023,,5.452,-3.792,,,,
2025-10-14T07:16:58.458239+00:00,10.904,8.208,,1.485,-2.636,,,,
2025-10-14T07:16:59.062234+00:00,10.907,9.030,,-2.703,-1.253,,,,
2025-10-14T07:16:59.665914+00:00,10.910,10.194,,-6.414,0.243,,,,
2025-10-14T07:17:00.269909+00:00,10.915,11.290,,-8.997,1.717,,,,
2025-10-14T07:17:00.882275+00:00,10.920,11.934,,-9.997,3.053,,,,
2025-10-14T07:17:01.486500+00:00,10.925,11.881,,-9.211,4.093,,,,
2025-10-14T07:17:02.091968+00:00,10.931,11.159,,-6.795,4.763,,,,
2025-10-14T07:17:02.697297+00:00,10.938,10.026,,-3.177,5.000,,,,
2025-10-14T07:17:03.300952+00:00,10.945,8.886,,0.991,4.784,,,,
2025-10-14T07:17:03.908566+00:00,10.953,8.137,,5.009,4.129,,,,
2025-10-14T07:17:04.515929+00:00,10.962,8.055,,8.133,3.097,,,,
2025-10-14T07:17:05.119834+00:00,10.971,8.663,,9.804,1.790,,,,
2025-10-14T07:17:05.725305+00:00,10.980,9.747,,9.747,0.316,,,,
2025-10-14T07:17:06.336528+00:00,10.990,10.932,,7.940,-1.200,,,,
2025-10-14T07:17:06.942353+00:00,11.001,11.774,,4.736,-2.593,,,,
2025-10-14T07:17:07.546669+00:00,11.011,11.985,,0.703,-3.748,,,,
2025-10-14T07:17:08.153608+00:00,11.022,11.489,,-3.471,-4.565,,,,
2025-10-14T07:17:08.759944+00:00,11.034,10.463,,-7.025,-4.966,,,,
2025-10-14T07:17:09.364965+00:00,11.045,9.274,,-9.329,-4.914,,,,
2025-10-14T07:17:10.489199+00:00,11.067,8.006,,-9.136,-3.666,,,,
2025-10-14T07:17:11.093743+00:00,11.079,8.274,,-6.661,-2.487,,,,
2025-10-14T07:17:11.705212+00:00,11.091,9.166,,-2.964,-1.067,,,,
2025-10-14T07:17:12.310998+00:00,11.104,10.350,,1.228,0.439,,,,
2025-10-14T07:17:12.918237+00:00,11.116,11.411,,5.211,1.908,,,,
2025-10-14T07:17:13.522911+00:00,11.128,11.967,,8.257,3.198,,,,
2025-10-14T07:17:14.126688+00:00,11.140,11.826,,9.844,4.196,,,,
2025-10-14T07:17:14.730278+00:00,11.151,11.039,,9.699,4.815,,,,
2025-10-14T07:17:15.336239+00:00,11.163,9.881,,7.838,4.998,,,,
2025-10-14T07:17:15.941441+00:00,11.174,8.766,,4.593,4.726,,,,
2025-10-14T07:17:16.549068+00:00,11.185,8.088,,0.518,4.022,,,,
2025-10-14T07:17:17.172957+00:00,11.197,8.105,,-3.755,2.916,,,,
2025-10-14T07:17:17.776618+00:00,11.207,8.803,,-7.225,1.577,,,,
2025-10-14T07:17:18.383307+00:00,11.217,9.930,,-9.432,0.087,,,,
2025-10-14T07:17:18.987911+00:00,11.227,11.079,,-9.964,-1.405,,,,
2025-10-14T07:17:19.590993+00:00,11.236,11.844,,-8.743,-2.767,,,,
2025-10-14T07:17:20.197678+00:00,11.244,11.957,,-5.967,-3.884,,,,
2025-10-14T07:17:20.801505+00:00,11.252,11.376,,-2.150,-4.645,,,,
2025-10-14T07:17:21.404861+00:00,11.260,10.309,,2.042,-4.985,,,,
2025-10-14T07:17:22.008852+00:00,11.267,9.132,,5.879,-4.875,,,,
2025-10-14T07:17:22.622839+00:00,11.273,8.252,,8.715,-4.310,,,,
2025-10-14T07:17:23.226455+00:00,11.279,8.009,,9.959,-3.362,,,,
2025-10-14T07:17:23.834759+00:00,11.284,8.476,,9.442,-2.100,,,,
2025-10-14T07:17:24.438772+00:00,11.289,9.481,,7.258,-0.655,,,,
2025-10-14T07:17:25.047224+00:00,11.292,10.678,,3.768,0.860,,,,
2025-10-14T07:17:25.653828+00:00,11.295,11.630,,-0.383,2.292,,,,
2025-10-14T07:17:26.257181+00:00,11.297,12.000,,-4.445,3.509,,,,
2025-10-14T07:17:26.864247+00:00,11.299,11.660,,-7.743,4.413,,,,
2025-10-14T07:17:27.468378+00:00,11.300,10.732,,-9.658,4.912,,,,
2025-10-14T07:17:28.072423+00:00,11.300,9.545,,-9.871,4.967,,,,
2025-10-14T07:17:28.679256+00:00,11.299,8.516,,-8.335,4.569,,,,
2025-10-14T07:17:29.283042+00:00,11.298,8.017,,-5.336,3.759,,,,
2025-10-14T07:17:29.889557+00:00,11.296,8.222,,-1.378,2.603,,,,
2025-10-14T07:17:30.494608+00:00,11.293,9.059,,2.814,1.213,,,,
2025-10-14T07:17:31.099744+00:00,11.289,10.230,,6.510,-0.287,,,,
2025-10-14T07:17:31.707939+00:00,11.285,11.324,,9.064,-1.769,,,,
2025-10-14T07:17:32.336196+00:00,11.280,11.952,,10.000,-3.127,,,,
2025-10-14T07:17:32.942724+00:00,11.275,11.852,,9.097,-4.150,,,,
2025-10-14T07:17:33.547016+00:00,11.268,11.095,,6.591,-4.792,,,,
2025-10-14T07:17:34.153830+00:00,11.261,9.945,,2.906,-5.000,,,,
2025-10-14T07:17:34.765076+00:00,11.254,8.808,,-1.326,-4.747,,,,
2025-10-14T07:17:35.369205+00:00,11.246,8.107,,-5.277,-4.065,,,,
2025-10-14T07:17:35.975077+00:00,11.237,8.077,,-8.305,-3.012,,,,
2025-10-14T07:17:36.579960+00:00,11.228,8.730,,-9.860,-1.686,,,,
2025-10-14T07:17:37.186464+00:00,11.219,9.837,,-9.671,-0.203,,,,
2025-10-14T07:17:37.793772+00:00,11.209,11.004,,-7.761,1.300,,,,
2025-10-14T07:17:38.404712+00:00,11.198,11.815,,-4.447,2.692,,,,
2025-10-14T07:17:39.013639+00:00,11.188,11.969,,-0.346,3.831,,,,
2025-10-14T07:17:39.619918+00:00,11.177,11.420,,3.800,4.615,,,,
2025-10-14T07:17:40.225961+00:00,11.165,10.365,,7.271,4.979,,,,
2025-10-14T07:17:40.832514+00:00,11.154,9.179,,9.453,4.889,,,,
2025-10-14T07:17:41.437758+00:00,11.142,8.287,,9.958,4.354,,,,
2025-10-14T07:17:42.047631+00:00,11.130,8.005,,8.686,3.414,,,,
2025-10-14T07:17:42.653870+00:00,11.118,8.437,,5.876,2.168,,,,
2025-10-14T07:17:43.283955+00:00,11.105,9.472,,1.859,0.666,,,,
2025-10-14T07:17:43.887475+00:00,11.093,10.660,,-2.333,-0.837,,,,
2025-10-14T07:17:44.491212+00:00,11.081,11.615,,-6.116,-2.265,,,,
2025-10-14T07:17:45.101744+00:00,11.069,12.000,,-8.845,-3.500,,,,
2025-10-14T07:17:45.705176+00:00,11.057,11.669,,-9.980,-4.403,,,,
2025-10-14T07:17:46.309043+00:00,11.046,10.749,,-9.360,-4.908,,,,
2025-10-14T07:17:46.917129+00:00,11.034,9.555,,-7.071,-4.969,,,,
2025-10-14T07:17:47.520986+00:00,11.023,8.526,,-3.547,-4.577,,,,
2025-10-14T07:17:48.129673+00:00,11.012,8.018,,0.634,-3.764,,,,
2025-10-14T07:17:48.733524+00:00,11.001,8.217,,4.672,-2.615,,,,
2025-10-14T07:17:49.341549+00:00,10.991,9.054,,7.906,-1.219,,,,
2025-10-14T07:17:49.946373+00:00,10.981,10.224,,9.724,0.280,,,,
2025-10-14T07:17:50.553657+00:00,10.971,11.318,,9.821,1.760,,,,
2025-10-14T07:17:51.158545+00:00,10.962,11.940,,8.180,3.074,,,,
2025-10-14T07:17:51.763600+00:00,10.954,11.873,,5.093,4.109,,,,
2025-10-14T07:17:52.373218+00:00,10.946,11.134,,1.075,4.775,,,,
2025-10-14T07:17:52.977240+00:00,10.938,9.997,,-3.100,5.000,,,,
2025-10-14T07:17:53.581229+00:00,10.931,8.862,,-6.728,4.773,,,,
2025-10-14T07:17:54.184522+00:00,10.925,8.130,,-9.169,4.114,,,,
2025-10-14T07:17:54.790922+00:00,10.920,8.059,,-9.999,3.078,,,,
2025-10-14T07:17:55.394713+00:00,10.915,8.677,,-9.062,1.768,,,,
2025-10-14T07:17:55.997952+00:00,10.911,9.762,,-6.533,0.299,,,,
2025-10-14T07:17:56.601312+00:00,10.907,10.930,,-2.856,-1.198,,,,
2025-10-14T07:17:57.204533+00:00,10.904,11.771,,1.323,-2.586,,,,
2025-10-14T07:17:57.809401+00:00,10.902,11.985,,5.279,-3.743,,,,
2025-10-14T07:17:58.412856+00:00,10.901,11.497,,8.296,-4.559,,,,
2025-10-14T07:17:59.017280+00:00,10.900,10.479,,9.857,-4.964,,,,
2025-10-14T07:17:59.626567+00:00,10.900,9.281,,9.671,-4.916,,,,
2025-10-14T07:18:00.237435+00:00,10.901,8.341,,7.745,-4.414,,,,
2025-10-14T07:18:00.845031+00:00,10.903,8.000,,4.445,-3.509,,,,
2025-10-14T07:18:01.449023+00:00,10.905,8.371,,0.378,-2.290,,,,
2025-10-14T07:18:02.058737+00:00,10.908,9.330,,-3.793,-0.851,,,,
2025-10-14T07:18:02.664126+00:00,10.911,10.521,,-7.262,0.657,,,,
2025-10-14T07:18:03.267966+00:00,10.916,11.525,,-9.443,2.101,,,,
2025-10-14T07:18:03.876498+00:00,10.921,11.991,,-9.959,3.364,,,,
2025-10-14T07:18:04.483226+00:00,10.927,11.744,,-8.701,4.315,,,,
2025-10-14T07:18:05.111832+00:00,10.933,10.834,,-5.773,4.885,,,,
2025-10-14T07:18:05.716919+00:00,10.940,9.652,,-1.907,4.981,,,,
2025-10-14T07:18:06.321172+00:00,10.948,8.595,,2.291,4.626,,,,
2025-10-14T07:18:06.924933+00:00,10.956,8.035,,6.081,3.852,,,,
2025-10-14T07:18:07.532622+00:00,10.965,8.174,,8.815,2.722,,,,
2025-10-14T07:18:08.136180+00:00,10.974,8.959,,9.976,1.352,,,,
2025-10-14T07:18:08.742236+00:00,10.983,10.117,,9.376,-0.146,,,,
2025-10-14T07:18:09.356257+00:00,10.994,11.246,,7.075,-1.650,,,,
2025-10-14T07:18:09.959997+00:00,11.004,11.914,,3.554,-2.978,,,,
2025-10-14T07:18:10.564014+00:00,11.015,11.905,,-0.595,-4.038,,,,
2025-10-14T07:18:11.167913+00:00,11.026,11.222,,-4.638,-4.732,,,,
2025-10-14T07:18:11.771595+00:00,11.037,10.108,,-7.863,-4.998,,,,
2025-10-14T07:18:12.375864+00:00,11.049,8.954,,-9.706,-4.812,,,,
2025-10-14T07:18:12.980089+00:00,11.061,8.171,,-9.838,-4.190,,,,
2025-10-14T07:18:13.584194+00:00,11.072,8.035,,-8.237,-3.188,,,,
2025-10-14T07:18:14.188486+00:00,11.084,8.596,,-5.184,-1.897,,,,
2025-10-14T07:18:14.795602+00:00,11.097,9.659,,-1.197,-0.428,,,,
2025-10-14T07:18:15.401479+00:00,11.109,10.842,,2.995,1.078,,,,
2025-10-14T07:18:16.009235+00:00,11.121,11.727,,6.666,2.489,,,,
2025-10-14T07:18:16.614673+00:00,11.133,11.994,,9.141,3.669,,,,
2025-10-14T07:18:17.229156+00:00,11.145,11.541,,9.999,4.524,,,,
2025-10-14T07:18:17.855913+00:00,11.157,10.500,,8.998,4.960,,,,
2025-10-14T07:18:18.460070+00:00,11.168,9.311,,6.415,4.923,,,,
2025-10-14T07:18:19.064333+00:00,11.180,8.366,,2.701,4.440,,,,
2025-10-14T07:18:19.671396+00:00,11.191,8.000,,-1.509,3.550,,,,
2025-10-14T07:18:20.275063+00:00,11.201,8.344,,-5.430,2.342,,,,
2025-10-14T07:18:20.879249+00:00,11.211,9.275,,-8.398,0.922,,,,
2025-10-14T07:18:21.493542+00:00,11.221,10.482,,-9.897,-0.607,,,,
2025-10-14T07:18:22.097420+00:00,11.231,11.499,,-9.614,-2.055,,,,
2025-10-14T07:18:22.705785+00:00,11.240,11.987,,-7.618,-3.326,,,,
2025-10-14T07:18:23.311825+00:00,11.248,11.764,,-4.276,-4.289,,,,
2025-10-14T07:18:23.921053+00:00,11.256,10.907,,-0.153,-4.862,,,,
2025-10-14T07:18:24.549002+00:00,11.264,9.687,,4.116,-4.985,,,,
2025-10-14T07:18:25.156551+00:00,11.270,8.615,,7.510,-4.639,,,,
2025-10-14T07:18:25.760538+00:00,11.276,8.041,,9.558,-3.874,,,,
2025-10-14T07:18:26.364092+00:00,11.282,8.159,,9.923,-2.759,,,,
2025-10-14T07:18:26.973053+00:00,11.286,8.937,,8.524,-1.383,,,,
2025-10-14T07:18:27.581365+00:00,11.291,10.096,,5.603,0.120,,,,
2025-10-14T07:18:28.186166+00:00,11.294,11.215,,1.705,1.603,,,,
2025-10-14T07:18:28.794781+00:00,11.296,11.905,,-2.519,2.949,,,,
2025-10-14T07:18:29.397884+00:00,11.298,11.914,,-6.263,4.015,,,,
2025-10-14T07:18:30.003639+00:00,11.300,11.244,,-8.916,4.721,,,,
2025-10-14T07:18:30.607828+00:00,11.300,10.134,,-9.989,4.997,,,,
2025-10-14T07:18:31.211473+00:00,11.300,8.978,,-9.303,4.821,,,,
2025-10-14T07:18:31.815709+00:00,11.299,8.182,,-6.978,4.208,,,,
2025-10-14T07:18:32.424833+00:00,11.297,8.032,,-3.390,3.205,,,,
2025-10-14T07:18:33.029110+00:00,11.294,8.583,,0.770,1.918,,,,
2025-10-14T07:18:33.633934+00:00,11.291,9.637,,4.799,0.456,,,,
2025-10-14T07:18:34.237766+00:00,11.287,10.818,,7.975,-1.045,,,,
2025-10-14T07:18:34.842363+00:00,11.283,11.710,,9.749,-2.454,,,,
2025-10-14T07:18:35.445852+00:00,11.278,11.997,,9.805,-3.637,,,,
2025-10-14T07:18:36.053580+00:00,11.272,11.572,,8.119,-4.497,,,,
2025-10-14T07:18:36.659676+00:00,11.265,10.588,,4.995,-4.944,,,,
2025-10-14T07:18:37.280794+00:00,11.258,9.366,,0.882,-4.935,,,,
2025-10-14T07:18:37.884814+00:00,11.250,8.401,,-3.283,-4.473,,,,
2025-10-14T07:18:38.490777+00:00,11.242,8.001,,-6.880,-3.602,,,,
2025-10-14T07:18:39.094170+00:00,11.233,8.311,,-9.250,-2.409,,,,
2025-10-14T07:18:39.698167+00:00,11.224,9.218,,-9.995,-0.997,,,,
2025-10-14T07:18:40.316715+00:00,11.214,10.431,,-8.933,0.541,,,,
2025-10-14T07:18:40.947562+00:00,11.203,11.500,,-6.156,2.057,,,,
2025-10-14T07:18:41.556877+00:00,11.193,11.987,,-2.344,3.329,,,,
2025-10-14T07:18:42.190567+00:00,11.181,11.736,,2.055,4.326,,,,
2025-10-14T07:18:42.801637+00:00,11.170,10.851,,5.929,4.880,,,,
2025-10-14T07:18:43.412951+00:00,11.159,9.658,,8.736,4.982,,,,
2025-10-14T07:18:44.018833+00:00,11.147,8.597,,9.965,4.627,,,,
2025-10-14T07:18:44.631271+00:00,11.135,8.033,,9.412,3.840,,,,
2025-10-14T07:18:45.266742+00:00,11.122,8.203,,7.042,2.648,,,,
2025-10-14T07:18:45.876793+00:00,11.110,9.030,,3.469,1.252,,,,
2025-10-14T07:18:46.480799+00:00,11.098,10.195,,-0.685,-0.245,,,,
2025-10-14T07:18:47.084587+00:00,11.086,11.291,,-4.717,-1.718,,,,
2025-10-14T07:18:47.697005+00:00,11.074,11.934,,-7.955,-3.054,,,,
2025-10-14T07:18:48.309646+00:00,11.062,11.875,,-9.754,-4.106,,,,
2025-10-14T07:18:48.916401+00:00,11.050,11.143,,-9.795,-4.771,,,,
2025-10-14T07:18:49.525000+00:00,11.038,9.999,,-8.088,-5.000,,,,
2025-10-14T07:18:50.138716+00:00,11.027,8.847,,-4.904,-4.766,,,,
2025-10-14T07:18:50.749321+00:00,11.015,8.119,,-0.850,-4.091,,,,
2025-10-14T07:18:51.355139+00:00,11.005,8.067,,3.325,-3.048,,,,
                                                                                                                                                                                                                                                                                                                                                          