ts_iso,batt_v,airspeed_ms,groundspeed_ms,roll_deg,pitch_deg,yaw_deg,lat,lon,alt_m
2025-10-13T13:12:57.598509+00:00,,,,,,,,,
2025-10-13T13:12:57.761665+00:00,11.213,9.455,8.206,-8.740,0.688,120.143,56.162853,10.203912,61.29
2025-10-13T13:12:57.963264+00:00,11.216,9.851,8.056,-9.337,0.186,124.175,56.162925,10.203914,59.00
2025-10-13T13:12:58.165282+00:00,11.220,10.254,7.904,-9.748,-0.319,128.215,56.162916,10.203870,60.58
2025-10-13T13:12:58.367142+00:00,11.223,10.647,7.754,-9.965,-0.820,132.252,56.162934,10.203923,58.63
2025-10-13T13:12:58.568970+00:00,11.226,11.013,7.606,-9.983,-1.313,136.289,56.162868,10.203911,62.12
2025-10-13T13:12:58.769959+00:00,11.229,11.337,7.463,-9.804,-1.790,140.309,56.162872,10.203907,59.64
2025-10-13T13:12:58.970987+00:00,11.232,11.607,7.325,-9.430,-2.249,144.329,56.162871,10.203931,60.43
2025-10-13T13:12:59.173745+00:00,11.235,11.814,7.193,-8.865,-2.690,148.384,56.162867,10.203857,60.27
2025-10-13T13:12:59.375635+00:00,11.238,11.946,7.070,-8.125,-3.101,152.422,56.162928,10.203868,57.64
2025-10-13T13:12:59.577452+00:00,11.241,11.999,6.956,-7.223,-3.480,156.459,56.162947,10.203921,57.62
2025-10-13T13:12:59.779107+00:00,11.244,11.971,6.853,-6.178,-3.824,160.492,56.162939,10.203873,59.59
2025-10-13T13:12:59.980952+00:00,11.247,11.863,6.761,-5.009,-4.129,164.529,56.162930,10.203941,62.24
2025-10-13T13:13:00.184685+00:00,11.249,11.677,6.682,-3.728,-4.394,168.603,56.162908,10.203855,61.11
2025-10-13T13:13:00.386851+00:00,11.252,11.424,6.616,-2.382,-4.613,172.647,56.162941,10.203936,59.12
2025-10-13T13:13:00.589767+00:00,11.255,11.112,6.565,-0.984,-4.784,176.705,56.162893,10.203933,61.19
2025-10-13T13:13:00.791669+00:00,11.257,10.756,6.528,0.428,-4.906,180.743,56.162920,10.203867,61.92
2025-10-13T13:13:00.993761+00:00,11.260,10.369,6.506,1.832,-4.978,184.785,56.162902,10.203899,58.98
2025-10-13T13:13:01.196870+00:00,11.262,9.965,6.500,3.207,-5.000,188.847,56.162929,10.203891,58.40
2025-10-13T13:13:01.398827+00:00,11.264,9.564,6.509,4.509,-4.970,192.886,56.162940,10.203949,59.12
2025-10-13T13:13:01.600714+00:00,11.267,9.182,6.533,5.722,-4.889,196.924,56.162920,10.203928,60.76
2025-10-13T13:13:01.802272+00:00,11.269,8.833,6.572,6.818,-4.759,200.955,56.162914,10.203880,62.42
2025-10-13T13:13:02.004591+00:00,11.271,8.531,6.626,7.782,-4.580,205.001,56.162940,10.203864,58.70
2025-10-13T13:13:02.207381+00:00,11.273,8.287,6.694,8.593,-4.354,209.057,56.162896,10.203902,58.51
2025-10-13T13:13:02.410233+00:00,11.275,8.114,6.775,9.230,-4.083,213.114,56.162922,10.203893,59.38
2025-10-13T13:13:02.612864+00:00,11.277,8.019,6.869,9.681,-3.770,217.167,56.162859,10.203871,57.84
2025-10-13T13:13:02.814794+00:00,11.279,8.004,6.974,9.938,-3.419,221.205,56.162936,10.203855,58.05
2025-10-13T13:13:03.017067+00:00,11.281,8.071,7.090,9.996,-3.034,225.251,56.162945,10.203884,61.68
2025-10-13T13:13:03.219809+00:00,11.282,8.217,7.215,9.853,-2.616,229.306,56.162947,10.203876,62.37
2025-10-13T13:13:03.421733+00:00,11.284,8.434,7.348,9.514,-2.173,233.344,56.162917,10.203907,60.34
2025-10-13T13:13:03.623683+00:00,11.285,8.716,7.488,8.985,-1.708,237.383,56.162877,10.203903,58.25
2025-10-13T13:13:03.826779+00:00,11.287,9.051,7.633,8.273,-1.223,241.445,56.162949,10.203850,60.05
2025-10-13T13:13:04.028890+00:00,11.288,9.424,7.782,7.398,-0.727,245.487,56.162899,10.203864,59.48
2025-10-13T13:13:04.182380+00:00,11.289,9.724,7.896,6.633,-0.346,248.557,56.162868,10.203940,60.09
2025-10-13T13:13:04.384391+00:00,11.291,10.127,8.048,5.513,0.159,252.597,56.162879,10.203905,57.80
2025-10-13T13:13:04.586224+00:00,11.292,10.524,8.198,4.283,0.661,256.634,56.162875,10.203856,61.25
2025-10-13T13:13:04.788785+00:00,11.293,10.902,8.348,2.963,1.159,260.685,56.162856,10.203907,59.24
2025-10-13T13:13:04.991248+00:00,11.294,11.243,8.493,1.584,1.645,264.735,56.162923,10.203901,59.79
2025-10-13T13:13:05.193735+00:00,11.295,11.532,8.634,0.173,2.113,268.784,56.162901,10.203912,58.21
2025-10-13T13:13:05.396121+00:00,11.296,11.759,8.768,-1.240,2.560,272.832,56.162931,10.203923,59.28
2025-10-13T13:13:05.597130+00:00,11.297,11.914,8.894,-2.620,2.978,276.852,56.162905,10.203887,57.55
2025-10-13T13:13:05.798259+00:00,11.297,11.991,9.010,-3.948,3.367,280.875,56.162857,10.203906,58.92
2025-10-13T13:13:06.000149+00:00,11.298,11.988,9.117,-5.203,3.722,284.913,56.162894,10.203928,59.27
2025-10-13T13:13:06.202922+00:00,11.298,11.904,9.212,-6.358,4.041,288.968,56.162915,10.203942,57.66
2025-10-13T13:13:06.404778+00:00,11.299,11.742,9.295,-7.382,4.317,293.005,56.162870,10.203925,60.00
2025-10-13T13:13:06.606671+00:00,11.299,11.510,9.365,-8.259,4.549,297.043,56.162935,10.203858,59.24
2025-10-13T13:13:06.807777+00:00,11.300,11.218,9.420,-8.968,4.734,301.065,56.162946,10.203897,61.85
2025-10-13T13:13:07.010322+00:00,11.300,10.874,9.462,-9.503,4.873,305.116,56.162927,10.203892,62.34
2025-10-13T13:13:07.213489+00:00,11.300,10.493,9.488,-9.848,4.961,309.179,56.162860,10.203874,59.02
2025-10-13T13:13:07.415444+00:00,11.300,10.094,9.500,-9.995,4.999,313.218,56.162939,10.203921,58.37
2025-10-13T13:13:07.618112+00:00,11.300,9.690,9.495,-9.941,4.985,317.272,56.162939,10.203924,59.83
2025-10-13T13:13:07.820610+00:00,11.300,9.299,9.476,-9.687,4.920,321.322,56.162909,10.203948,57.99
2025-10-13T13:13:08.022718+00:00,11.300,8.937,9.442,-9.241,4.805,325.364,56.162870,10.203879,59.27
2025-10-13T13:13:08.225184+00:00,11.299,8.618,9.392,-8.608,4.641,329.413,56.162919,10.203929,61.91
2025-10-13T13:13:08.427082+00:00,11.299,8.356,9.329,-7.806,4.430,333.451,56.162860,10.203866,62.09
2025-10-13T13:13:08.628963+00:00,11.299,8.161,9.252,-6.848,4.173,337.489,56.162926,10.203949,62.07
2025-10-13T13:13:54.611282+00:00,11.100,10.050,8.019,0.174,0.062,177.135,56.162915,10.203868,59.34
2025-10-13T13:13:54.813785+00:00,11.105,10.451,8.170,1.585,0.567,181.185,56.162944,10.203925,60.76
2025-10-13T13:13:55.016611+00:00,11.109,10.834,8.320,2.966,1.067,185.242,56.162875,10.203915,62.10
2025-10-13T13:13:55.218543+00:00,11.113,11.182,8.466,4.282,1.554,189.280,56.162854,10.203922,60.13
2025-10-13T13:13:55.420713+00:00,11.117,11.482,8.608,5.514,2.026,193.324,56.162927,10.203852,59.77
2025-10-13T13:13:55.622256+00:00,11.121,11.721,8.743,6.632,2.475,197.355,56.162910,10.203851,58.44
2025-10-13T13:13:55.824248+00:00,11.125,11.890,8.870,7.621,2.901,201.395,56.162883,10.203939,59.65
2025-10-13T13:13:56.026921+00:00,11.129,11.983,8.989,8.460,3.298,205.448,56.162880,10.203863,58.57
2025-10-13T13:13:56.229190+00:00,11.133,11.995,9.098,9.128,3.661,209.493,56.162937,10.203908,60.17
2025-10-13T13:13:56.431730+00:00,11.137,11.925,9.196,9.613,3.986,213.544,56.162920,10.203938,60.51
2025-10-13T13:13:56.633724+00:00,11.141,11.777,9.281,9.905,4.270,217.584,56.162856,10.203870,62.43
2025-10-13T13:13:56.835625+00:00,11.145,11.557,9.353,10.000,4.511,221.622,56.162866,10.203947,59.96
2025-10-13T13:13:56.988062+00:00,11.148,11.348,9.399,9.939,4.662,224.671,56.162877,10.203933,61.37
2025-10-13T13:13:57.189821+00:00,11.151,11.025,9.446,9.685,4.820,228.706,56.162911,10.203908,58.61
2025-10-13T13:13:57.392643+00:00,11.155,10.658,9.479,9.235,4.930,232.762,56.162856,10.203944,61.56
2025-10-13T13:13:57.594794+00:00,11.159,10.266,9.497,8.602,4.989,236.805,56.162877,10.203902,60.14
2025-10-13T13:13:57.796669+00:00,11.163,9.863,9.499,7.798,4.997,240.843,56.162894,10.203926,60.08
2025-10-13T13:13:57.999381+00:00,11.167,9.464,9.486,6.835,4.954,244.897,56.162875,10.203946,61.50
2025-10-13T13:13:58.201319+00:00,11.171,9.088,9.458,5.738,4.861,248.936,56.162913,10.203854,58.30
2025-10-13T13:13:58.403793+00:00,11.175,8.749,9.415,4.524,4.717,252.985,56.162913,10.203886,59.30
2025-10-13T13:13:58.606400+00:00,11.178,8.461,9.358,3.217,4.525,257.038,56.162942,10.203934,60.42
2025-10-13T13:13:58.808333+00:00,11.182,8.236,9.286,1.851,4.288,261.076,56.162946,10.203858,58.46
2025-10-13T13:13:59.012078+00:00,11.186,8.082,9.201,0.436,4.004,265.151,56.162948,10.203935,58.90
2025-10-13T13:13:59.214085+00:00,11.189,8.007,9.105,-0.976,3.682,269.191,56.162856,10.203922,62.07
2025-10-13T13:13:59.416125+00:00,11.193,8.014,8.997,-2.370,3.322,273.232,56.162907,10.203920,59.35
2025-10-13T13:13:59.618429+00:00,11.196,8.101,8.878,-3.717,2.928,277.278,56.162878,10.203881,60.16
2025-10-13T13:13:59.819578+00:00,11.200,8.265,8.752,-4.983,2.506,281.301,56.162925,10.203885,60.92
2025-10-13T13:14:00.022186+00:00,11.203,8.501,8.617,-6.159,2.056,285.353,56.162857,10.203861,59.22
2025-10-13T13:14:00.224090+00:00,11.207,8.797,8.476,-7.207,1.586,289.391,56.162872,10.203875,60.15
2025-10-13T13:14:00.427017+00:00,11.210,9.144,8.329,-8.116,1.097,293.450,56.162893,10.203856,59.29
2025-10-13T13:14:00.630039+00:00,11.214,9.526,8.179,-8.862,0.597,297.510,56.162894,10.203941,59.16
2025-10-13T13:14:00.832414+00:00,11.217,9.926,8.028,-9.427,0.093,301.558,56.162879,10.203946,60.82
2025-10-13T13:14:01.036088+00:00,11.220,10.332,7.875,-9.805,-0.416,305.631,56.162873,10.203858,60.24
2025-10-13T13:14:01.238006+00:00,11.223,10.720,7.725,-9.984,-0.916,309.670,56.162930,10.203915,61.97
2025-10-13T13:14:01.440907+00:00,11.227,11.082,7.577,-9.963,-1.409,313.728,56.162859,10.203899,59.11
2025-10-13T13:14:01.642857+00:00,11.230,11.397,7.434,-9.743,-1.885,317.767,56.162883,10.203872,58.14
2025-10-13T13:14:01.844812+00:00,11.233,11.656,7.297,-9.329,-2.343,321.806,56.162876,10.203910,57.78
2025-10-13T13:14:02.047388+00:00,11.236,11.848,7.167,-8.726,-2.777,325.857,56.162868,10.203915,61.62
2025-10-13T13:14:02.248798+00:00,11.239,11.963,7.046,-7.953,-3.181,329.886,56.162899,10.203865,59.68
2025-10-13T13:14:02.450930+00:00,11.242,12.000,6.934,-7.019,-3.554,333.928,56.162865,10.203873,59.21
2025-10-13T13:14:02.652017+00:00,11.244,11.955,6.833,-5.950,-3.889,337.950,56.162912,10.203929,61.84
2025-10-13T13:14:02.854626+00:00,11.247,11.831,6.744,-4.754,-4.187,342.002,56.162882,10.203908,62.02
2025-10-13T13:14:03.057439+00:00,11.250,11.631,6.667,-3.461,-4.442,346.058,56.162945,10.203853,62.26
2025-10-13T13:14:03.259344+00:00,11.253,11.366,6.605,-2.105,-4.651,350.096,56.162920,10.203869,60.78
2025-10-13T13:14:03.462101+00:00,11.255,11.044,6.556,-0.701,-4.813,354.152,56.162944,10.203901,58.40
2025-10-13T13:14:03.664074+00:00,11.258,10.680,6.523,0.711,-4.925,358.191,56.162865,10.203924,58.81
2025-10-13T13:14:03.866015+00:00,11.260,10.289,6.504,2.110,-4.987,2.230,56.162906,10.203907,58.47
2025-10-13T13:14:04.068739+00:00,11.262,9.885,6.501,3.471,-4.998,6.284,56.162887,10.203873,58.06
2025-10-13T13:14:04.220631+00:00,11.264,9.584,6.508,4.447,-4.973,9.322,56.162933,10.203928,57.66
2025-10-13T13:14:04.423740+00:00,11.267,9.198,6.532,5.671,-4.894,13.384,56.162892,10.203886,59.03
2025-10-13T13:14:04.625772+00:00,11.269,8.847,6.570,6.775,-4.766,17.425,56.162921,10.203851,59.95
2025-10-13T13:14:04.827736+00:00,11.271,8.542,6.623,7.744,-4.589,21.464,56.162917,10.203931,58.66
2025-10-13T13:14:05.029370+00:00,11.273,8.298,6.690,8.557,-4.366,25.497,56.162891,10.203913,60.45
2025-10-13T13:14:05.231604+00:00,11.275,8.121,6.771,9.202,-4.098,29.542,56.162934,10.203887,59.04
2025-10-13T13:14:05.434710+00:00,11.277,8.022,6.864,9.664,-3.786,33.604,56.162883,10.203923,62.12
2025-10-13T13:14:05.637734+00:00,11.279,8.003,6.969,9.930,-3.436,37.664,56.162938,10.203933,59.51
2025-10-13T13:14:05.839808+00:00,11.280,8.066,7.085,9.997,-3.052,41.706,56.162903,10.203852,59.93
2025-10-13T13:14:06.041576+00:00,11.282,8.208,7.209,9.865,-2.637,45.741,56.162858,10.203888,57.75
2025-10-13T13:14:06.244800+00:00,11.284,8.424,7.342,9.533,-2.193,49.806,56.162926,10.203857,58.87
2025-10-13T13:14:06.446541+00:00,11.285,8.702,7.481,9.013,-1.729,53.840,56.162935,10.203858,61.38
2025-10-13T13:14:06.648833+00:00,11.287,9.034,7.626,8.311,-1.246,57.886,56.162945,10.203890,60.60
2025-10-13T13:14:06.851271+00:00,11.288,9.406,7.775,7.442,-0.751,61.935,56.162894,10.203874,57.98
2025-10-13T13:14:07.053241+00:00,11.290,9.801,7.925,6.427,-0.249,65.974,56.162895,10.203871,58.98
2025-10-13T13:14:07.255204+00:00,11.291,10.205,8.077,5.283,0.256,70.014,56.162895,10.203936,58.68
2025-10-13T13:14:07.457244+00:00,11.292,10.600,8.227,4.033,0.758,74.054,56.162926,10.203885,57.58
2025-10-13T13:14:07.659295+00:00,11.293,10.970,8.376,2.703,1.253,78.095,56.162862,10.203897,58.04
2025-10-13T13:14:07.862349+00:00,11.294,11.303,8.521,1.312,1.737,82.157,56.162912,10.203863,61.42
2025-10-13T13:14:08.064123+00:00,11.295,11.581,8.660,-0.096,2.200,86.192,56.162931,10.203893,62.38
2025-10-13T13:14:08.265995+00:00,11.296,11.794,8.792,-1.504,2.642,90.229,56.162894,10.203935,57.85
2025-10-13T13:14:08.470519+00:00,11.297,11.936,8.918,-2.899,3.061,94.320,56.162881,10.203855,62.06
2025-10-13T13:14:08.672517+00:00,11.297,11.997,9.033,-4.219,3.444,98.360,56.162885,10.203901,61.20
2025-10-13T13:14:08.874848+00:00,11.298,11.977,9.138,-5.456,3.793,102.407,56.162938,10.203891,58.09
2025-10-13T13:14:09.077482+00:00,11.299,11.876,9.231,-6.586,4.103,106.459,56.162915,10.203940,59.73
2025-10-13T13:14:09.279369+00:00,11.299,11.699,9.311,-7.580,4.370,110.497,56.162924,10.203875,58.25
2025-10-13T13:14:09.482184+00:00,11.299,11.452,9.378,-8.427,4.593,114.553,56.162890,10.203898,62.35
2025-10-13T13:14:09.684157+00:00,11.300,11.146,9.431,-9.102,4.769,118.593,56.162885,10.203939,59.41
2025-10-13T13:14:09.886705+00:00,11.300,10.793,9.469,-9.596,4.897,122.644,56.162930,10.203893,59.76
2025-10-13T13:14:10.088350+00:00,11.300,10.409,9.492,-9.896,4.974,126.677,56.162911,10.203891,58.91
2025-10-13T13:14:10.291651+00:00,11.300,10.005,9.500,-10.000,5.000,130.743,56.162901,10.203923,61.22
2025-10-13T13:14:10.493759+00:00,11.300,9.604,9.493,-9.903,4.975,134.785,56.162890,10.203945,61.85
2025-10-13T13:14:10.695558+00:00,11.300,9.219,9.470,-9.608,4.900,138.821,56.162869,10.203914,59.28
2025-10-13T13:14:10.897572+00:00,11.300,8.865,9.432,-9.122,4.774,142.861,56.162863,10.203910,60.43
2025-10-13T13:14:11.099515+00:00,11.299,8.558,9.380,-8.453,4.600,146.900,56.162949,10.203906,60.82
2025-10-13T13:14:11.301334+00:00,11.299,8.310,9.314,-7.617,4.380,150.936,56.162906,10.203945,60.30
2025-10-13T13:14:11.454612+00:00,11.299,8.166,9.255,-6.879,4.182,154.002,56.162864,10.203937,61.72
2025-10-13T13:14:11.658626+00:00,11.298,8.042,9.164,-5.776,3.881,158.082,56.162906,10.203901,57.73
2025-10-13T13:14:11.861524+00:00,11.298,8.000,9.063,-4.562,3.542,162.140,56.162937,10.203858,58.73
2025-10-13T13:14:12.065252+00:00,11.297,8.040,8.949,-3.251,3.165,166.215,56.162916,10.203905,61.92
2025-10-13T13:14:12.269276+00:00,11.296,8.161,8.826,-1.872,2.754,170.295,56.162911,10.203884,59.99
2025-10-13T13:14:12.473042+00:00,11.295,8.358,8.695,-0.457,2.315,174.370,56.162887,10.203898,61.09
2025-10-13T13:14:12.676009+00:00,11.294,8.622,8.556,0.962,1.854,178.430,56.162937,10.203927,57.64
2025-10-13T13:14:12.878252+00:00,11.293,8.942,8.413,2.357,1.376,182.475,56.162916,10.203928,60.38
2025-10-13T13:14:13.080459+00:00,11.292,9.304,8.265,3.704,0.884,186.519,56.162908,10.203914,59.55
2025-10-13T13:14:13.282454+00:00,11.291,9.694,8.115,4.976,0.383,190.559,56.162873,10.203886,59.24
2025-10-13T13:14:13.486764+00:00,11.290,10.102,7.962,6.162,-0.127,194.645,56.162917,10.203851,61.13
2025-10-13T13:14:13.688756+00:00,11.289,10.500,7.811,7.210,-0.630,198.685,56.162890,10.203853,57.75
2025-10-13T13:14:13.890660+00:00,11.287,10.878,7.662,8.114,-1.127,202.723,56.162950,10.203870,62.49
2025-10-13T13:14:14.092461+00:00,11.286,11.221,7.516,8.856,-1.612,206.759,56.162938,10.203910,60.00
2025-10-13T13:14:14.294298+00:00,11.284,11.514,7.376,9.422,-2.081,210.796,56.162903,10.203879,58.00
2025-10-13T13:14:14.496751+00:00,11.283,11.746,7.241,9.801,-2.529,214.845,56.162948,10.203917,61.05
2025-10-13T13:14:14.698689+00:00,11.281,11.906,7.115,9.983,-2.951,218.883,56.162883,10.203927,62.20
2025-10-13T13:14:14.900572+00:00,11.279,11.989,6.997,9.966,-3.343,222.921,56.162912,10.203916,61.17
2025-10-13T13:14:15.102388+00:00,11.277,11.991,6.890,9.750,-3.701,226.957,56.162930,10.203937,58.46
2025-10-13T13:14:15.305328+00:00,11.275,11.911,6.793,9.337,-4.022,231.016,56.162942,10.203867,58.24
2025-10-13T13:14:15.507813+00:00,11.273,11.754,6.709,8.738,-4.302,235.066,56.162882,10.203900,59.23
2025-10-13T13:14:15.709819+00:00,11.271,11.526,6.639,7.965,-4.537,239.106,56.162935,10.203874,58.41
2025-10-13T13:14:15.911677+00:00,11.269,11.235,6.582,7.035,-4.725,243.143,56.162896,10.203862,61.53
2025-10-13T13:14:16.113573+00:00,11.267,10.895,6.540,5.963,-4.866,247.181,56.162885,10.203911,61.07
2025-10-13T13:14:16.316483+00:00,11.265,10.516,6.513,4.767,-4.957,251.239,56.162916,10.203946,60.63
2025-10-13T13:14:16.519354+00:00,11.262,10.116,6.501,3.475,-4.998,255.297,56.162926,10.203894,61.49
2025-10-13T13:14:16.721254+00:00,11.260,9.714,6.504,2.119,-4.987,259.335,56.162928,10.203867,59.04
2025-10-13T13:14:16.923194+00:00,11.258,9.322,6.522,0.721,-4.926,263.373,56.162886,10.203883,59.52
2025-10-13T13:14:17.125310+00:00,11.255,8.958,6.556,-0.692,-4.814,267.416,56.162914,10.203874,61.77
2025-10-13T13:14:17.327330+00:00,11.253,8.637,6.604,-2.091,-4.653,271.456,56.162926,10.203938,57.97
2025-10-13T13:14:17.530390+00:00,11.250,8.370,6.667,-3.456,-4.443,275.517,56.162901,10.203934,60.55
2025-10-13T13:14:17.732321+00:00,11.247,8.171,6.743,-4.743,-4.189,279.556,56.162917,10.203902,61.56
2025-10-13T13:14:17.934167+00:00,11.244,8.046,6.832,-5.936,-3.893,283.593,56.162894,10.203927,60.02
2025-10-13T13:14:18.135980+00:00,11.242,8.000,6.933,-7.010,-3.557,287.629,56.162949,10.203851,58.02
2025-10-13T13:14:18.338044+00:00,11.239,8.036,7.045,-7.945,-3.185,291.670,56.162889,10.203927,58.20
2025-10-13T13:14:18.540947+00:00,11.236,8.152,7.167,-8.725,-2.778,295.729,56.162903,10.203876,61.97
2025-10-13T13:14:18.743071+00:00,11.233,8.343,7.297,-9.327,-2.344,299.771,56.162933,10.203903,60.56
2025-10-13T13:14:18.945214+00:00,11.230,8.602,7.434,-9.742,-1.887,303.814,56.162906,10.203921,60.71
2025-10-13T13:14:19.147300+00:00,11.227,8.918,7.577,-9.963,-1.410,307.856,56.162883,10.203865,61.44
2025-10-13T13:14:19.349153+00:00,11.223,9.277,7.724,-9.985,-0.920,311.893,56.162881,10.203891,58.30
2025-10-13T13:14:19.552036+00:00,11.220,9.667,7.875,-9.806,-0.417,315.950,56.162922,10.203923,58.88
2025-10-13T13:14:19.753914+00:00,11.217,10.070,8.026,-9.432,0.087,319.988,56.162860,10.203914,60.67
2025-10-13T13:14:19.905459+00:00,11.215,10.371,8.140,-9.028,0.465,323.019,56.162909,10.203879,58.64
2025-10-13T13:14:20.108452+00:00,11.211,10.759,8.290,-8.328,0.967,327.079,56.162860,10.203904,60.30
2025-10-13T13:14:20.311287+00:00,11.208,11.116,8.438,-7.461,1.459,331.135,56.162916,10.203865,62.23
2025-10-13T13:14:20.514139+00:00,11.204,11.428,8.581,-6.443,1.936,335.192,56.162871,10.203933,61.51
2025-10-13T13:14:20.717001+00:00,11.201,11.681,8.718,-5.296,2.392,339.250,56.162854,10.203871,61.42
2025-10-13T13:14:20.919963+00:00,11.197,11.865,8.847,-4.041,2.825,343.309,56.162950,10.203897,61.03
2025-10-13T13:14:21.122921+00:00,11.194,11.972,8.969,-2.706,3.228,347.368,56.162902,10.203858,60.74
2025-10-13T13:14:21.324700+00:00,11.190,11.999,9.079,-1.323,3.596,351.404,56.162895,10.203935,60.61
2025-10-13T13:14:21.526717+00:00,11.187,11.944,9.179,0.087,3.928,355.444,56.162881,10.203876,59.79
2025-10-13T13:14:21.728638+00:00,11.183,11.811,9.266,1.495,4.220,359.482,56.162895,10.203875,59.14
2025-10-13T13:14:21.930485+00:00,11.179,11.604,9.341,2.872,4.469,3.519,56.162942,10.203917,59.03
2025-10-13T13:14:22.132658+00:00,11.175,11.331,9.402,4.195,4.672,7.563,56.162872,10.203928,58.90
2025-10-13T13:14:22.334476+00:00,11.172,11.005,9.448,5.431,4.828,11.599,56.162935,10.203927,61.02
2025-10-13T13:14:22.536925+00:00,11.168,10.636,9.480,6.562,4.935,15.648,56.162931,10.203897,61.44
2025-10-13T13:14:22.738791+00:00,11.164,10.243,9.497,7.560,4.991,19.685,56.162856,10.203940,57.72
2025-10-13T13:14:22.940604+00:00,11.160,9.840,9.499,8.406,4.996,23.722,56.162936,10.203897,59.96
2025-10-13T13:14:23.143760+00:00,11.156,9.441,9.485,9.089,4.950,27.785,56.162937,10.203896,58.29
2025-10-13T13:14:23.345740+00:00,11.153,9.068,9.456,9.586,4.854,31.824,56.162878,10.203899,60.21
2025-10-13T13:14:23.549742+00:00,11.149,8.728,9.412,9.894,4.706,35.904,56.162933,10.203910,58.04
2025-10-13T13:14:23.751609+00:00,11.145,8.445,9.354,10.000,4.512,39.942,56.162937,10.203904,57.74
2025-10-13T13:14:23.953494+00:00,11.141,8.224,9.282,9.907,4.272,43.979,56.162928,10.203851,58.59
2025-10-13T13:14:24.155565+00:00,11.137,8.076,9.196,9.616,3.988,48.021,56.162852,10.203890,61.41
2025-10-13T13:14:24.358418+00:00,11.133,8.005,9.099,9.131,3.662,52.078,56.162908,10.203927,57.96
2025-10-13T13:14:24.560308+00:00,11.129,8.017,8.990,8.465,3.301,56.116,56.162887,10.203882,57.96
2025-10-13T13:14:24.762378+00:00,11.125,8.108,8.872,7.630,2.905,60.157,56.162915,10.203925,62.47
2025-10-13T13:14:24.964638+00:00,11.121,8.278,8.744,6.642,2.479,64.202,56.162909,10.203940,61.67
2025-10-13T13:14:25.166514+00:00,11.117,8.516,8.609,5.522,2.029,68.240,56.162859,10.203868,60.91
2025-10-13T13:14:25.368409+00:00,11.113,8.815,8.468,4.293,1.558,72.278,56.162892,10.203865,61.73
2025-10-13T13:14:25.570526+00:00,11.109,9.163,8.321,2.977,1.071,76.320,56.162917,10.203918,58.57
2025-10-13T13:14:25.773143+00:00,11.105,9.546,8.171,1.597,0.572,80.372,56.162939,10.203884,60.62
2025-10-13T13:14:25.975308+00:00,11.101,9.946,8.020,0.189,0.067,84.416,56.162930,10.203899,61.17
2025-10-13T13:14:26.177295+00:00,11.097,10.348,7.869,-1.222,-0.437,88.455,56.162874,10.203878,62.11
2025-10-13T13:14:26.379282+00:00,11.092,10.736,7.719,-2.608,-0.937,92.495,56.162862,10.203880,60.51
2025-10-13T13:14:26.582175+00:00,11.088,11.096,7.571,-3.949,-1.429,96.553,56.162899,10.203888,57.75
2025-10-13T13:14:26.785199+00:00,11.084,11.411,7.428,-5.210,-1.908,100.614,56.162879,10.203922,61.71
2025-10-13T13:14:26.988072+00:00,11.080,11.667,7.290,-6.366,-2.366,104.671,56.162874,10.203922,61.64
2025-10-13T13:14:27.190195+00:00,11.076,11.855,7.161,-7.390,-2.798,108.713,56.162895,10.203939,62.18
2025-10-13T13:14:27.392320+00:00,11.072,11.967,7.039,-8.266,-3.202,112.756,56.162872,10.203933,60.87
2025-10-13T13:14:27.594894+00:00,11.068,12.000,6.928,-8.978,-3.574,116.807,56.162910,10.203903,57.57
2025-10-13T13:14:27.797420+00:00,11.064,11.950,6.827,-9.510,-3.909,120.858,56.162906,10.203873,57.72
2025-10-13T13:14:27.950194+00:00,11.061,11.859,6.759,-9.786,-4.136,123.913,56.162855,10.203906,58.23
2025-10-13T13:14:28.153255+00:00,11.057,11.673,6.680,-9.979,-4.399,127.975,56.162901,10.203948,60.38
2025-10-13T13:14:28.356184+00:00,11.053,11.417,6.615,-9.970,-4.617,132.033,56.162871,10.203900,57.89
2025-10-13T13:14:28.560201+00:00,11.049,11.102,6.563,-9.760,-4.789,136.114,56.162918,10.203912,60.22
2025-10-13T13:14:28.763167+00:00,11.045,10.743,6.527,-9.353,-4.910,140.173,56.162899,10.203949,61.69
2025-10-13T13:14:28.966131+00:00,11.042,10.354,6.506,-8.757,-4.980,144.232,56.162884,10.203918,57.71
2025-10-13T13:14:29.168977+00:00,11.038,9.950,6.500,-7.986,-5.000,148.289,56.162906,10.203936,60.49
2025-10-13T13:14:29.370795+00:00,11.034,9.550,6.510,-7.059,-4.968,152.325,56.162869,10.203898,58.68
2025-10-13T13:14:29.572725+00:00,11.030,9.168,6.534,-5.990,-4.886,156.364,56.162856,10.203915,59.21
2025-10-13T13:14:29.774608+00:00,11.026,8.821,6.574,-4.803,-4.753,160.402,56.162858,10.203871,61.50
2025-10-13T13:14:29.976681+00:00,11.023,8.520,6.628,-3.518,-4.573,164.443,56.162943,10.203866,61.59
2025-10-13T13:14:30.178585+00:00,11.019,8.281,6.696,-2.165,-4.346,168.481,56.162902,10.203864,58.67
2025-10-13T13:14:30.380473+00:00,11.015,8.111,6.778,-0.768,-4.074,172.519,56.162931,10.203926,60.91
2025-10-13T13:14:30.583773+00:00,11.012,8.017,6.872,0.654,-3.759,176.585,56.162881,10.203949,58.45
2025-10-13T13:14:30.786118+00:00,11.008,8.005,6.978,2.056,-3.407,180.632,56.162937,10.203947,60.97
2025-10-13T13:14:30.988312+00:00,11.004,8.074,7.094,3.416,-3.020,184.676,56.162936,10.203883,61.25
2025-10-13T13:14:31.190228+00:00,11.001,8.222,7.219,4.706,-2.603,188.714,56.162921,10.203869,59.66
2025-10-13T13:14:31.392054+00:00,10.997,8.442,7.352,5.901,-2.160,192.751,56.162911,10.203944,61.82
2025-10-13T13:14:31.595764+00:00,10.994,8.727,7.493,6.989,-1.690,196.825,56.162871,10.203894,62.01
2025-10-13T13:14:31.797669+00:00,10.990,9.063,7.638,7.927,-1.207,200.863,56.162932,10.203903,58.55
2025-10-13T13:14:31.999992+00:00,10.987,9.437,7.787,8.708,-0.711,204.909,56.162854,10.203874,58.04
2025-10-13T13:14:32.202871+00:00,10.984,9.835,7.938,9.316,-0.206,208.967,56.162896,10.203896,58.96
2025-10-13T13:14:32.404649+00:00,10.981,10.238,8.089,9.735,0.298,213.003,56.162894,10.203876,62.02
2025-10-13T13:14:32.607174+00:00,10.977,10.632,8.240,9.960,0.801,217.053,56.162874,10.203942,58.91
2025-10-13T13:14:32.810251+00:00,10.974,11.002,8.389,9.986,1.297,221.115,56.162880,10.203882,57.87
2025-10-13T13:14:33.012504+00:00,10.971,11.329,8.533,9.811,1.778,225.160,56.162875,10.203891,59.66
2025-10-13T13:14:33.214388+00:00,10.968,11.602,8.672,9.441,2.240,229.197,56.162858,10.203872,61.31
2025-10-13T13:14:33.417274+00:00,10.965,11.810,8.804,8.879,2.681,233.255,56.162917,10.203922,61.23
2025-10-13T13:14:33.620226+00:00,10.962,11.945,8.928,8.138,3.095,237.314,56.162903,10.203944,59.14
2025-10-13T13:14:33.822376+00:00,10.959,11.999,9.043,7.237,3.475,241.357,56.162873,10.203865,58.38
2025-10-13T13:14:34.024475+00:00,10.956,11.972,9.146,6.192,3.820,245.399,56.162866,10.203878,61.68
2025-10-13T13:14:34.226283+00:00,10.953,11.865,9.238,5.024,4.126,249.435,56.162928,10.203911,61.61
2025-10-13T13:14:34.428213+00:00,10.951,11.682,9.317,3.756,4.389,253.474,56.162930,10.203931,60.89
2025-10-13T13:14:34.630858+00:00,10.948,11.429,9.383,2.408,4.609,257.527,56.162938,10.203914,59.83
2025-10-13T13:14:34.832803+00:00,10.945,11.120,9.434,1.017,4.781,261.566,56.162857,10.203943,60.43
2025-10-13T13:14:35.034790+00:00,10.943,10.765,9.471,-0.395,4.904,265.605,56.162878,10.203944,59.80
2025-10-13T13:14:35.236661+00:00,10.940,10.379,9.493,-1.799,4.977,269.643,56.162872,10.203907,57.59
2025-10-13T13:14:35.438751+00:00,10.938,9.977,9.500,-3.168,5.000,273.685,56.162883,10.203887,61.33
2025-10-13T13:14:35.641548+00:00,10.936,9.574,9.491,-4.478,4.971,277.740,56.162918,10.203912,60.71
2025-10-13T13:14:35.843507+00:00,10.933,9.191,9.468,-5.693,4.892,281.780,56.162875,10.203882,59.80
2025-10-13T13:14:36.045436+00:00,10.931,8.841,9.429,-6.794,4.763,285.818,56.162877,10.203938,60.23
2025-10-13T13:14:36.247254+00:00,10.929,8.537,9.376,-7.760,4.585,289.855,56.162882,10.203907,62.34
2025-10-13T13:14:36.449100+00:00,10.927,8.294,9.308,-8.571,4.361,293.892,56.162886,10.203909,60.77
2025-10-13T13:14:36.652595+00:00,10.925,8.118,9.227,-9.215,4.090,297.961,56.162881,10.203939,59.80
2025-10-13T13:14:36.804395+00:00,10.924,8.037,9.158,-9.575,3.861,300.997,56.162914,10.203941,61.82
2025-10-13T13:14:37.007411+00:00,10.922,8.000,9.056,-9.887,3.519,305.058,56.162925,10.203899,62.01
2025-10-13T13:14:37.210317+00:00,10.920,8.045,8.942,-10.000,3.141,309.116,56.162859,10.203868,59.90
2025-10-13T13:14:37.413110+00:00,10.918,8.170,8.819,-9.911,2.731,313.172,56.162948,10.203923,61.14
2025-10-13T13:14:37.615997+00:00,10.917,8.370,8.688,-9.623,2.293,317.229,56.162931,10.203898,60.43
2025-10-13T13:14:37.818870+00:00,10.915,8.637,8.549,-9.141,1.831,321.287,56.162898,10.203917,58.31
2025-10-13T13:14:38.022161+00:00,10.913,8.961,8.405,-8.473,1.349,325.353,56.162881,10.203902,61.56
2025-10-13T13:14:38.224693+00:00,10.912,9.326,8.257,-7.638,0.856,329.403,56.162896,10.203861,59.82
2025-10-13T13:14:38.427729+00:00,10.911,9.719,8.106,-6.646,0.352,333.464,56.162934,10.203884,60.52
2025-10-13T13:14:38.630567+00:00,10.909,10.124,7.954,-5.522,-0.155,337.521,56.162926,10.203906,59.35
2025-10-13T13:14:38.832938+00:00,10.908,10.522,7.802,-4.290,-0.659,341.568,56.162948,10.203948,57.96
2025-10-13T13:14:39.036124+00:00,10.907,10.901,7.653,-2.966,-1.158,345.632,56.162902,10.203929,58.83
2025-10-13T13:14:39.238415+00:00,10.906,11.242,7.507,-1.588,-1.643,349.678,56.162876,10.203905,61.16
2025-10-13T13:14:39.440465+00:00,10.905,11.531,7.367,-0.181,-2.111,353.719,56.162937,10.203884,62.10
2025-10-13T13:14:39.642484+00:00,10.904,11.758,7.233,1.230,-2.557,357.759,56.162941,10.203870,62.31
2025-10-13T13:14:39.844981+00:00,10.903,11.914,7.106,2.620,-2.979,1.809,56.162930,10.203857,60.92
2025-10-13T13:14:40.048210+00:00,10.903,11.992,6.989,3.962,-3.371,5.874,56.162950,10.203947,59.92
2025-10-13T13:14:40.250068+00:00,10.902,11.988,6.882,5.215,-3.726,9.911,56.162894,10.203912,59.10
2025-10-13T13:14:40.451999+00:00,10.902,11.903,6.787,6.365,-4.043,13.950,56.162860,10.203873,62.01
2025-10-13T13:14:40.654559+00:00,10.901,11.740,6.704,7.391,-4.319,18.001,56.162878,10.203901,58.57
2025-10-13T13:14:40.856612+00:00,10.901,11.507,6.635,8.267,-4.551,22.042,56.162940,10.203925,60.16
2025-10-13T13:14:41.058620+00:00,10.900,11.213,6.579,8.978,-4.737,26.082,56.162873,10.203922,59.72
2025-10-13T13:14:41.260787+00:00,10.900,10.869,6.538,9.509,-4.874,30.125,56.162873,10.203891,61.06
2025-10-13T13:14:41.462735+00:00,10.900,10.490,6.511,9.850,-4.962,34.164,56.162860,10.203902,62.29
2025-10-13T13:14:41.664369+00:00,10.900,10.092,6.500,9.995,-4.999,38.197,56.162898,10.203861,62.04
2025-10-13T13:14:41.866476+00:00,10.900,9.689,6.505,9.940,-4.985,42.239,56.162939,10.203882,59.08
2025-10-13T13:14:42.068568+00:00,10.900,9.299,6.524,9.687,-4.920,46.281,56.162930,10.203928,58.71
2025-10-13T13:14:42.270403+00:00,10.900,8.937,6.558,9.241,-4.805,50.318,56.162860,10.203935,59.91
2025-10-13T13:14:42.472322+00:00,10.901,8.619,6.608,8.611,-4.641,54.356,56.162867,10.203909,60.66
2025-10-13T13:14:42.675545+00:00,10.901,8.356,6.671,7.803,-4.429,58.420,56.162903,10.203932,61.65
2025-10-13T13:14:42.877955+00:00,10.901,8.160,6.748,6.841,-4.172,62.469,56.162875,10.203923,58.73
2025-10-13T13:14:43.080967+00:00,10.902,8.040,6.839,5.739,-3.871,66.529,56.162901,10.203872,59.07
2025-10-13T13:14:43.282933+00:00,10.902,8.000,6.940,4.528,-3.532,70.568,56.162909,10.203919,60.62
2025-10-13T13:14:43.485909+00:00,10.903,8.042,7.053,3.220,-3.156,74.628,56.162875,10.203889,59.92
2025-10-13T13:14:43.688058+00:00,10.904,8.163,7.176,1.853,-2.748,78.671,56.162904,10.203936,60.73
2025-10-13T13:14:43.891033+00:00,10.905,8.361,7.307,0.442,-2.311,82.730,56.162936,10.203854,61.97
2025-10-13T13:14:44.093264+00:00,10.906,8.624,7.445,-0.971,-1.851,86.775,56.162945,10.203928,58.77
2025-10-13T13:14:44.294994+00:00,10.907,8.943,7.588,-2.363,-1.374,90.809,56.162920,10.203873,60.92
2025-10-13T13:14:44.497431+00:00,10.908,9.306,7.736,-3.711,-0.881,94.858,56.162905,10.203882,58.89
2025-10-13T13:14:44.699309+00:00,10.909,9.696,7.886,-4.982,-0.381,98.896,56.162867,10.203928,61.68
2025-10-13T13:14:44.901199+00:00,10.910,10.099,8.037,-6.154,0.123,102.934,56.162936,10.203891,61.08
2025-10-13T13:14:45.103137+00:00,10.911,10.497,8.188,-7.203,0.627,106.972,56.162891,10.203856,60.60
2025-10-13T13:14:45.304903+00:00,10.913,10.875,8.337,-8.108,1.123,111.008,56.162932,10.203866,58.62
2025-10-13T13:14:45.507513+00:00,10.914,11.219,8.483,-8.854,1.610,115.060,56.162880,10.203904,57.99
2025-10-13T13:14:45.709337+00:00,10.916,11.512,8.624,-9.420,2.079,119.096,56.162864,10.203908,62.19
2025-10-13T13:14:45.860775+00:00,10.917,11.693,8.725,-9.722,2.417,122.125,56.162895,10.203916,59.53
2025-10-13T13:14:46.063594+00:00,10.919,11.872,8.854,-9.956,2.847,126.181,56.162860,10.203851,61.75
2025-10-13T13:14:46.265384+00:00,10.920,11.975,8.974,-9.989,3.247,130.217,56.162909,10.203920,58.14
2025-10-13T13:14:46.467073+00:00,10.922,11.998,9.084,-9.823,3.613,134.251,56.162948,10.203871,59.42
2025-10-13T13:14:46.668871+00:00,10.924,11.940,9.183,-9.462,3.943,138.287,56.162943,10.203860,62.33
2025-10-13T13:14:46.870658+00:00,10.926,11.803,9.270,-8.913,4.233,142.323,56.162893,10.203893,60.68
2025-10-13T13:14:47.072664+00:00,10.928,11.592,9.344,-8.185,4.479,146.363,56.162876,10.203875,57.85
2025-10-13T13:14:47.274377+00:00,10.930,11.317,9.404,-7.294,4.680,150.397,56.162885,10.203910,60.65
2025-10-13T13:14:47.476019+00:00,10.932,10.989,9.450,-6.260,4.834,154.430,56.162903,10.203916,61.46
2025-10-13T13:14:47.677965+00:00,10.935,10.621,9.481,-5.098,4.938,158.469,56.162906,10.203855,62.28
2025-10-13T13:14:47.880683+00:00,10.937,10.225,9.498,-3.831,4.992,162.523,56.162879,10.203949,59.18
2025-10-13T13:14:48.082791+00:00,10.939,9.822,9.499,-2.490,4.995,166.565,56.162877,10.203862,57.82
2025-10-13T13:14:48.284521+00:00,10.942,9.426,9.484,-1.102,4.947,170.600,56.162927,10.203908,61.00
2025-10-13T13:14:48.487388+00:00,10.944,9.052,9.454,0.316,4.848,174.657,56.162863,10.203895,62.44
2025-10-13T13:14:48.689291+00:00,10.947,8.718,9.410,1.721,4.700,178.695,56.162901,10.203938,59.91
2025-10-13T13:14:48.891540+00:00,10.949,8.436,9.351,3.093,4.504,182.740,56.162941,10.203916,60.88
2025-10-13T13:14:49.093489+00:00,10.952,8.218,9.279,4.402,4.263,186.779,56.162941,10.203896,57.90
2025-10-13T13:14:49.295403+00:00,10.955,8.072,9.193,5.623,3.977,190.818,56.162855,10.203934,61.07
2025-10-13T13:14:49.498226+00:00,10.958,8.004,9.095,6.737,3.650,194.874,56.162859,10.203900,61.70
2025-10-13T13:14:49.699945+00:00,10.961,8.018,8.986,7.710,3.288,198.908,56.162888,10.203859,59.73
2025-10-13T13:14:49.901920+00:00,10.963,8.113,8.867,8.530,2.891,202.948,56.162948,10.203905,58.10
2025-10-13T13:14:50.103734+00:00,10.966,8.284,8.740,9.180,2.466,206.984,56.162872,10.203875,59.69
2025-10-13T13:14:50.305423+00:00,10.969,8.525,8.605,9.647,2.015,211.018,56.162912,10.203877,61.36
2025-10-13T13:14:50.507927+00:00,10.973,8.826,8.463,9.922,1.542,215.068,56.162925,10.203881,59.15
2025-10-13T13:14:50.709917+00:00,10.976,9.175,8.316,9.999,1.055,219.108,56.162927,10.203914,58.96
2025-10-13T13:14:50.911722+00:00,10.979,9.557,8.167,9.876,0.557,223.144,56.162944,10.203899,60.07
2025-10-13T13:14:51.114677+00:00,10.982,9.959,8.015,9.554,0.051,227.203,56.162856,10.203918,62.38
2025-10-13T13:14:51.316439+00:00,10.985,10.361,7.864,9.043,-0.453,231.238,56.162928,10.203950,61.08
2025-10-13T13:14:51.519118+00:00,10.989,10.749,7.714,8.348,-0.954,235.292,56.162939,10.203918,59.15
2025-10-13T13:14:51.720936+00:00,10.992,11.106,7.567,7.490,-1.444,239.328,56.162900,10.203866,59.33
2025-10-13T13:14:51.922785+00:00,10.996,11.418,7.424,6.482,-1.919,243.365,56.162887,10.203920,59.50
2025-10-13T13:14:52.124503+00:00,10.999,11.671,7.288,5.346,-2.374,247.400,56.162861,10.203896,62.27
2025-10-13T13:14:52.326141+00:00,11.003,11.858,7.159,4.104,-2.805,251.432,56.162871,10.203876,62.12
2025-10-13T13:14:52.528870+00:00,11.006,11.969,7.037,2.773,-3.209,255.487,56.162909,10.203928,60.13
2025-10-13T13:14:52.730728+00:00,11.010,11.999,6.926,1.392,-3.579,259.524,56.162903,10.203935,60.07
2025-10-13T13:14:52.932652+00:00,11.013,11.949,6.826,-0.017,-3.913,263.563,56.162870,10.203939,59.80
2025-10-13T13:14:53.134698+00:00,11.017,11.819,6.738,-1.426,-4.207,267.604,56.162864,10.203865,58.07
2025-10-13T13:14:53.336348+00:00,11.021,11.615,6.663,-2.805,-4.458,271.637,56.162884,10.203935,61.42
2025-10-13T13:14:53.540014+00:00,11.024,11.344,6.601,-4.140,-4.665,275.710,56.162904,10.203921,60.67
2025-10-13T13:14:53.741937+00:00,11.028,11.019,6.553,-5.381,-4.822,279.748,56.162884,10.203922,61.09
2025-10-13T13:14:53.943690+00:00,11.032,10.654,6.521,-6.514,-4.931,283.783,56.162913,10.203904,59.13
2025-10-13T13:14:54.145576+00:00,11.036,10.261,6.503,-7.518,-4.989,287.821,56.162926,10.203852,59.70
2025-10-13T13:14:54.347282+00:00,11.040,9.859,6.501,-8.371,-4.997,291.855,56.162897,10.203890,58.41
2025-10-13T13:14:54.550987+00:00,11.043,9.458,6.514,-9.063,-4.953,295.929,56.162883,10.203939,58.18
2025-10-13T13:14:54.753032+00:00,11.047,9.083,6.542,-9.568,-4.859,299.970,56.162911,10.203890,57.69
2025-10-13T13:14:54.955044+00:00,11.051,8.745,6.585,-9.883,-4.715,304.010,56.162902,10.203865,58.95
2025-10-13T13:14:55.156972+00:00,11.055,8.458,6.643,-9.999,-4.523,308.049,56.162902,10.203881,62.03
2025-10-13T13:14:55.358707+00:00,11.059,8.234,6.714,-9.917,-4.286,312.084,56.162857,10.203899,60.91
2025-10-13T13:14:55.561012+00:00,11.063,8.081,6.799,-9.636,-4.004,316.130,56.162945,10.203877,61.56
2025-10-13T13:14:55.713213+00:00,11.066,8.018,6.871,-9.297,-3.765,319.174,56.162935,10.203942,61.35
2025-10-13T13:14:55.915905+00:00,11.070,8.005,6.976,-8.682,-3.412,323.228,56.162945,10.203857,62.20
2025-10-13T13:14:56.117779+00:00,11.074,8.073,7.092,-7.897,-3.027,327.265,56.162890,10.203866,57.76
2025-10-13T13:14:56.319586+00:00,11.078,8.219,7.217,-6.955,-2.611,331.301,56.162934,10.203853,57.70
2025-10-13T13:14:56.521217+00:00,11.082,8.437,7.350,-5.875,-2.168,335.334,56.162879,10.203876,59.39
2025-10-13T13:14:56.723116+00:00,11.086,8.719,7.489,-4.676,-1.703,339.372,56.162942,10.203940,62.21
2025-10-13T13:14:56.925011+00:00,11.090,9.053,7.634,-3.384,-1.221,343.410,56.162853,10.203896,60.01
2025-10-13T13:14:57.127092+00:00,11.094,9.426,7.782,-2.024,-0.725,347.451,56.162910,10.203944,62.50
2025-10-13T13:14:57.328845+00:00,11.098,9.821,7.933,-0.625,-0.223,351.486,56.162935,10.203863,60.31
2025-10-13T13:14:57.531178+00:00,11.102,10.225,8.085,0.790,0.282,355.533,56.162925,10.203903,62.26
2025-10-13T13:14:57.733093+00:00,11.106,10.619,8.235,2.186,0.784,359.571,56.162895,10.203921,62.36
2025-10-13T13:14:57.934898+00:00,11.110,10.988,8.383,3.538,1.277,3.607,56.162944,10.203918,59.01
2025-10-13T13:14:58.136870+00:00,11.114,11.317,8.527,4.821,1.758,7.647,56.162934,10.203926,58.31
2025-10-13T13:14:58.338598+00:00,11.118,11.592,8.666,6.006,2.221,11.682,56.162882,10.203863,60.44
2025-10-13T13:14:58.541489+00:00,11.122,11.803,8.799,7.077,2.663,15.739,56.162906,10.203944,59.90
2025-10-13T13:14:58.743259+00:00,11.126,11.940,8.923,8.001,3.076,19.775,56.162863,10.203866,58.32
2025-10-13T13:14:58.945108+00:00,11.130,11.998,9.037,8.766,3.457,23.812,56.162871,10.203934,61.55
2025-10-13T13:14:59.147166+00:00,11.134,11.975,9.141,9.357,3.804,27.853,56.162921,10.203857,62.02
2025-10-13T13:14:59.348877+00:00,11.138,11.872,9.233,9.760,4.111,31.887,56.162932,10.203906,60.03
2025-10-13T13:14:59.551750+00:00,11.142,11.692,9.313,9.970,4.378,35.945,56.162865,10.203872,61.38
2025-10-13T13:14:59.753575+00:00,11.146,11.443,9.380,9.980,4.599,39.981,56.162914,10.203886,60.26
2025-10-13T13:14:59.955260+00:00,11.150,11.137,9.432,9.790,4.773,44.015,56.162882,10.203915,59.72
2025-10-13T13:15:00.157236+00:00,11.154,10.784,9.470,9.406,4.899,48.054,56.162903,10.203931,58.74
2025-10-13T13:15:00.358848+00:00,11.158,10.399,9.492,8.834,4.975,52.087,56.162888,10.203901,61.55
2025-10-13T13:15:00.560487+00:00,11.162,9.999,9.500,8.087,5.000,56.119,56.162934,10.203852,62.45
2025-10-13T13:15:00.762373+00:00,11.166,9.598,9.492,7.178,4.974,60.157,56.162923,10.203878,61.50
2025-10-13T13:15:00.964329+00:00,11.169,9.213,9.469,6.126,4.898,64.196,56.162863,10.203917,60.22
2025-10-13T13:15:01.166082+00:00,11.173,8.860,9.432,4.952,4.772,68.231,56.162851,10.203855,62.38
2025-10-13T13:15:01.367773+00:00,11.177,8.554,9.379,3.681,4.598,72.265,56.162936,10.203917,61.75
2025-10-13T13:15:01.570333+00:00,11.181,8.306,9.313,2.330,4.375,76.316,56.162915,10.203887,60.64
2025-10-13T13:15:01.772071+00:00,11.184,8.127,9.233,0.938,4.109,80.351,56.162924,10.203879,60.77
2025-10-13T13:15:01.973940+00:00,11.188,8.024,9.140,-0.474,3.801,84.388,56.162913,10.203932,59.73
2025-10-13T13:15:02.176829+00:00,11.192,8.002,9.036,-1.883,3.453,88.446,56.162927,10.203857,57.91
2025-10-13T13:15:02.378585+00:00,11.195,8.061,8.921,-3.247,3.071,92.481,56.162941,10.203932,59.46
2025-10-13T13:15:02.580932+00:00,11.199,8.199,8.797,-4.549,2.657,96.528,56.162911,10.203938,57.81
2025-10-13T13:15:02.782729+00:00,11.202,8.410,8.665,-5.758,2.217,100.564,56.162884,10.203868,62.40
2025-10-13T13:15:02.984477+00:00,11.206,8.686,8.526,-6.851,1.754,104.599,56.162896,10.203867,57.84
2025-10-13T13:15:03.186438+00:00,11.209,9.015,8.382,-7.809,1.273,108.638,56.162943,10.203928,57.65
2025-10-13T13:15:03.388093+00:00,11.212,9.384,8.234,-8.610,0.780,112.671,56.162873,10.203940,62.25
2025-10-13T13:15:03.590866+00:00,11.216,9.779,8.083,-9.243,0.276,116.727,56.162898,10.203862,61.35
2025-10-13T13:15:03.792665+00:00,11.219,10.182,7.932,-9.688,-0.228,120.763,56.162931,10.203901,62.32
2025-10-13T13:15:03.994470+00:00,11.222,10.578,7.781,-9.941,-0.730,124.799,56.162865,10.203860,61.97
2025-10-13T13:15:04.196264+00:00,11.225,10.950,7.633,-9.995,-1.225,128.835,56.162856,10.203882,59.33
2025-10-13T13:15:04.398057+00:00,11.229,11.283,7.488,-9.850,-1.707,132.871,56.162917,10.203889,58.91
2025-10-13T13:15:04.600532+00:00,11.232,11.566,7.348,-9.507,-2.173,136.920,56.162938,10.203870,60.59
2025-10-13T13:15:04.802474+00:00,11.235,11.783,7.215,-8.976,-2.616,140.959,56.162882,10.203863,61.67
2025-10-13T13:15:05.004280+00:00,11.238,11.929,7.091,-8.265,-3.032,144.995,56.162926,10.203902,57.57
2025-10-13T13:15:05.206176+00:00,11.240,11.996,6.975,-7.390,-3.417,149.033,56.162857,10.203942,58.71
2025-10-13T13:15:05.407820+00:00,11.243,11.982,6.870,-6.369,-3.767,153.066,56.162886,10.203854,59.96
2025-10-13T13:15:05.610392+00:00,11.246,11.887,6.776,-5.216,-4.080,157.117,56.162869,10.203916,61.19
2025-10-13T13:15:05.812239+00:00,11.249,11.715,6.695,-3.962,-4.351,161.154,56.162897,10.203889,60.57
2025-10-13T13:15:06.014044+00:00,11.252,11.474,6.627,-2.630,-4.577,165.190,56.162894,10.203917,59.31
2025-10-13T13:15:06.215860+00:00,11.254,11.174,6.573,-1.245,-4.756,169.227,56.162946,10.203878,59.48
2025-10-13T13:15:06.417516+00:00,11.257,10.826,6.534,0.163,-4.887,173.260,56.162904,10.203888,59.07
2025-10-13T13:15:06.620047+00:00,11.259,10.442,6.509,1.574,-4.969,177.310,56.162875,10.203884,60.63
2025-10-13T13:15:06.822189+00:00,11.262,10.042,6.500,2.951,-5.000,181.353,56.162865,10.203928,59.65
2025-10-13T13:15:07.023936+00:00,11.264,9.640,6.506,4.267,-4.980,185.388,56.162850,10.203897,61.48
2025-10-13T13:15:07.176076+00:00,11.266,9.346,6.521,5.204,-4.931,188.431,56.162921,10.203896,61.39
2025-10-13T13:15:07.377841+00:00,11.268,8.981,6.553,6.354,-4.822,192.466,56.162896,10.203907,62.21
2025-10-13T13:15:07.579922+00:00,11.270,8.656,6.601,7.379,-4.664,196.508,56.162856,10.203912,61.16
2025-10-13T13:15:07.781589+00:00,11.272,8.387,6.662,8.255,-4.459,200.541,56.162936,10.203894,59.72
2025-10-13T13:15:07.983357+00:00,11.274,8.182,6.737,8.968,-4.209,204.577,56.162929,10.203879,60.70
2025-10-13T13:15:08.185252+00:00,11.276,8.052,6.825,9.502,-3.916,208.615,56.162874,10.203869,57.92
2025-10-13T13:15:08.386919+00:00,11.278,8.001,6.925,9.846,-3.583,212.648,56.162907,10.203890,62.19
2025-10-13T13:15:08.589643+00:00,11.280,8.031,7.037,9.994,-3.211,216.702,56.162852,10.203925,60.89
2025-10-13T13:15:08.793087+00:00,11.282,8.142,7.158,9.941,-2.806,220.771,56.162872,10.203917,57.96
2025-10-13T13:15:08.995248+00:00,11.283,8.329,7.288,9.689,-2.374,224.815,56.162871,10.203945,60.92
2025-10-13T13:15:09.196971+00:00,11.285,8.583,7.424,9.245,-1.919,228.849,56.162916,10.203922,58.27
2025-10-13T13:15:09.398650+00:00,11.286,8.894,7.567,8.616,-1.444,232.883,56.162871,10.203949,59.20
2025-10-13T13:15:09.601141+00:00,11.288,9.252,7.714,7.813,-0.953,236.932,56.162906,10.203936,60.92
2025-10-13T13:15:09.803321+00:00,11.289,9.639,7.864,6.854,-0.453,240.976,56.162893,10.203877,59.77
2025-10-13T13:15:10.005393+00:00,11.290,10.042,8.016,5.759,0.052,245.017,56.162868,10.203874,60.47
2025-10-13T13:15:10.207552+00:00,11.292,10.442,8.167,4.549,0.556,249.061,56.162886,10.203886,58.54
2025-10-13T13:15:10.409240+00:00,11.293,10.824,8.316,3.251,1.054,253.094,56.162912,10.203909,58.09
2025-10-13T13:15:10.612528+00:00,11.294,11.175,8.463,1.876,1.544,257.160,56.162873,10.203908,61.66
2025-10-13T13:15:10.815050+00:00,11.295,11.476,8.605,0.470,2.017,261.211,56.162936,10.203947,61.12
2025-10-13T13:15:11.016852+00:00,11.296,11.717,8.740,-0.941,2.468,265.247,56.162856,10.203896,62.47
2025-10-13T13:15:11.218516+00:00,11.296,11.888,8.868,-2.333,2.893,269.280,56.162913,10.203879,59.09
2025-10-13T13:15:11.420179+00:00,11.297,11.982,8.987,-3.677,3.289,273.313,56.162869,10.203878,59.87
2025-10-13T13:15:11.622030+00:00,11.298,11.996,9.095,-4.950,3.651,277.350,56.162867,10.203934,59.61
2025-10-13T13:15:11.823772+00:00,11.298,11.928,9.193,-6.124,3.977,281.385,56.162877,10.203907,60.36
2025-10-13T13:15:12.025501+00:00,11.299,11.783,9.279,-7.176,4.262,285.420,56.162948,10.203861,62.31
2025-10-13T13:15:12.227399+00:00,11.299,11.565,9.351,-8.085,4.504,289.458,56.162870,10.203944,57.58
2025-10-13T13:15:12.429178+00:00,11.300,11.284,9.410,-8.833,4.699,293.493,56.162851,10.203930,61.95
2025-10-13T13:15:12.631093+00:00,11.300,10.950,9.454,-9.405,4.848,297.531,56.162881,10.203852,62.19
2025-10-13T13:15:12.834162+00:00,11.300,10.576,9.484,-9.792,4.947,301.593,56.162886,10.203917,61.82
2025-10-13T13:15:13.035926+00:00,11.300,10.180,9.498,-9.980,4.995,305.628,56.162944,10.203852,60.54
2025-10-13T13:15:13.237944+00:00,11.300,9.777,9.498,-9.969,4.992,309.668,56.162914,10.203910,61.21
2025-10-13T13:15:13.440632+00:00,11.300,9.381,9.481,-9.759,4.938,313.722,56.162898,10.203948,58.64
2025-10-13T13:15:13.643407+00:00,11.300,9.011,9.450,-9.352,4.834,317.778,56.162933,10.203864,62.29
2025-10-13T13:15:13.845363+00:00,11.299,8.682,9.404,-8.759,4.680,321.817,56.162910,10.203887,59.01
2025-10-13T13:15:14.047146+00:00,11.299,8.408,9.344,-7.993,4.479,325.852,56.162851,10.203934,60.71
2025-10-13T13:15:14.249026+00:00,11.299,8.197,9.270,-7.067,4.233,329.890,56.162851,10.203881,58.71
2025-10-13T13:15:14.450712+00:00,11.298,8.060,9.183,-6.001,3.943,333.924,56.162934,10.203907,59.12
2025-10-13T13:15:14.653270+00:00,11.298,8.002,9.084,-4.810,3.612,337.975,56.162871,10.203856,61.52
2025-10-13T13:15:14.855138+00:00,11.297,8.025,8.974,-3.528,3.245,342.012,56.162889,10.203914,61.83
2025-10-13T13:15:15.057225+00:00,11.296,8.128,8.853,-2.173,2.845,346.054,56.162890,10.203883,59.43
2025-10-13T13:15:15.258953+00:00,11.295,8.308,8.725,-0.778,2.416,350.089,56.162883,10.203893,59.42
2025-10-13T13:15:15.460534+00:00,11.295,8.555,8.589,0.632,1.964,354.120,56.162873,10.203871,58.71
2025-10-13T13:15:15.663091+00:00,11.294,8.863,8.447,2.036,1.489,358.171,56.162945,10.203883,57.69
2025-10-13T13:15:15.864984+00:00,11.293,9.216,8.300,3.395,1.000,2.209,56.162920,10.203935,61.59
2025-10-13T13:15:16.066985+00:00,11.291,9.601,8.150,4.686,0.501,6.249,56.162950,10.203931,59.15
2025-10-13T13:15:16.268925+00:00,11.290,10.002,7.999,5.884,-0.003,10.288,56.162937,10.203855,61.36
2025-10-13T13:15:16.470742+00:00,11.289,10.403,7.848,6.964,-0.507,14.324,56.162861,10.203883,60.67
2025-10-13T13:15:16.672551+00:00,11.288,10.788,7.698,7.905,-1.005,18.361,56.162902,10.203910,58.32
2025-10-13T13:15:16.874436+00:00,11.286,11.140,7.552,8.689,-1.493,22.398,56.162948,10.203945,60.29
2025-10-13T13:15:17.076346+00:00,11.285,11.447,7.410,9.300,-1.967,26.436,56.162858,10.203862,62.38
2025-10-13T13:15:17.278113+00:00,11.283,11.694,7.274,9.725,-2.420,30.472,56.162875,10.203871,60.88
2025-10-13T13:15:17.430179+00:00,11.282,11.836,7.176,9.917,-2.745,33.513,56.162887,10.203858,58.62
2025-10-13T13:15:17.632122+00:00,11.280,11.958,7.054,9.999,-3.152,37.552,56.162904,10.203898,60.31
2025-10-13T13:15:17.834091+00:00,11.278,12.000,6.942,9.882,-3.528,41.591,56.162932,10.203876,61.61
2025-10-13T13:15:18.035975+00:00,11.276,11.961,6.840,9.567,-3.867,45.629,56.162909,10.203915,58.29
2025-10-13T13:15:18.238122+00:00,11.274,11.842,6.750,9.061,-4.167,49.672,56.162936,10.203871,59.52
2025-10-13T13:15:18.440887+00:00,11.272,11.648,6.672,8.372,-4.425,53.727,56.162896,10.203919,59.12
2025-10-13T13:15:18.642900+00:00,11.270,11.387,6.609,7.517,-4.637,57.768,56.162878,10.203864,61.94
2025-10-13T13:15:18.845131+00:00,11.268,11.070,6.559,6.512,-4.802,61.812,56.162854,10.203941,59.87
2025-10-13T13:15:19.047224+00:00,11.266,10.709,6.525,5.377,-4.918,65.854,56.162864,10.203949,62.15
2025-10-13T13:15:19.250157+00:00,11.264,10.317,6.505,4.129,-4.984,69.913,56.162862,10.203944,58.65
2025-10-13T13:15:19.452088+00:00,11.261,9.915,6.500,2.804,-4.999,73.951,56.162871,10.203851,59.59
2025-10-13T13:15:19.654649+00:00,11.259,9.514,6.511,1.420,-4.962,78.003,56.162945,10.203901,62.34
2025-10-13T13:15:19.856419+00:00,11.256,9.135,6.537,0.012,-4.876,82.038,56.162917,10.203889,61.59
2025-10-13T13:15:20.058232+00:00,11.254,8.791,6.578,-1.396,-4.739,86.074,56.162891,10.203929,58.85
2025-10-13T13:15:20.260281+00:00,11.251,8.496,6.634,-2.778,-4.554,90.115,56.162897,10.203928,59.67
2025-10-13T13:15:20.462023+00:00,11.249,8.263,6.703,-4.102,-4.323,94.150,56.162876,10.203884,58.50
2025-10-13T13:15:20.665417+00:00,11.246,8.098,6.786,-5.355,-4.046,98.218,56.162858,10.203934,57.82
2025-10-13T13:15:20.867235+00:00,11.243,8.013,6.881,-6.491,-3.729,102.254,56.162933,10.203875,60.80
2025-10-13T13:15:21.069261+00:00,11.240,8.008,6.988,-7.498,-3.375,106.295,56.162884,10.203854,58.65
2025-10-13T13:15:21.270987+00:00,11.237,8.084,7.104,-8.355,-2.986,110.329,56.162890,10.203914,61.97
2025-10-13T13:15:21.472624+00:00,11.234,8.238,7.230,-9.045,-2.567,114.362,56.162923,10.203926,60.35
2025-10-13T13:15:21.675440+00:00,11.231,8.464,7.364,-9.557,-2.120,118.418,56.162868,10.203878,60.38
2025-10-13T13:15:21.877299+00:00,11.228,8.752,7.504,-9.876,-1.653,122.456,56.162941,10.203859,60.32
2025-10-13T13:15:22.079180+00:00,11.225,9.091,7.649,-9.999,-1.169,126.493,56.162939,10.203916,60.68
2025-10-13T13:15:22.282022+00:00,11.222,9.469,7.799,-9.921,-0.670,130.550,56.162922,10.203865,62.15
2025-10-13T13:15:22.483772+00:00,11.219,9.866,7.950,-9.645,-0.168,134.585,56.162924,10.203931,58.98
2025-10-13T13:15:22.686041+00:00,11.215,10.269,8.101,-9.176,0.337,138.630,56.162901,10.203925,59.10
2025-10-13T13:15:22.887827+00:00,11.212,10.661,8.251,-8.525,0.838,142.666,56.162910,10.203899,60.15
2025-10-13T13:15:23.089614+00:00,11.209,11.026,8.399,-7.705,1.330,146.702,56.162874,10.203930,58.14
2025-10-13T13:15:23.291233+00:00,11.205,11.349,8.543,-6.731,1.809,150.734,56.162872,10.203919,59.17
2025-10-13T13:15:23.494047+00:00,11.202,11.619,8.681,-5.617,2.271,154.790,56.162946,10.203852,59.78
2025-10-13T13:15:23.696560+00:00,11.198,11.822,8.813,-4.392,2.710,158.841,56.162865,10.203892,58.62
2025-10-13T13:15:23.898468+00:00,11.195,11.950,8.936,-3.083,3.120,162.879,56.162916,10.203919,58.25
2025-10-13T13:15:24.100391+00:00,11.191,12.000,9.049,-1.712,3.498,166.917,56.162912,10.203861,58.11
2025-10-13T13:15:24.302159+00:00,11.188,11.968,9.152,-0.308,3.840,170.953,56.162942,10.203861,59.30
2025-10-13T13:15:24.503780+00:00,11.184,11.856,9.243,1.101,4.142,174.985,56.162942,10.203908,57.93
2025-10-13T13:15:24.706247+00:00,11.180,11.668,9.321,2.494,4.404,179.034,56.162881,10.203949,59.10
2025-10-13T13:15:24.908539+00:00,11.177,11.412,9.386,3.836,4.621,183.080,56.162896,10.203942,60.33
2025-10-13T13:15:25.110698+00:00,11.173,11.099,9.437,5.100,4.790,187.124,56.162920,10.203935,58.79
2025-10-13T13:15:25.312413+00:00,11.169,10.742,9.473,6.260,4.910,191.158,56.162907,10.203877,61.73
2025-10-13T13:15:25.514284+00:00,11.165,10.355,9.494,7.296,4.980,195.195,56.162892,10.203899,60.51
2025-10-13T13:15:25.716489+00:00,11.161,9.952,9.500,8.187,5.000,199.239,56.162943,10.203913,59.92
2025-10-13T13:15:25.919049+00:00,11.157,9.551,9.490,8.917,4.968,203.291,56.162852,10.203898,61.95
2025-10-13T13:15:26.122134+00:00,11.154,9.167,9.466,9.468,4.885,207.352,56.162941,10.203889,59.35
2025-10-13T13:15:26.323814+00:00,11.150,8.820,9.426,9.827,4.753,211.386,56.162943,10.203885,58.80
2025-10-13T13:15:26.525457+00:00,11.146,8.520,9.372,9.990,4.573,215.419,56.162926,10.203853,62.45
2025-10-13T13:15:26.727951+00:00,11.142,8.280,9.303,9.954,4.345,219.469,56.162899,10.203883,60.01
2025-10-13T13:15:26.929778+00:00,11.138,8.110,9.222,9.719,4.073,223.505,56.162941,10.203910,58.30
2025-10-13T13:15:27.081435+00:00,11.135,8.033,9.153,9.414,3.842,226.538,56.162930,10.203897,61.98
2025-10-13T13:15:27.284012+00:00,11.131,8.000,9.050,8.844,3.499,230.590,56.162853,10.203868,61.89
2025-10-13T13:15:27.485685+00:00,11.127,8.049,8.936,8.099,3.122,234.623,56.162909,10.203938,59.44
2025-10-13T13:15:27.688631+00:00,11.123,8.178,8.813,7.187,2.710,238.682,56.162932,10.203880,58.54
2025-10-13T13:15:27.890341+00:00,11.119,8.380,8.682,6.136,2.273,242.716,56.162921,10.203854,57.89
2025-10-13T13:15:28.093617+00:00,11.115,8.651,8.543,4.955,1.809,246.782,56.162940,10.203911,62.37
2025-10-13T13:15:28.295583+00:00,11.111,8.974,8.399,3.681,1.330,250.821,56.162864,10.203914,57.89
2025-10-13T13:15:28.499308+00:00,11.107,9.343,8.250,2.323,0.833,254.896,56.162853,10.203874,62.32
2025-10-13T13:15:28.702031+00:00,11.103,9.737,8.099,0.924,0.330,258.950,56.162938,10.203922,60.88
2025-10-13T13:15:28.903973+00:00,11.099,10.140,7.948,-0.489,-0.175,262.989,56.162855,10.203876,61.62
2025-10-13T13:15:29.105725+00:00,11.095,10.536,7.797,-1.890,-0.677,267.024,56.162874,10.203893,57.82
2025-10-13T13:15:29.307549+00:00,11.091,10.912,7.648,-3.253,-1.172,271.061,56.162873,10.203929,61.77
2025-10-13T13:15:29.509186+00:00,11.087,11.250,7.503,-4.551,-1.656,275.093,56.162855,10.203858,57.95
2025-10-13T13:15:29.712649+00:00,11.082,11.540,7.362,-5.769,-2.126,279.163,56.162948,10.203926,61.62
2025-10-13T13:15:29.914408+00:00,11.078,11.764,7.229,-6.861,-2.571,283.198,56.162925,10.203908,62.02
2025-10-13T13:15:30.116372+00:00,11.074,11.917,7.103,-7.818,-2.990,287.237,56.162889,10.203923,61.99
2025-10-13T13:15:30.318079+00:00,11.070,11.992,6.986,-8.618,-3.379,291.271,56.162893,10.203919,60.89
2025-10-13T13:15:30.519705+00:00,11.066,11.987,6.880,-9.246,-3.732,295.304,56.162875,10.203871,58.28
2025-10-13T13:15:30.722304+00:00,11.062,11.900,6.785,-9.691,-4.050,299.356,56.162862,10.203923,60.63
2025-10-13T13:15:30.924430+00:00,11.058,11.736,6.703,-9.942,-4.325,303.398,56.162949,10.203877,57.92
2025-10-13T13:15:31.127023+00:00,11.055,11.501,6.633,-9.994,-4.557,307.450,56.162891,10.203908,61.34
2025-10-13T13:15:31.328847+00:00,11.051,11.205,6.578,-9.846,-4.741,311.486,56.162851,10.203859,60.44
2025-10-13T13:15:31.530564+00:00,11.047,10.861,6.537,-9.503,-4.877,315.521,56.162879,10.203888,62.42
2025-10-13T13:15:31.732960+00:00,11.043,10.481,6.511,-8.968,-4.963,319.569,56.162928,10.203859,61.21
2025-10-13T13:15:31.934700+00:00,11.039,10.082,6.500,-8.256,-4.999,323.604,56.162906,10.203878,59.32
2025-10-13T13:15:32.136627+00:00,11.035,9.680,6.505,-7.378,-4.984,327.642,56.162943,10.203895,59.78
2025-10-13T13:15:32.338256+00:00,11.031,9.291,6.525,-6.356,-4.918,331.675,56.162874,10.203895,59.25
2025-10-13T13:15:32.539793+00:00,11.028,8.931,6.559,-5.207,-4.802,335.705,56.162897,10.203863,62.32
2025-10-13T13:15:32.741718+00:00,11.024,8.614,6.609,-3.952,-4.638,339.744,56.162930,10.203885,60.41
2025-10-13T13:15:32.943383+00:00,11.020,8.353,6.672,-2.620,-4.426,343.777,56.162939,10.203922,60.31
2025-10-13T13:15:33.145248+00:00,11.016,8.159,6.749,-1.235,-4.169,347.814,56.162870,10.203935,59.06
2025-10-13T13:15:33.346927+00:00,11.013,8.040,6.839,0.173,-3.870,351.848,56.162854,10.203882,60.84
2025-10-13T13:15:33.550578+00:00,11.009,8.000,6.941,1.592,-3.528,355.921,56.162856,10.203870,58.25
2025-10-13T13:15:33.753236+00:00,11.006,8.043,7.054,2.972,-3.152,359.974,56.162871,10.203940,61.07
2025-10-13T13:15:33.955128+00:00,11.002,8.165,7.177,4.287,-2.745,4.012,56.162860,10.203909,57.82
2025-10-13T13:15:34.156787+00:00,10.999,8.361,7.307,5.516,-2.310,8.045,56.162893,10.203881,58.64
2025-10-13T13:15:34.358610+00:00,10.995,8.624,7.445,6.635,-1.852,12.082,56.162879,10.203869,59.63
2025-10-13T13:15:34.560805+00:00,10.992,8.944,7.588,7.624,-1.373,16.126,56.162899,10.203871,61.53
2025-10-13T13:15:34.763387+00:00,10.988,9.307,7.736,8.462,-0.880,20.177,56.162873,10.203893,61.99
2025-10-13T13:15:34.965160+00:00,10.985,9.697,7.886,9.128,-0.380,24.213,56.162899,10.203918,57.56
2025-10-13T13:15:35.167092+00:00,10.982,10.099,8.037,9.612,0.124,28.251,56.162949,10.203868,60.59
2025-10-13T13:15:35.368802+00:00,10.978,10.498,8.188,9.905,0.627,32.286,56.162924,10.203926,60.16
2025-10-13T13:15:35.570479+00:00,10.975,10.876,8.337,10.000,1.123,36.319,56.162900,10.203861,59.73
2025-10-13T13:15:35.772988+00:00,10.972,11.219,8.483,9.895,1.610,40.369,56.162880,10.203920,58.43
2025-10-13T13:15:35.974734+00:00,10.969,11.512,8.624,9.594,2.078,44.404,56.162906,10.203889,57.67
2025-10-13T13:15:36.176806+00:00,10.966,11.744,8.758,9.100,2.527,48.446,56.162872,10.203882,60.68
2025-10-13T13:15:36.378639+00:00,10.963,11.905,8.885,8.426,2.948,52.482,56.162862,10.203858,60.02
2025-10-13T13:15:36.580411+00:00,10.960,11.988,9.002,7.584,3.340,56.518,56.162865,10.203882,59.94
2025-10-13T13:15:36.783307+00:00,10.957,11.991,9.110,6.585,3.700,60.576,56.162896,10.203925,61.14
2025-10-13T13:15:36.985073+00:00,10.954,11.912,9.206,5.460,4.020,64.611,56.162867,10.203917,61.10
2025-10-13T13:15:37.136542+00:00,10.952,11.802,9.270,4.542,4.233,67.640,56.162933,10.203872,61.70
2025-10-13T13:15:37.339164+00:00,10.950,11.591,9.344,3.237,4.481,71.693,56.162911,10.203892,60.77
2025-10-13T13:15:37.540933+00:00,10.947,11.316,9.404,1.873,4.681,75.728,56.162867,10.203936,61.31
2025-10-13T13:15:37.744494+00:00,10.944,10.984,9.451,0.459,4.836,79.799,56.162945,10.203905,61.17
2025-10-13T13:15:37.946267+00:00,10.942,10.615,9.482,-0.951,4.939,83.835,56.162908,10.203948,59.35
2025-10-13T13:15:38.148337+00:00,10.940,10.221,9.498,-2.345,4.992,87.876,56.162890,10.203950,59.63
2025-10-13T13:15:38.350095+00:00,10.937,9.818,9.498,-3.690,4.995,91.911,56.162880,10.203906,59.98
2025-10-13T13:15:38.552037+00:00,10.935,9.422,9.484,-4.963,4.946,95.950,56.162933,10.203887,60.43
2025-10-13T13:15:38.754563+00:00,10.933,9.049,9.454,-6.140,4.847,100.001,56.162896,10.203895,58.05
2025-10-13T13:15:38.956802+00:00,10.930,8.715,9.410,-7.192,4.699,104.046,56.162884,10.203890,60.55
2025-10-13T13:15:39.158831+00:00,10.928,8.433,9.351,-8.100,4.502,108.086,56.162942,10.203850,58.19
2025-10-13T13:15:39.360465+00:00,10.926,8.216,9.278,-8.844,4.261,112.119,56.162926,10.203860,60.54
2025-10-13T13:15:39.562456+00:00,10.924,8.071,9.193,-9.414,3.975,116.159,56.162853,10.203893,58.89
2025-10-13T13:15:39.764434+00:00,10.922,8.004,9.095,-9.795,3.649,120.198,56.162886,10.203909,61.65
2025-10-13T13:15:39.966351+00:00,10.921,8.019,8.986,-9.981,3.286,124.237,56.162881,10.203873,58.96
2025-10-13T13:15:40.168396+00:00,10.919,8.114,8.867,-9.968,2.889,128.277,56.162892,10.203892,57.75
2025-10-13T13:15:40.370022+00:00,10.917,8.285,8.739,-9.757,2.464,132.310,56.162920,10.203875,59.32
2025-10-13T13:15:40.571755+00:00,10.916,8.526,8.604,-9.351,2.013,136.345,56.162860,10.203939,58.21
2025-10-13T13:15:40.773674+00:00,10.914,8.827,8.462,-8.758,1.542,140.383,56.162925,10.203922,59.25
2025-10-13T13:15:40.976614+00:00,10.913,9.177,8.316,-7.987,1.052,144.442,56.162906,10.203944,61.13
2025-10-13T13:15:41.178791+00:00,10.911,9.560,8.166,-7.058,0.553,148.485,56.162891,10.203887,60.28
2025-10-13T13:15:41.380645+00:00,10.910,9.960,8.015,-5.990,0.050,152.522,56.162858,10.203903,59.26
2025-10-13T13:15:41.582253+00:00,10.909,10.361,7.864,-4.804,-0.454,156.555,56.162885,10.203912,60.54
2025-10-13T13:15:41.784201+00:00,10.908,10.749,7.714,-3.520,-0.953,160.594,56.162870,10.203910,61.51
2025-10-13T13:15:41.986013+00:00,10.906,11.105,7.567,-2.167,-1.443,164.630,56.162853,10.203939,62.11
2025-10-13T13:15:42.187986+00:00,10.906,11.417,7.425,-0.770,-1.918,168.669,56.162879,10.203923,61.75
2025-10-13T13:15:42.390712+00:00,10.905,11.672,7.287,0.648,-2.376,172.724,56.162909,10.203900,60.84
2025-10-13T13:15:42.592400+00:00,10.904,11.858,7.158,2.045,-2.806,176.758,56.162942,10.203929,61.59
2025-10-13T13:15:42.794396+00:00,10.903,11.969,7.037,3.404,-3.209,180.797,56.162876,10.203908,60.33
2025-10-13T13:15:42.996163+00:00,10.902,11.999,6.926,4.694,-3.579,184.833,56.162905,10.203934,57.77
2025-10-13T13:15:43.198138+00:00,10.902,11.949,6.826,5.892,-3.913,188.872,56.162878,10.203924,59.82
2025-10-13T13:15:43.399725+00:00,10.901,11.819,6.738,6.969,-4.206,192.904,56.162857,10.203879,60.91
